~Version Information
 VERS.                  2.0:   CWLS log ASCII Standard -VERSION 2.0
 WRAP.                   NO:   One line per depth step
~Well Information Block
#MNEM.UNIT       Data Type    Information
#---------     -----------    ---------------------------
 STRT.F              7060.0000:
 STOP.F              8042.5000:
 STEP.F                 0.5000:
 NULL.               -999.2500:
 UWI .                CASN0046:  UWI
 API .                CASN0046:  UWI
 WELL.                 CASN-46:  COMMON WELL NAME
 COMP.               ECOPETROL:  WELL OPERATOR
 FLD .                CASTILLA:  FIELD
 LIC .                 UNKNOWN:  AUTHORIZATION NO
 LOC .                     LLA:  BASIN
 CTRY.                COLOMBIA:  COUNTRY
 STAT.                    META:  STATE
 CNTY.       CASTILLA_LA_NUEVA:  COUNTY
 PROV.                    META:  STATE
 SRVC.                 UNKNOWN:  COMPANY
 DATE.                 UNKNOWN:  LOG RUN DATE
 LONG.           -73.632420309:  LONGITUDE
 LATI.             3.896773166:  LATITUDE
 XCOORD.          1049433.6250:  X COORDINATE
 YCOORD.           922670.1250:  Y COORDINATE
 ELEV.FT             1389.3000:  ELEVATION
 TD  .FT             8065.0000:  TOTAL DEPTH
~Parameter Information Block
#MNEM.UNIT       Value        Description
#---------     -----------    ---------------------------
~Curve Information Block
#MNEM.UNIT                 API CODE     Curve Description
#---------               -----------    ---------------------------
 DEPTH.F                00 000 000 000:  Index Curve
 2019_pPerm_ANS.MD          00 000 000 000:  
 2019_pPhieE_D_ANS.V/V         00 000 000 000:  
~A DEPTH     2019_pPerm_ANS 2019_pPhieE_D_ANS
# ...
 7296.0000     0.0005     0.0017 
 7296.5000     0.0009     0.0016 
 7297.0000     0.0040     0.0055 
 7297.5000     0.0068     0.0069 
 7298.0000     0.0098     0.0092 
 7298.5000     0.0061     0.0065 
 7299.0000     0.0031     0.0044 
 7299.5000     0.0022     0.0036 
 7300.0000     0.0032     0.0046 
 7300.5000     0.0050     0.0058 
 7301.0000     0.0091     0.0094 
 7301.5000     0.0026     0.0041 
 7302.0000     0.0007     0.0015 
 7302.5000     0.0000     0.0003 
 7303.0000     0.0000     0.0003 
 7303.5000     0.0000     0.0001 
 7304.0000     0.0000     0.0001 
 7304.5000     0.0000     0.0003 
 7305.0000     0.0004     0.0015 
 7305.5000     0.0008     0.0022 
 7306.0000     0.0005     0.0017 
 7306.5000     0.0002     0.0006 
 7307.0000     0.0001     0.0005 
 7307.5000     0.0003     0.0012 
 7308.0000     0.0003     0.0012 
 7308.5000     0.0001     0.0007 
 7309.0000     0.0000     0.0003 
 7309.5000     0.0004     0.0010 
 7310.0000     0.0017     0.0034 
 7310.5000     0.0018     0.0039 
 7311.0000     0.0003     0.0010 
 7311.5000     0.0001     0.0004 
 7312.0000     0.0000     0.0002 
 7312.5000     0.0001     0.0007 
 7313.0000     0.0001     0.0005 
 7313.5000     0.0002     0.0011 
 7314.0000     0.0002     0.0009 
 7314.5000     0.0003     0.0013 
 7315.0000     0.0002     0.0011 
 7315.5000     0.0001     0.0008 
 7316.0000     0.0002     0.0009 
 7316.5000     0.0002     0.0010 
 7317.0000     0.0001     0.0007 
 7317.5000     0.0000     0.0003 
 7318.0000     0.0000     0.0002 
 7318.5000     0.0000     0.0001 
 7319.0000     0.0000     0.0001 
 7319.5000     0.0000     0.0001 
 7320.0000     0.0007     0.0011 
 7320.5000     0.0053     0.0052 
 7321.0000     0.0229     0.0150 
 7321.5000     0.0115     0.0090 
 7322.0000     0.0082     0.0076 
 7322.5000     0.0072     0.0073 
 7323.0000     0.0121     0.0089 
 7323.5000     0.0227     0.0132 
 7324.0000     0.0127     0.0090 
 7324.5000     0.0097     0.0087 
 7325.0000     0.0027     0.0032 
 7325.5000     0.0005     0.0015 
 7326.0000     0.0003     0.0007 
 7326.5000     0.0231     0.0027 
 7327.0000     0.4721     0.0367 
 7327.5000     1.8175     0.0745 
 7328.0000     1.0536     0.0592 
 7328.5000     0.1585     0.0156 
 7329.0000     0.0041     0.0020 
 7329.5000     0.0008     0.0009 
 7330.0000     0.0313     0.0051 
 7330.5000     0.6401     0.0413 
 7331.0000     3.5969     0.0776 
 7331.5000    22.7477     0.1062 
 7332.0000    62.6952     0.1292 
 7332.5000   113.5015     0.1447 
 7333.0000    90.8690     0.1365 
 7333.5000    51.0270     0.1239 
 7334.0000    17.4325     0.1060 
 7334.5000     5.0505     0.0828 
 7335.0000     0.1669     0.0039 
 7335.5000     0.0004     0.0001 
 7336.0000     0.0000     0.0000 
 7336.5000     0.0000     0.0000 
 7337.0000     0.0000     0.0001 
 7337.5000     0.0000     0.0000 
 7338.0000     0.0000     0.0001 
 7338.5000     0.0000     0.0003 
 7339.0000     0.0001     0.0008 
 7339.5000     0.0001     0.0005 
 7340.0000     0.0000     0.0002 
 7340.5000     0.0000     0.0003 
 7341.0000     0.0000     0.0002 
 7341.5000     0.0000     0.0001 
 7342.0000     0.0000     0.0001 
 7342.5000     0.0000     0.0001 
 7343.0000     0.0000     0.0001 
 7343.5000     0.0000     0.0001 
 7344.0000     0.0000     0.0001 
 7344.5000     0.0000     0.0001 
 7345.0000     0.0000     0.0001 
 7345.5000     0.0000     0.0000 
 7346.0000     0.0000     0.0000 
 7346.5000     0.0000     0.0000 
 7347.0000     0.0000     0.0001 
 7347.5000     0.0000     0.0002 
 7348.0000     0.0000     0.0002 
 7348.5000     0.0000     0.0002 
 7349.0000     0.0000     0.0002 
 7349.5000     0.0000     0.0003 
 7350.0000     0.0000     0.0004 
 7350.5000     0.0001     0.0005 
 7351.0000     0.0001     0.0006 
 7351.5000     0.0001     0.0005 
 7352.0000     0.0000     0.0004 
 7352.5000     0.0001     0.0005 
 7353.0000     0.0001     0.0008 
 7353.5000     0.0001     0.0006 
 7354.0000     0.0002     0.0010 
 7354.5000     0.0005     0.0018 
 7355.0000     0.0004     0.0015 
 7355.5000     0.0001     0.0006 
 7356.0000     0.0000     0.0002 
 7356.5000     0.0000     0.0002 
 7357.0000     0.0000     0.0003 
 7357.5000     0.0003     0.0011 
 7358.0000     0.0003     0.0010 
 7358.5000     0.0007     0.0021 
 7359.0000     0.0007     0.0018 
 7359.5000     0.0010     0.0027 
 7360.0000     0.0003     0.0010 
 7360.5000     0.0001     0.0005 
 7361.0000     0.0002     0.0005 
 7361.5000     0.0006     0.0016 
 7362.0000     0.0011     0.0029 
 7362.5000     0.0011     0.0026 
 7363.0000     0.0011     0.0022 
 7363.5000     0.0024     0.0041 
 7364.0000     0.0050     0.0061 
 7364.5000     0.0067     0.0070 
 7365.0000     0.0104     0.0086 
 7365.5000     0.0155     0.0110 
 7366.0000     0.0056     0.0054 
 7366.5000     0.0012     0.0026 
 7367.0000     0.0005     0.0016 
 7367.5000     0.0002     0.0011 
 7368.0000     0.0001     0.0007 
 7368.5000     0.0001     0.0005 
 7369.0000     0.0001     0.0007 
 7369.5000     0.0000     0.0003 
 7370.0000     0.0000     0.0001 
 7370.5000     0.0000     0.0000 
 7371.0000     0.0000     0.0000 
 7371.5000     0.0000     0.0000 
 7372.0000     0.0000     0.0000 
 7372.5000     0.0000     0.0000 
 7373.0000     0.0000     0.0000 
 7373.5000     0.0000     0.0000 
 7374.0000     0.0000     0.0000 
 7374.5000     0.0000     0.0001 
 7375.0000     0.0000     0.0002 
 7375.5000     0.0000     0.0000 
 7376.0000     0.0000     0.0000 
 7376.5000     0.0000     0.0000 
 7377.0000     0.0000     0.0000 
 7377.5000     0.0000     0.0000 
 7378.0000     0.0000     0.0000 
 7378.5000     0.0000     0.0000 
 7379.0000     0.0000     0.0000 
 7379.5000     0.0000     0.0000 
 7380.0000     0.0000     0.0000 
 7380.5000     0.0000     0.0000 
 7381.0000     0.0000     0.0000 
 7381.5000     0.0000     0.0000 
 7382.0000     0.0000     0.0000 
 7382.5000     0.0000     0.0000 
 7383.0000     0.0000     0.0000 
 7383.5000     0.0000     0.0000 
 7384.0000     0.0000     0.0000 
 7384.5000     0.0000     0.0000 
 7385.0000     0.0000     0.0000 
 7385.5000     0.0000     0.0000 
 7386.0000     0.0000     0.0000 
 7386.5000     0.0000     0.0000 
 7387.0000     0.0000     0.0000 
 7387.5000     0.0000     0.0000 
 7388.0000     0.0000     0.0000 
 7388.5000     0.0000     0.0000 
 7389.0000     0.0000     0.0000 
 7389.5000     0.0000     0.0000 
 7390.0000     0.0000     0.0000 
 7390.5000     0.0000     0.0000 
 7391.0000     0.0000     0.0000 
 7391.5000     0.0000     0.0000 
 7392.0000     0.0066     0.0003 
 7392.5000     2.1793     0.0217 
 7393.0000    13.7626     0.1101 
 7393.5000    18.3252     0.1149 
 7394.0000    15.7041     0.1110 
 7394.5000     8.6192     0.1008 
 7395.0000     0.6499     0.0466 
 7395.5000     0.0884     0.0128 
 7396.0000     0.0008     0.0020 
 7396.5000     0.0003     0.0013 
 7397.0000     0.0005     0.0010 
 7397.5000     0.0753     0.0085 
 7398.0000     2.0442     0.0458 
 7398.5000    22.1604     0.1219 
 7399.0000    19.6351     0.1154 
 7399.5000     5.2306     0.0825 
 7400.0000     0.4730     0.0326 
 7400.5000     0.0289     0.0073 
 7401.0000     0.0243     0.0057 
 7401.5000    10.9739     0.0317 
 7402.0000   106.6118     0.1505 
 7402.5000   282.0744     0.1727 
 7403.0000   498.9414     0.1853 
 7403.5000   695.0189     0.1930 
 7404.0000   606.8877     0.1916 
 7404.5000   324.5648     0.1765 
 7405.0000   126.2851     0.1497 
 7405.5000    59.7849     0.1370 
 7406.0000    53.6503     0.1344 
 7406.5000    28.2463     0.1182 
 7407.0000     6.2409     0.0708 
 7407.5000     1.7351     0.0727 
 7408.0000     0.2988     0.0122 
 7408.5000     0.0013     0.0007 
 7409.0000     0.0000     0.0000 
 7409.5000     0.0000     0.0000 
 7410.0000     0.0000     0.0000 
 7410.5000     0.0000     0.0000 
 7411.0000     0.0000     0.0000 
 7411.5000     0.0000     0.0000 
 7412.0000     0.0000     0.0000 
 7412.5000     0.0000     0.0000 
 7413.0000     0.0000     0.0000 
 7413.5000     0.0000     0.0000 
