~Version Information
 VERS.                  2.0:   CWLS log ASCII Standard -VERSION 2.0
 WRAP.                   NO:   One line per depth step
~Well Information Block
#MNEM.UNIT       Data Type    Information
#---------     -----------    ---------------------------
 STRT.F              7353.0000:
 STOP.F              8528.5000:
 STEP.F                 0.5000:
 NULL.               -999.2500:
 UWI .                CASN0108:  UWI
 API .                CASN0108:  UWI
 WELL.                CASN-108:  COMMON WELL NAME
 COMP.               ECOPETROL:  WELL OPERATOR
 FLD .                CASTILLA:  FIELD
 LIC .                 UNKNOWN:  AUTHORIZATION NO
 LOC .                     LLA:  BASIN
 CTRY.                COLOMBIA:  COUNTRY
 STAT.                    META:  STATE
 CNTY.                 UNKNOWN:  COUNTY
 PROV.                    META:  STATE
 SRVC.                 UNKNOWN:  COMPANY
 DATE.                 UNKNOWN:  LOG RUN DATE
 LONG.           -73.606511044:  LONGITUDE
 LATI.             3.902261590:  LATITUDE
 XCOORD.          1052311.0000:  X COORDINATE
 YCOORD.           923278.6250:  Y COORDINATE
 ELEV.FT             1333.7070:  ELEVATION
 TD  .FT             8565.0000:  TOTAL DEPTH
~Parameter Information Block
#MNEM.UNIT       Value        Description
#---------     -----------    ---------------------------
~Curve Information Block
#MNEM.UNIT                 API CODE     Curve Description
#---------               -----------    ---------------------------
 DEPTH.F                00 000 000 000:  Index Curve
 2019_pPerm_ANS.MD          00 000 000 000:  
 2019_pPhieE_D_ANS.V/V         00 000 000 000:  
~A DEPTH     2019_pPerm_ANS 2019_pPhieE_D_ANS
# ...
 8179.0000  6624.2163     0.2217 
 8179.5000  9783.0996     0.2345 
 8180.0000 13029.2861     0.2454 
 8180.5000 13390.6602     0.2471 
 8181.0000 10544.7793     0.2408 
 8181.5000  6675.8970     0.2273 
 8182.0000  3081.2466     0.2016 
 8182.5000  1325.6244     0.1776 
 8183.0000   670.2239     0.1613 
 8183.5000   485.4231     0.1581 
 8184.0000   432.0785     0.1616 
 8184.5000   459.4409     0.1655 
 8185.0000   604.3632     0.1730 
 8185.5000   890.2628     0.1781 
 8186.0000  1285.4330     0.1832 
 8186.5000  1967.1891     0.1921 
 8187.0000  2989.3928     0.2051 
 8187.5000  4764.6963     0.2185 
 8188.0000  6668.9834     0.2278 
 8188.5000  8233.9453     0.2335 
 8189.0000  9244.3975     0.2360 
 8189.5000  8721.2510     0.2342 
 8190.0000  7392.1157     0.2298 
 8190.5000  5028.5244     0.2193 
 8191.0000  2548.7273     0.1973 
 8191.5000  1097.3898     0.1688 
 8192.0000   442.4372     0.1424 
 8192.5000   246.3128     0.1281 
 8193.0000   221.3067     0.1294 
 8193.5000   295.9881     0.1395 
 8194.0000   564.7203     0.1586 
 8194.5000   988.3897     0.1754 
 8195.0000  1107.6754     0.1771 
 8195.5000   777.6413     0.1609 
 8196.0000   488.3922     0.1439 
 8196.5000   428.1869     0.1437 
 8197.0000   766.7343     0.1640 
 8197.5000  1252.9612     0.1832 
 8198.0000  1374.2025     0.1879 
 8198.5000  1261.1663     0.1832 
 8199.0000  1039.3713     0.1744 
 8199.5000   868.3958     0.1678 
 8200.0000   935.3301     0.1706 
 8200.5000  1227.0839     0.1814 
 8201.0000  1892.8193     0.1943 
 8201.5000  2649.2183     0.2020 
 8202.0000  3049.9048     0.2036 
 8202.5000  3123.1455     0.2031 
 8203.0000  2884.9429     0.2006 
 8203.5000  2622.2615     0.1981 
 8204.0000  2613.7197     0.1992 
 8204.5000  2683.9473     0.2015 
 8205.0000  2477.3604     0.1985 
 8205.5000  1990.1550     0.1902 
 8206.0000  1461.8558     0.1782 
 8206.5000  1135.4387     0.1675 
 8207.0000  1051.4622     0.1657 
 8207.5000  1372.8640     0.1747 
 8208.0000  1933.9469     0.1895 
 8208.5000  2071.3423     0.1953 
 8209.0000  1802.3042     0.1898 
 8209.5000  1503.3976     0.1821 
 8210.0000  1370.1279     0.1785 
 8210.5000  1677.8580     0.1840 
 8211.0000  2287.1162     0.1949 
 8211.5000  2960.1467     0.2029 
 8212.0000  3346.0410     0.2061 
 8212.5000  3117.5984     0.2036 
 8213.0000  2602.8955     0.1981 
 8213.5000  2315.9421     0.1960 
 8214.0000  2336.5388     0.1977 
 8214.5000  2641.9812     0.2024 
 8215.0000  3142.5737     0.2079 
 8215.5000  3605.1804     0.2117 
 8216.0000  3919.1909     0.2136 
 8216.5000  3760.4941     0.2120 
 8217.0000  1228.7234     0.1619 
 8217.5000   104.6739     0.0833 
 8218.0000    53.8535     0.0579 
 8218.5000   111.2533     0.0913 
 8219.0000  1342.6090     0.1641 
 8219.5000  3799.5012     0.2070 
 8220.0000  3279.8384     0.2015 
 8220.5000  2903.1772     0.1979 
 8221.0000  2726.7454     0.1961 
 8221.5000  2489.1062     0.1931 
 8222.0000  2175.8171     0.1888 
 8222.5000  1870.7509     0.1840 
 8223.0000  1645.5925     0.1798 
 8223.5000  1381.8390     0.1737 
 8224.0000  1154.6444     0.1688 
 8224.5000   991.3805     0.1650 
 8225.0000   934.1749     0.1642 
 8225.5000  1068.7250     0.1702 
 8226.0000  1197.4799     0.1744 
 8226.5000  1161.1484     0.1732 
 8227.0000  1065.8690     0.1696 
 8227.5000  1105.4418     0.1690 
 8228.0000  1423.4829     0.1787 
 8228.5000  1918.9453     0.1902 
 8229.0000  1993.8634     0.1902 
 8229.5000  1432.8335     0.1792 
 8230.0000  1077.7327     0.1707 
 8230.5000  1638.7601     0.1811 
 8231.0000  2758.1248     0.1989 
 8231.5000  3545.0474     0.2064 
 8232.0000  3523.4548     0.2040 
 8232.5000  2910.7573     0.1968 
 8233.0000  2487.1865     0.1925 
 8233.5000  2186.8281     0.1894 
 8234.0000  1839.2352     0.1845 
 8234.5000  1443.9288     0.1765 
 8235.0000  1298.2469     0.1728 
 8235.5000  1565.3125     0.1789 
 8236.0000  2412.4058     0.1928 
 8236.5000  3796.2837     0.2097 
 8237.0000  4831.8970     0.2198 
 8237.5000  5045.0166     0.2226 
 8238.0000  4339.3550     0.2205 
 8238.5000  3297.8044     0.2146 
 8239.0000  2559.8530     0.2088 
 8239.5000  1994.8286     0.2015 
 8240.0000  1534.6864     0.1903 
 8240.5000  1158.2100     0.1791 
 8241.0000  1218.3020     0.1775 
 8241.5000  1586.9227     0.1850 
 8242.0000  2473.5261     0.1980 
 8242.5000  3134.3992     0.2037 
 8243.0000  3017.4307     0.2013 
 8243.5000  2804.9807     0.1983 
 8244.0000  2889.0085     0.1984 
 8244.5000  3317.4949     0.2033 
 8245.0000  3753.8579     0.2070 
 8245.5000  3830.5015     0.2065 
 8246.0000  3652.7747     0.2041 
 8246.5000  3425.6948     0.2012 
 8247.0000  3494.9773     0.2017 
 8247.5000  4496.9214     0.2097 
 8248.0000  5886.4707     0.2188 
 8248.5000  6541.0576     0.2236 
 8249.0000  6026.8418     0.2205 
 8249.5000  4534.7559     0.2118 
 8250.0000  3588.9150     0.2062 
 8250.5000  3991.5598     0.2093 
 8251.0000  4562.1758     0.2136 
 8251.5000  4384.9189     0.2124 
 8252.0000  3787.3472     0.2075 
 8252.5000  3598.5769     0.2061 
 8253.0000  3855.7766     0.2097 
 8253.5000  3974.1824     0.2110 
 8254.0000  3720.5579     0.2080 
 8254.5000  3162.7510     0.2020 
 8255.0000  2584.7703     0.1959 
 8255.5000  2063.3596     0.1891 
 8256.0000  1878.2217     0.1871 
 8256.5000  2062.3621     0.1907 
 8257.0000  2687.6296     0.1976 
 8257.5000  3744.0432     0.2069 
 8258.0000  5041.5620     0.2144 
 8258.5000  6326.2549     0.2207 
 8259.0000  6447.4604     0.2219 
 8259.5000  5663.3804     0.2175 
 8260.0000  4308.9927     0.2096 
 8260.5000  2995.0906     0.1991 
 8261.0000  2676.1965     0.1958 
 8261.5000  2978.5889     0.2028 
 8262.0000  4730.0698     0.2184 
 8262.5000  6974.0332     0.2324 
 8263.0000  5706.1426     0.2253 
 8263.5000  2930.5688     0.2010 
 8264.0000  1533.4227     0.1807 
 8264.5000  1386.9923     0.1815 
 8265.0000  2766.4751     0.2056 
 8265.5000  5304.2095     0.2272 
 8266.0000  6567.0732     0.2301 
 8266.5000  5344.5269     0.2188 
 8267.0000  3897.4204     0.2056 
 8267.5000  4697.4697     0.2121 
 8268.0000  7670.7178     0.2302 
 8268.5000 12887.3867     0.2478 
 8269.0000 16668.2715     0.2547 
 8269.5000 12816.8018     0.2440 
 8270.0000  8486.9346     0.2296 
 8270.5000  6817.2915     0.2217 
 8271.0000  6314.4492     0.2210 
 8271.5000  5231.2017     0.2178 
 8272.0000  3132.4780     0.2033 
 8272.5000  1892.7621     0.1888 
 8273.0000  1543.2075     0.1866 
 8273.5000  2466.4329     0.1996 
 8274.0000  3957.7227     0.2123 
 8274.5000  5099.4600     0.2170 
 8275.0000  5868.6104     0.2192 
 8275.5000  6368.9780     0.2223 
 8276.0000  5519.6479     0.2185 
 8276.5000  3414.6150     0.2026 
 8277.0000  1865.2738     0.1824 
 8277.5000  1240.3875     0.1703 
 8278.0000  1360.2749     0.1728 
 8278.5000  1850.1886     0.1832 
 8279.0000  2650.2188     0.1942 
 8279.5000  3525.0549     0.2034 
 8280.0000  3518.5273     0.2040 
 8280.5000  2775.7617     0.1950 
 8281.0000  1678.9283     0.1773 
 8281.5000  1085.3501     0.1673 
 8282.0000  1548.7411     0.1774 
 8282.5000  2684.1782     0.1984 
 8283.0000  5207.7095     0.2209 
 8283.5000  7233.9570     0.2306 
 8284.0000  7361.9170     0.2302 
 8284.5000  6746.5669     0.2250 
 8285.0000  5988.2197     0.2203 
 8285.5000  5038.7656     0.2143 
 8286.0000  4459.4233     0.2100 
 8286.5000  4362.1909     0.2095 
 8287.0000  4369.9062     0.2084 
 8287.5000  4388.6997     0.2085 
 8288.0000  4085.8889     0.2055 
 8288.5000  4095.2869     0.2054 
 8289.0000  4553.3193     0.2096 
 8289.5000  5420.4404     0.2151 
 8290.0000  6623.5225     0.2223 
 8290.5000  6963.5210     0.2248 
 8291.0000  6204.9800     0.2199 
 8291.5000  5320.5322     0.2139 
 8292.0000  4890.9761     0.2115 
 8292.5000  4619.7969     0.2103 
 8293.0000  4095.1770     0.2066 
 8293.5000  3130.0940     0.1980 
 8294.0000  2514.6125     0.1924 
 8294.5000  2447.3745     0.1923 
 8295.0000  2502.1509     0.1929 
 8295.5000  2643.5149     0.1942 
 8296.0000  2852.4131     0.1961 
 8296.5000  3389.2341     0.2021 
