~Version Information
 VERS.                  2.0:   CWLS log ASCII Standard -VERSION 2.0
 WRAP.                   NO:   One line per depth step
~Well Information Block
#MNEM.UNIT       Data Type    Information
#---------     -----------    ---------------------------
 STRT.F              7267.0000:
 STOP.F              8234.0000:
 STEP.F                 0.5000:
 NULL.               -999.2500:
 UWI .                CASN0087:  UWI
 API .                CASN0087:  UWI
 WELL.                 CASN-87:  COMMON WELL NAME
 COMP.               ECOPETROL:  WELL OPERATOR
 FLD .                CASTILLA:  FIELD
 LIC .                 UNKNOWN:  AUTHORIZATION NO
 LOC .                     LLA:  BASIN
 CTRY.                COLOMBIA:  COUNTRY
 STAT.                    META:  STATE
 CNTY.                 UNKNOWN:  COUNTY
 PROV.                    META:  STATE
 SRVC.                 UNKNOWN:  COMPANY
 DATE.                 UNKNOWN:  LOG RUN DATE
 LONG.           -73.612780838:  LONGITUDE
 LATI.             3.904697520:  LATITUDE
 XCOORD.          1051614.5000:  X COORDINATE
 YCOORD.           923547.6250:  Y COORDINATE
 ELEV.FT             1354.7550:  ELEVATION
 TD  .FT             8220.0000:  TOTAL DEPTH
~Parameter Information Block
#MNEM.UNIT       Value        Description
#---------     -----------    ---------------------------
~Curve Information Block
#MNEM.UNIT                 API CODE     Curve Description
#---------               -----------    ---------------------------
 DEPTH.F                00 000 000 000:  Index Curve
 2019_pPerm_ANS.MD          00 000 000 000:  
 2019_pPhieE_D_ANS.V/V         00 000 000 000:  
~A DEPTH     2019_pPerm_ANS 2019_pPhieE_D_ANS
# ...
 7385.0000     0.0000     0.0000 
 7385.5000     0.0000     0.0000 
 7386.0000     0.0000     0.0000 
 7386.5000     0.0000     0.0000 
 7387.0000     0.0000     0.0000 
 7387.5000     0.0000     0.0003 
 7388.0000     0.0001     0.0030 
 7388.5000     0.1746     0.0149 
 7389.0000     5.3166     0.0529 
 7389.5000    48.8462     0.1017 
 7390.0000    92.5444     0.1231 
 7390.5000   118.2147     0.1279 
 7391.0000   167.4442     0.1352 
 7391.5000   203.3729     0.1396 
 7392.0000   201.2064     0.1393 
 7392.5000   211.7799     0.1402 
 7393.0000   309.7629     0.1478 
 7393.5000   446.3617     0.1564 
 7394.0000   507.8116     0.1595 
 7394.5000   508.5729     0.1595 
 7395.0000   540.9493     0.1608 
 7395.5000   620.7648     0.1639 
 7396.0000   730.4567     0.1674 
 7396.5000   854.7693     0.1709 
 7397.0000   837.1357     0.1704 
 7397.5000   587.1903     0.1616 
 7398.0000   221.3419     0.1257 
 7398.5000    12.2767     0.0679 
 7399.0000     0.4665     0.0342 
 7399.5000     0.2289     0.0273 
 7400.0000     0.1448     0.0229 
 7400.5000     0.0733     0.0173 
 7401.0000     0.0458     0.0145 
 7401.5000     0.0901     0.0185 
 7402.0000     0.2554     0.0275 
 7402.5000     0.2538     0.0277 
 7403.0000     0.0734     0.0151 
 7403.5000     0.0944     0.0161 
 7404.0000     2.2072     0.0456 
 7404.5000    19.6987     0.0851 
 7405.0000    44.9252     0.1083 
 7405.5000    28.7607     0.0867 
 7406.0000     1.5171     0.0340 
 7406.5000     0.0001     0.0044 
 7407.0000     0.0000     0.0008 
 7407.5000     0.0000     0.0001 
 7408.0000     0.0000     0.0000 
 7408.5000     0.0000     0.0000 
 7409.0000     0.0000     0.0000 
 7409.5000     0.0000     0.0000 
 7410.0000     0.0000     0.0000 
 7410.5000     0.0000     0.0001 
 7411.0000     0.0000     0.0003 
 7411.5000     0.0000     0.0010 
 7412.0000     0.0001     0.0049 
 7412.5000     0.2082     0.0209 
 7413.0000     0.3127     0.0304 
 7413.5000     0.1094     0.0151 
 7414.0000     0.1817     0.0176 
 7414.5000     0.6858     0.0384 
 7415.0000     0.5521     0.0329 
 7415.5000     0.0552     0.0134 
 7416.0000     0.0005     0.0037 
 7416.5000     0.0000     0.0009 
 7417.0000     0.0000     0.0003 
 7417.5000     0.0000     0.0000 
 7418.0000     0.0000     0.0000 
 7418.5000     0.0000     0.0002 
 7419.0000     0.0000     0.0005 
 7419.5000     0.0000     0.0010 
 7420.0000     0.0000     0.0012 
 7420.5000     0.0000     0.0008 
 7421.0000     0.0000     0.0004 
 7421.5000     0.0000     0.0003 
 7422.0000     0.0000     0.0003 
 7422.5000     0.0000     0.0003 
 7423.0000     0.0000     0.0003 
 7423.5000     0.0000     0.0006 
 7424.0000     0.0000     0.0012 
 7424.5000     0.0000     0.0022 
 7425.0000     0.0000     0.0027 
 7425.5000     0.0000     0.0016 
 7426.0000     0.0000     0.0005 
 7426.5000     0.0000     0.0001 
 7427.0000     0.0000     0.0000 
 7427.5000     0.0000     0.0000 
 7428.0000     0.0000     0.0000 
 7428.5000     0.0000     0.0000 
 7429.0000     0.0000     0.0000 
 7429.5000     0.0000     0.0002 
 7430.0000     0.0000     0.0005 
 7430.5000     0.0000     0.0007 
 7431.0000     0.0000     0.0005 
 7431.5000     0.0000     0.0003 
 7432.0000     0.0000     0.0000 
 7432.5000     0.0000     0.0000 
 7433.0000     0.0000     0.0000 
 7433.5000     0.0000     0.0000 
 7434.0000     0.0000     0.0000 
 7434.5000     0.0000     0.0003 
 7435.0000     0.0080     0.0069 
 7435.5000     0.5400     0.0293 
 7436.0000     8.3380     0.0669 
 7436.5000    14.1187     0.0866 
 7437.0000     6.8662     0.0646 
 7437.5000     0.5289     0.0321 
 7438.0000     0.2704     0.0259 
 7438.5000     7.1987     0.0592 
 7439.0000    69.9943     0.1081 
 7439.5000   150.7381     0.1330 
 7440.0000   160.7821     0.1346 
 7440.5000   157.3616     0.1341 
 7441.0000   283.8986     0.1446 
 7441.5000   812.0933     0.1665 
 7442.0000  2057.9885     0.1891 
 7442.5000  3342.7678     0.2021 
 7443.0000  3598.4487     0.2039 
 7443.5000  3059.3376     0.2000 
 7444.0000  2422.2104     0.1946 
 7444.5000  1816.9561     0.1878 
 7445.0000  1183.0463     0.1775 
 7445.5000   642.3757     0.1633 
 7446.0000   352.5232     0.1510 
 7446.5000   271.9122     0.1458 
 7447.0000   254.0895     0.1444 
 7447.5000   128.2508     0.1150 
 7448.0000     7.0483     0.0568 
 7448.5000     0.1561     0.0231 
 7449.0000     0.0836     0.0186 
 7449.5000     0.1249     0.0214 
 7450.0000     0.2640     0.0283 
 7450.5000     0.5627     0.0367 
 7451.0000     0.7652     0.0411 
 7451.5000     0.5499     0.0363 
 7452.0000     0.2521     0.0280 
 7452.5000     0.1276     0.0217 
 7453.0000     0.0947     0.0196 
 7453.5000     0.1677     0.0239 
 7454.0000     0.1833     0.0250 
 7454.5000     0.0696     0.0155 
 7455.0000     0.0041     0.0056 
 7455.5000     0.0000     0.0014 
 7456.0000     0.0000     0.0003 
 7456.5000     0.0000     0.0001 
 7457.0000     0.0000     0.0001 
 7457.5000     0.0000     0.0001 
 7458.0000     0.0000     0.0001 
 7458.5000     0.0000     0.0001 
 7459.0000     0.0000     0.0001 
 7459.5000     0.0000     0.0001 
 7460.0000     0.0000     0.0001 
 7460.5000     0.0000     0.0001 
 7461.0000     0.0000     0.0001 
 7461.5000     0.0000     0.0001 
 7462.0000     0.0000     0.0001 
 7462.5000     0.0000     0.0001 
 7463.0000     0.0000     0.0000 
 7463.5000     0.0000     0.0000 
 7464.0000     0.0000     0.0000 
 7464.5000     0.0000     0.0000 
 7465.0000     0.0000     0.0000 
 7465.5000     0.0000     0.0000 
 7466.0000     0.0000     0.0000 
 7466.5000     0.0000     0.0000 
 7467.0000     0.0000     0.0000 
 7467.5000     0.0000     0.0000 
 7468.0000     0.0000     0.0000 
 7468.5000     0.0000     0.0000 
 7469.0000     0.0000     0.0000 
 7469.5000     0.0000     0.0000 
 7470.0000     0.0000     0.0000 
 7470.5000     0.0000     0.0000 
 7471.0000     0.0000     0.0000 
 7471.5000     0.0000     0.0000 
 7472.0000     0.0000     0.0000 
 7472.5000     0.0000     0.0000 
 7473.0000     0.0000     0.0000 
 7473.5000     0.0000     0.0000 
 7474.0000     0.0000     0.0000 
 7474.5000     0.0000     0.0000 
 7475.0000     0.0000     0.0000 
 7475.5000     0.0000     0.0000 
 7476.0000     0.0000     0.0000 
 7476.5000     0.0000     0.0000 
 7477.0000     0.0000     0.0000 
 7477.5000     0.0000     0.0000 
 7478.0000     0.0000     0.0000 
 7478.5000     0.0000     0.0000 
 7479.0000     0.0000     0.0000 
 7479.5000     0.0000     0.0000 
 7480.0000     0.0000     0.0000 
 7480.5000     0.0000     0.0000 
 7481.0000     0.0000     0.0000 
 7481.5000     0.0000     0.0000 
 7482.0000     0.0000     0.0000 
 7482.5000     0.0000     0.0000 
 7483.0000     0.0000     0.0000 
 7483.5000     0.0001     0.0002 
 7484.0000     0.0004     0.0010 
 7484.5000     0.0045     0.0040 
 7485.0000     0.0089     0.0069 
 7485.5000     0.0061     0.0055 
 7486.0000     0.0016     0.0026 
 7486.5000     0.0003     0.0009 
 7487.0000     0.0000     0.0002 
 7487.5000     0.0000     0.0001 
 7488.0000     0.0000     0.0000 
 7488.5000     0.0000     0.0000 
 7489.0000     0.0000     0.0000 
 7489.5000     0.0000     0.0000 
 7490.0000     0.0000     0.0000 
 7490.5000     0.0000     0.0000 
 7491.0000     0.0000     0.0000 
 7491.5000     0.0000     0.0002 
 7492.0000     0.0000     0.0003 
 7492.5000     0.0000     0.0002 
 7493.0000     0.0000     0.0000 
 7493.5000     0.0000     0.0000 
 7494.0000     0.0000     0.0000 
 7494.5000     0.0000     0.0000 
 7495.0000     0.0000     0.0000 
 7495.5000     0.0000     0.0000 
 7496.0000     0.0000     0.0000 
 7496.5000     0.0000     0.0000 
 7497.0000     0.0000     0.0000 
 7497.5000     0.0000     0.0000 
 7498.0000     0.0000     0.0000 
 7498.5000     0.0000     0.0000 
 7499.0000     0.0000     0.0000 
 7499.5000     0.0000     0.0000 
 7500.0000     0.0000     0.0000 
 7500.5000     0.0000     0.0000 
 7501.0000     0.0000     0.0000 
 7501.5000     0.0003     0.0007 
 7502.0000     0.0010     0.0021 
 7502.5000     0.0020     0.0033 
