~Version Information
 VERS.                  2.0:   CWLS log ASCII Standard -VERSION 2.0
 WRAP.                   NO:   One line per depth step
~Well Information Block
#MNEM.UNIT       Data Type    Information
#---------     -----------    ---------------------------
 STRT.F              7353.0000:
 STOP.F              8528.5000:
 STEP.F                 0.5000:
 NULL.               -999.2500:
 UWI .                CASN0108:  UWI
 API .                CASN0108:  UWI
 WELL.                CASN-108:  COMMON WELL NAME
 COMP.               ECOPETROL:  WELL OPERATOR
 FLD .                CASTILLA:  FIELD
 LIC .                 UNKNOWN:  AUTHORIZATION NO
 LOC .                     LLA:  BASIN
 CTRY.                COLOMBIA:  COUNTRY
 STAT.                    META:  STATE
 CNTY.                 UNKNOWN:  COUNTY
 PROV.                    META:  STATE
 SRVC.                 UNKNOWN:  COMPANY
 DATE.                 UNKNOWN:  LOG RUN DATE
 LONG.           -73.606511044:  LONGITUDE
 LATI.             3.902261590:  LATITUDE
 XCOORD.          1052311.0000:  X COORDINATE
 YCOORD.           923278.6250:  Y COORDINATE
 ELEV.FT             1333.7070:  ELEVATION
 TD  .FT             8565.0000:  TOTAL DEPTH
~Parameter Information Block
#MNEM.UNIT       Value        Description
#---------     -----------    ---------------------------
~Curve Information Block
#MNEM.UNIT                 API CODE     Curve Description
#---------               -----------    ---------------------------
 DEPTH.F                00 000 000 000:  Index Curve
 2019_pPerm_ANS.MD          00 000 000 000:  
 2019_pPhieE_D_ANS.V/V         00 000 000 000:  
~A DEPTH     2019_pPerm_ANS 2019_pPhieE_D_ANS
# ...
 8297.0000  4116.8130     0.2093 
 8297.5000  4637.3701     0.2135 
 8298.0000  4404.5801     0.2117 
 8298.5000  3534.7764     0.2039 
 8299.0000  2473.6421     0.1912 
 8299.5000  1781.0106     0.1809 
 8300.0000  1818.6830     0.1820 
 8300.5000  2228.2844     0.1903 
 8301.0000  3049.1929     0.2018 
 8301.5000  3501.0454     0.2049 
 8302.0000  3235.6606     0.2020 
 8302.5000  2798.4370     0.1966 
 8303.0000  2384.1118     0.1899 
 8303.5000  2516.5112     0.1929 
 8304.0000  3642.1501     0.2044 
 8304.5000  5223.1562     0.2176 
 8305.0000  6626.9634     0.2266 
 8305.5000  7191.2671     0.2284 
 8306.0000  7775.3809     0.2297 
 8306.5000  8894.7305     0.2336 
 8307.0000  9160.5996     0.2337 
 8307.5000  8555.3350     0.2313 
 8308.0000  7468.1143     0.2270 
 8308.5000  6283.6113     0.2220 
 8309.0000  5403.4937     0.2182 
 8309.5000  5420.8608     0.2192 
 8310.0000  6212.2031     0.2247 
 8310.5000  7086.9346     0.2285 
 8311.0000  6734.8931     0.2240 
 8311.5000  5261.5459     0.2149 
 8312.0000  4282.3184     0.2105 
 8312.5000  3181.7527     0.2030 
 8313.0000  1853.7277     0.1859 
 8313.5000   936.1852     0.1632 
 8314.0000   398.6277     0.1435 
 8314.5000   367.0587     0.1473 
 8315.0000   489.7448     0.1625 
 8315.5000   791.8995     0.1750 
 8316.0000  1183.5001     0.1826 
 8316.5000  1439.2144     0.1822 
 8317.0000  1798.9010     0.1857 
 8317.5000  2300.7769     0.1927 
 8318.0000  2647.9568     0.1964 
 8318.5000  2867.9714     0.1993 
 8319.0000  3191.2495     0.2034 
 8319.5000  3923.6528     0.2127 
 8320.0000  4738.5879     0.2226 
 8320.5000  5022.9814     0.2270 
 8321.0000  4444.2100     0.2232 
 8321.5000  4164.0698     0.2204 
 8322.0000  4361.1772     0.2190 
 8322.5000  4610.9146     0.2182 
 8323.0000  5279.1855     0.2203 
 8323.5000  5945.4697     0.2224 
 8324.0000  6076.0830     0.2226 
 8324.5000  5332.7598     0.2161 
 8325.0000  3681.3813     0.2050 
 8325.5000  2323.1980     0.1968 
 8326.0000  1418.5291     0.1905 
 8326.5000   810.0215     0.1803 
 8327.0000   589.4117     0.1710 
 8327.5000   605.4130     0.1695 
 8328.0000   915.0255     0.1814 
 8328.5000  1420.8102     0.1981 
 8329.0000  1988.2349     0.2115 
 8329.5000  2700.3655     0.2230 
 8330.0000  3132.0935     0.2278 
 8330.5000  2958.7117     0.2255 
 8331.0000  2477.1274     0.2178 
 8331.5000  2111.1406     0.2085 
 8332.0000  2062.7256     0.2027 
 8332.5000  2373.7466     0.2017 
 8333.0000  2730.5925     0.2028 
 8333.5000  3100.2014     0.2050 
 8334.0000  3358.5935     0.2058 
 8334.5000  3675.6133     0.2083 
 8335.0000  3838.9766     0.2090 
 8335.5000  3633.0955     0.2066 
 8336.0000  3408.5544     0.2037 
 8336.5000  3241.5283     0.2008 
 8337.0000  3299.5447     0.2020 
 8337.5000  3535.1565     0.2049 
 8338.0000  4144.9429     0.2108 
 8338.5000  5282.5645     0.2193 
 8339.0000  5769.6206     0.2213 
 8339.5000  5395.8462     0.2183 
 8340.0000  4621.7627     0.2140 
 8340.5000  3746.4202     0.2083 
 8341.0000  3328.5713     0.2057 
 8341.5000  3032.6169     0.2038 
 8342.0000  2870.0605     0.2025 
 8342.5000  2821.9302     0.2024 
 8343.0000  2767.4797     0.2013 
 8343.5000  2762.4236     0.1997 
 8344.0000  2620.1196     0.1963 
 8344.5000  2455.5762     0.1929 
 8345.0000  2570.5312     0.1935 
 8345.5000  2983.2986     0.2000 
 8346.0000  3546.5671     0.2088 
 8346.5000  3660.3623     0.2114 
 8347.0000  3603.6079     0.2113 
 8347.5000  3795.0452     0.2115 
 8348.0000  4462.3457     0.2149 
 8348.5000  4811.6318     0.2163 
 8349.0000  4192.7725     0.2109 
 8349.5000  3524.8997     0.2065 
 8350.0000  2904.3801     0.2020 
 8350.5000  2442.9355     0.1975 
 8351.0000  2230.5911     0.1956 
 8351.5000  2357.2351     0.1968 
 8352.0000  2750.1345     0.2023 
 8352.5000  2890.3557     0.2043 
 8353.0000  2584.9326     0.1989 
 8353.5000  1909.0961     0.1886 
 8354.0000  1338.8214     0.1782 
 8354.5000  1225.0283     0.1746 
 8355.0000  1305.8345     0.1771 
 8355.5000  1584.1833     0.1815 
 8356.0000  2009.7091     0.1894 
 8356.5000  2452.3167     0.1972 
 8357.0000  2708.2229     0.2013 
 8357.5000  2433.7288     0.1977 
 8358.0000  1882.9548     0.1870 
 8358.5000  1530.1023     0.1781 
 8359.0000  1480.4668     0.1759 
 8359.5000  1845.4236     0.1832 
 8360.0000  2579.8298     0.1940 
 8360.5000  3565.1975     0.2061 
 8361.0000  3612.2139     0.2073 
 8361.5000  2685.0234     0.1969 
 8362.0000  1698.8140     0.1817 
 8362.5000  1107.2526     0.1694 
 8363.0000  1098.5496     0.1688 
 8363.5000  1317.1809     0.1755 
 8364.0000  1624.1377     0.1823 
 8364.5000  1846.8284     0.1859 
 8365.0000  1897.8467     0.1870 
 8365.5000  2029.5247     0.1900 
 8366.0000  2537.9448     0.1972 
 8366.5000  3189.5376     0.2051 
 8367.0000  3322.0447     0.2069 
 8367.5000  2944.4062     0.2015 
 8368.0000  2473.6104     0.1955 
 8368.5000  2060.0647     0.1900 
 8369.0000  1793.2600     0.1867 
 8369.5000  1776.3325     0.1894 
 8370.0000  1916.3220     0.1934 
 8370.5000  2165.0757     0.1977 
 8371.0000  2265.2463     0.1980 
 8371.5000  1830.9290     0.1880 
 8372.0000  1309.3447     0.1744 
 8372.5000  1150.2800     0.1690 
 8373.0000  1241.2336     0.1726 
 8373.5000  1675.3281     0.1834 
 8374.0000  2142.8979     0.1913 
 8374.5000  2507.4175     0.1945 
 8375.0000  3007.0220     0.1990 
 8375.5000  3001.4885     0.1985 
 8376.0000  2759.1042     0.1949 
 8376.5000  2419.1941     0.1901 
 8377.0000  2291.6174     0.1889 
 8377.5000  2418.2236     0.1918 
 8378.0000  2367.4253     0.1922 
 8378.5000  2206.7666     0.1913 
 8379.0000  2270.1765     0.1941 
 8379.5000  2709.9490     0.2012 
 8380.0000  3130.8691     0.2055 
 8380.5000  3290.6013     0.2057 
 8381.0000  3167.0540     0.2040 
 8381.5000  2665.9673     0.1996 
 8382.0000  1716.3875     0.1871 
 8382.5000   997.6789     0.1742 
 8383.0000   864.7681     0.1736 
 8383.5000  1037.9037     0.1830 
 8384.0000  1450.9149     0.1934 
 8384.5000  1836.4922     0.1991 
 8385.0000  1855.5731     0.1981 
 8385.5000  1899.9277     0.1987 
 8386.0000  2460.8784     0.2044 
 8386.5000  3266.5837     0.2115 
 8387.0000  3970.6960     0.2166 
 8387.5000  4078.8657     0.2151 
 8388.0000  3493.1765     0.2085 
 8388.5000  3134.6382     0.2044 
 8389.0000  3293.8206     0.2052 
 8389.5000  3599.7090     0.2071 
 8390.0000  4001.2737     0.2102 
 8390.5000  4052.4592     0.2103 
 8391.0000  3634.3521     0.2066 
 8391.5000  3182.9026     0.2029 
 8392.0000  2736.5447     0.1980 
 8392.5000  2518.1941     0.1961 
 8393.0000  2476.2524     0.1972 
 8393.5000  2369.8945     0.1975 
 8394.0000  2286.4688     0.1984 
 8394.5000  2194.0320     0.1972 
 8395.0000  2034.8422     0.1937 
 8395.5000  2122.3066     0.1928 
 8396.0000  2219.3604     0.1925 
 8396.5000  2499.7424     0.1950 
 8397.0000  3000.9065     0.2006 
 8397.5000  3151.5339     0.2019 
 8398.0000  3048.6758     0.1990 
 8398.5000  2913.1404     0.1968 
 8399.0000  2709.4971     0.1949 
 8399.5000  2325.8418     0.1927 
 8400.0000  1795.2341     0.1868 
 8400.5000  1427.5286     0.1816 
 8401.0000  1340.4335     0.1830 
 8401.5000  1415.7324     0.1880 
 8402.0000  1546.6152     0.1915 
 8402.5000  1816.4855     0.1942 
 8403.0000  2371.3096     0.1997 
 8403.5000  2765.5813     0.2025 
 8404.0000  2291.7856     0.1964 
 8404.5000  1618.1211     0.1858 
 8405.0000  1350.6423     0.1802 
 8405.5000  1392.1750     0.1826 
 8406.0000  1650.7504     0.1865 
 8406.5000  1851.1825     0.1875 
 8407.0000  1863.3419     0.1854 
 8407.5000  1927.6233     0.1850 
 8408.0000  2134.8738     0.1882 
 8408.5000  2148.4004     0.1876 
 8409.0000  1810.2448     0.1821 
 8409.5000  1455.6381     0.1753 
 8410.0000  1378.5789     0.1745 
 8410.5000  1552.5265     0.1809 
 8411.0000  1828.1667     0.1880 
 8411.5000  1999.4133     0.1905 
 8412.0000  2100.8135     0.1907 
 8412.5000  2134.8320     0.1902 
 8413.0000  2149.7029     0.1902 
 8413.5000  2167.8689     0.1908 
 8414.0000  2164.2905     0.1908 
 8414.5000  2056.1790     0.1890 
