~Version Information
 VERS.                  2.0:   CWLS log ASCII Standard -VERSION 2.0
 WRAP.                   NO:   One line per depth step
~Well Information Block
#MNEM.UNIT       Data Type    Information
#---------     -----------    ---------------------------
 STRT.F              8011.0000:
 STOP.F              9260.0000:
 STEP.F                 0.5000:
 NULL.               -999.2500:
 UWI .                CASN0030:  UWI
 API .                CASN0030:  UWI
 WELL.                 CASN-30:  COMMON WELL NAME
 COMP.               ECOPETROL:  WELL OPERATOR
 FLD .                CASTILLA:  FIELD
 LIC .                 UNKNOWN:  AUTHORIZATION NO
 LOC .                     LLA:  BASIN
 CTRY.                COLOMBIA:  COUNTRY
 STAT.                    META:  STATE
 CNTY.       CASTILLA_LA_NUEVA:  COUNTY
 PROV.                    META:  STATE
 SRVC.                 UNKNOWN:  COMPANY
 DATE.                 UNKNOWN:  LOG RUN DATE
 LONG.           -73.616480936:  LONGITUDE
 LATI.             3.893355943:  LATITUDE
 XCOORD.          1051204.2500:  X COORDINATE
 YCOORD.           922293.1875:  Y COORDINATE
 ELEV.FT             1376.0000:  ELEVATION
 TD  .FT             9235.0000:  TOTAL DEPTH
~Parameter Information Block
#MNEM.UNIT       Value        Description
#---------     -----------    ---------------------------
~Curve Information Block
#MNEM.UNIT                 API CODE     Curve Description
#---------               -----------    ---------------------------
 DEPTH.F                00 000 000 000:  Index Curve
 2019_pPerm_ANS.MD          00 000 000 000:  
 2019_pPhieE_D_ANS.V/V         00 000 000 000:  
~A DEPTH     2019_pPerm_ANS 2019_pPhieE_D_ANS
# ...
 8601.0000  3115.4558     0.2284 
 8601.5000  1939.8096     0.2327 
 8602.0000  1850.6389     0.2371 
 8602.5000  2059.5774     0.2387 
 8603.0000  2740.1108     0.2253 
 8603.5000  1703.9689     0.2124 
 8604.0000   816.0867     0.1976 
 8604.5000   517.0070     0.1863 
 8605.0000   370.4205     0.1817 
 8605.5000   327.8955     0.1844 
 8606.0000    21.2698     0.0431 
 8606.5000     0.0632     0.0019 
 8607.0000     0.0001     0.0000 
 8607.5000     0.0000     0.0000 
 8608.0000     0.0000     0.0000 
 8608.5000     0.0000     0.0000 
 8609.0000     0.0000     0.0000 
 8609.5000     0.0000     0.0000 
 8610.0000     0.0000     0.0000 
 8610.5000     0.0001     0.0003 
 8611.0000     0.0035     0.0018 
 8611.5000     0.0192     0.0118 
 8612.0000     0.0196     0.0119 
 8612.5000     0.0111     0.0085 
 8613.0000     0.0018     0.0001 
 8613.5000     0.0000     0.0000 
 8614.0000     0.0000     0.0000 
 8614.5000     0.0000     0.0003 
 8615.0000     0.2661     0.0120 
 8615.5000     2.4460     0.0674 
 8616.0000    28.5052     0.1246 
 8616.5000    29.8361     0.1201 
 8617.0000    38.8942     0.1242 
 8617.5000    61.8887     0.1356 
 8618.0000    93.1001     0.1462 
 8618.5000   115.7658     0.1494 
 8619.0000   128.0771     0.1518 
 8619.5000   132.6734     0.1513 
 8620.0000   127.7256     0.1518 
 8620.5000   108.7955     0.1456 
 8621.0000   139.6870     0.1535 
 8621.5000   182.2320     0.1617 
 8622.0000   150.6898     0.1555 
 8622.5000    56.9762     0.1278 
 8623.0000    12.9740     0.1027 
 8623.5000     2.9249     0.0670 
 8624.0000     0.1889     0.0292 
 8624.5000     0.0990     0.0244 
 8625.0000     0.0539     0.0187 
 8625.5000     0.2393     0.0353 
 8626.0000     0.4395     0.0440 
 8626.5000     0.8874     0.0604 
 8627.0000     0.5596     0.0484 
 8627.5000     0.1588     0.0233 
 8628.0000     0.0797     0.0222 
 8628.5000     0.1453     0.0220 
 8629.0000     0.5068     0.0479 
 8629.5000     0.6522     0.0516 
 8630.0000     0.8676     0.0515 
 8630.5000     2.1886     0.0765 
 8631.0000     2.3248     0.0788 
 8631.5000     0.8620     0.0534 
 8632.0000     0.1396     0.0166 
 8632.5000     0.0100     0.0063 
 8633.0000     0.0184     0.0107 
 8633.5000     0.0421     0.0154 
 8634.0000     0.1255     0.0307 
 8634.5000     0.0404     0.0157 
 8635.0000     0.0145     0.0085 
 8635.5000     0.0058     0.0061 
 8636.0000     0.0166     0.0107 
 8636.5000     0.0245     0.0129 
 8637.0000     0.0169     0.0105 
 8637.5000     0.0109     0.0083 
 8638.0000     0.0117     0.0085 
 8638.5000     0.0150     0.0104 
 8639.0000     0.0073     0.0061 
 8639.5000     0.0048     0.0057 
 8640.0000     0.0023     0.0030 
 8640.5000     0.0031     0.0045 
 8641.0000     0.0033     0.0045 
 8641.5000     0.0040     0.0040 
 8642.0000     0.0116     0.0089 
 8642.5000     0.0259     0.0114 
 8643.0000     0.0700     0.0212 
 8643.5000     0.1009     0.0256 
 8644.0000     0.0979     0.0241 
 8644.5000     0.1176     0.0277 
 8645.0000     0.0862     0.0226 
 8645.5000     0.1490     0.0317 
 8646.0000     0.0785     0.0221 
 8646.5000     0.0333     0.0140 
 8647.0000     0.0053     0.0050 
 8647.5000     0.0142     0.0102 
 8648.0000     0.0245     0.0110 
 8648.5000     0.1345     0.0274 
 8649.0000     0.2976     0.0377 
 8649.5000     0.5958     0.0502 
 8650.0000     0.7501     0.0548 
 8650.5000     0.5538     0.0472 
 8651.0000     0.4849     0.0472 
 8651.5000     0.2835     0.0362 
 8652.0000     0.2301     0.0361 
 8652.5000     0.1222     0.0236 
 8653.0000     0.2070     0.0361 
 8653.5000     0.1219     0.0252 
 8654.0000     0.1879     0.0314 
 8654.5000     0.3243     0.0393 
 8655.0000     0.6728     0.0503 
 8655.5000     1.2127     0.0630 
 8656.0000     1.0380     0.0569 
 8656.5000     1.4267     0.0659 
 8657.0000     2.6179     0.0796 
 8657.5000     3.2580     0.0821 
 8658.0000     0.6327     0.0235 
 8658.5000     0.1302     0.0222 
 8659.0000     0.4940     0.0517 
 8659.5000     0.1243     0.0220 
 8660.0000     0.0382     0.0147 
 8660.5000     0.0285     0.0135 
 8661.0000     0.0331     0.0152 
 8661.5000     0.0300     0.0140 
 8662.0000     0.0275     0.0136 
 8662.5000     0.0223     0.0125 
 8663.0000     0.0134     0.0089 
 8663.5000     0.0152     0.0106 
 8664.0000     0.0125     0.0086 
 8664.5000     0.0206     0.0126 
 8665.0000     0.0178     0.0104 
 8665.5000     0.0427     0.0171 
 8666.0000     0.0693     0.0198 
 8666.5000     0.4517     0.0451 
 8667.0000     0.9873     0.0553 
 8667.5000    11.3989     0.1090 
 8668.0000     6.6112     0.0925 
 8668.5000     2.6598     0.0763 
 8669.0000     0.3784     0.0365 
 8669.5000     0.0463     0.0081 
 8670.0000     0.0019     0.0026 
 8670.5000     0.0003     0.0010 
 8671.0000     0.0002     0.0008 
 8671.5000     0.0001     0.0006 
 8672.0000     0.0000     0.0002 
 8672.5000     0.0000     0.0000 
 8673.0000     0.0000     0.0000 
 8673.5000     0.0000     0.0000 
 8674.0000     0.0000     0.0000 
 8674.5000     0.0000     0.0000 
 8675.0000     0.0000     0.0002 
 8675.5000     0.0000     0.0000 
 8676.0000     0.0000     0.0001 
 8676.5000     0.0000     0.0002 
 8677.0000     0.0000     0.0002 
 8677.5000     0.0001     0.0004 
 8678.0000     0.0002     0.0005 
 8678.5000     0.0008     0.0020 
 8679.0000     0.0008     0.0014 
 8679.5000     0.0061     0.0037 
 8680.0000     0.5897     0.0196 
 8680.5000    10.7162     0.0832 
 8681.0000    62.3296     0.1452 
 8681.5000    12.1449     0.0802 
 8682.0000     3.2893     0.0832 
 8682.5000     1.8251     0.0677 
 8683.0000     1.4715     0.0684 
 8683.5000     0.5993     0.0431 
 8684.0000     0.6363     0.0496 
 8684.5000     1.0452     0.0628 
 8685.0000     0.6872     0.0521 
 8685.5000     0.2042     0.0275 
 8686.0000     0.0510     0.0169 
 8686.5000     0.2141     0.0275 
 8687.0000     2.6728     0.0533 
 8687.5000   128.9729     0.1545 
 8688.0000   281.7141     0.1711 
 8688.5000  1024.6796     0.2005 
 8689.0000  1985.0808     0.2383 
 8689.5000  4778.3950     0.2772 
 8690.0000  8416.6387     0.3104 
 8690.5000  8131.9551     0.3124 
 8691.0000  3741.8567     0.2653 
 8691.5000   765.9440     0.1745 
 8692.0000    43.4320     0.0670 
 8692.5000     0.2684     0.0001 
 8693.0000     0.0000     0.0001 
 8693.5000     0.0000     0.0001 
 8694.0000     0.0000     0.0001 
 8694.5000     0.0423     0.0001 
 8695.0000     0.3291     0.0427 
 8695.5000     0.0339     0.0040 
 8696.0000     0.0004     0.0000 
 8696.5000     0.0000     0.0000 
 8697.0000     0.0000     0.0000 
 8697.5000     0.0000     0.0000 
 8698.0000     0.0003     0.0000 
 8698.5000     0.0033     0.0030 
 8699.0000     0.1322     0.0245 
 8699.5000     0.4124     0.0431 
 8700.0000    21.1963     0.0573 
 8700.5000   111.8532     0.1567 
 8701.0000    21.4014     0.0750 
 8701.5000    30.4382     0.0809 
 8702.0000   335.3059     0.1764 
 8702.5000   722.0417     0.2046 
 8703.0000   112.6332     0.0750 
 8703.5000     0.8039     0.0484 
 8704.0000     0.9403     0.0555 
 8704.5000     2.1586     0.0743 
 8705.0000   113.6611     0.0832 
 8705.5000  1397.7510     0.2468 
 8706.0000  3502.0564     0.2781 
 8706.5000  5593.6001     0.2904 
 8707.0000  6144.9634     0.2929 
 8707.5000  4424.0566     0.2755 
 8708.0000  2780.0891     0.2570 
 8708.5000  2007.2552     0.2481 
 8709.0000  1804.2599     0.2475 
 8709.5000  2575.5730     0.2578 
 8710.0000  4152.6191     0.2735 
 8710.5000  6706.5566     0.2962 
 8711.0000  9525.1260     0.3158 
 8711.5000 11198.6367     0.3267 
 8712.0000 10397.9023     0.3222 
 8712.5000  6148.1167     0.2924 
 8713.0000  1799.4784     0.2337 
 8713.5000   377.1810     0.1721 
 8714.0000    36.1408     0.0448 
 8714.5000     0.0603     0.0105 
 8715.0000     0.0027     0.0013 
 8715.5000     0.0000     0.0001 
 8716.0000     0.0000     0.0001 
 8716.5000     0.0034     0.0009 
 8717.0000     0.2513     0.0183 
 8717.5000     2.6414     0.0649 
 8718.0000    25.2540     0.1277 
 8718.5000     1.6750     0.0656 
