~Version Information
 VERS.                  2.0:   CWLS log ASCII Standard -VERSION 2.0
 WRAP.                   NO:   One line per depth step
~Well Information Block
#MNEM.UNIT       Data Type    Information
#---------     -----------    ---------------------------
 STRT.F              7353.0000:
 STOP.F              8528.5000:
 STEP.F                 0.5000:
 NULL.               -999.2500:
 UWI .                CASN0108:  UWI
 API .                CASN0108:  UWI
 WELL.                CASN-108:  COMMON WELL NAME
 COMP.               ECOPETROL:  WELL OPERATOR
 FLD .                CASTILLA:  FIELD
 LIC .                 UNKNOWN:  AUTHORIZATION NO
 LOC .                     LLA:  BASIN
 CTRY.                COLOMBIA:  COUNTRY
 STAT.                    META:  STATE
 CNTY.                 UNKNOWN:  COUNTY
 PROV.                    META:  STATE
 SRVC.                 UNKNOWN:  COMPANY
 DATE.                 UNKNOWN:  LOG RUN DATE
 LONG.           -73.606511044:  LONGITUDE
 LATI.             3.902261590:  LATITUDE
 XCOORD.          1052311.0000:  X COORDINATE
 YCOORD.           923278.6250:  Y COORDINATE
 ELEV.FT             1333.7070:  ELEVATION
 TD  .FT             8565.0000:  TOTAL DEPTH
~Parameter Information Block
#MNEM.UNIT       Value        Description
#---------     -----------    ---------------------------
~Curve Information Block
#MNEM.UNIT                 API CODE     Curve Description
#---------               -----------    ---------------------------
 DEPTH.F                00 000 000 000:  Index Curve
 2019_pPerm_ANS.MD          00 000 000 000:  
 2019_pPhieE_D_ANS.V/V         00 000 000 000:  
~A DEPTH     2019_pPerm_ANS 2019_pPhieE_D_ANS
# ...
 7707.0000     0.0000     0.0004 
 7707.5000     0.0000     0.0002 
 7708.0000     0.0000     0.0003 
 7708.5000     0.0007     0.0014 
 7709.0000     0.0026     0.0041 
 7709.5000     0.0039     0.0053 
 7710.0000     0.0033     0.0046 
 7710.5000     0.0019     0.0033 
 7711.0000     0.0013     0.0027 
 7711.5000     0.0016     0.0030 
 7712.0000     0.0022     0.0037 
 7712.5000     0.0028     0.0044 
 7713.0000     0.0029     0.0044 
 7713.5000     0.0024     0.0039 
 7714.0000     0.0016     0.0031 
 7714.5000     0.0010     0.0022 
 7715.0000     0.0008     0.0021 
 7715.5000     0.0009     0.0023 
 7716.0000     0.0009     0.0022 
 7716.5000     0.0007     0.0020 
 7717.0000     0.0009     0.0021 
 7717.5000     0.0015     0.0029 
 7718.0000     0.0033     0.0046 
 7718.5000     0.0054     0.0060 
 7719.0000     0.0035     0.0047 
 7719.5000     0.0021     0.0037 
 7720.0000     0.0023     0.0036 
 7720.5000     0.0030     0.0044 
 7721.0000     0.0041     0.0051 
 7721.5000     0.0062     0.0064 
 7722.0000     0.0096     0.0086 
 7722.5000     0.0084     0.0078 
 7723.0000     0.0038     0.0047 
 7723.5000     0.0014     0.0025 
 7724.0000     0.0022     0.0031 
 7724.5000     0.0076     0.0070 
 7725.0000     0.0146     0.0107 
 7725.5000     0.0097     0.0083 
 7726.0000     0.0031     0.0041 
 7726.5000     0.0012     0.0023 
 7727.0000     0.0010     0.0022 
 7727.5000     0.0039     0.0044 
 7728.0000     0.0101     0.0085 
 7728.5000     0.0110     0.0094 
 7729.0000     0.0063     0.0066 
 7729.5000     0.0023     0.0034 
 7730.0000     0.0005     0.0016 
 7730.5000     0.0001     0.0006 
 7731.0000     0.0000     0.0003 
 7731.5000     0.0000     0.0001 
 7732.0000     0.0000     0.0001 
 7732.5000     0.0000     0.0000 
 7733.0000     0.0000     0.0000 
 7733.5000     0.0000     0.0000 
 7734.0000     0.0000     0.0000 
 7734.5000     0.0000     0.0000 
 7735.0000     0.0000     0.0000 
 7735.5000     0.0000     0.0000 
 7736.0000     0.0000     0.0000 
 7736.5000     0.0000     0.0000 
 7737.0000     0.0000     0.0000 
 7737.5000     0.0000     0.0000 
 7738.0000     0.0000     0.0000 
 7738.5000     0.0000     0.0001 
 7739.0000     0.0000     0.0004 
 7739.5000     0.0002     0.0010 
 7740.0000     0.0013     0.0026 
 7740.5000     0.0029     0.0043 
 7741.0000     0.0015     0.0029 
 7741.5000     0.0004     0.0011 
 7742.0000     0.0001     0.0006 
 7742.5000     0.0001     0.0006 
 7743.0000     0.0001     0.0007 
 7743.5000     0.0001     0.0005 
 7744.0000     0.0000     0.0002 
 7744.5000     0.0000     0.0001 
 7745.0000     0.0000     0.0001 
 7745.5000     0.0000     0.0001 
 7746.0000     0.0002     0.0009 
 7746.5000     0.0010     0.0013 
 7747.0000     0.0321     0.0064 
 7747.5000     0.6788     0.0434 
 7748.0000     3.9072     0.0805 
 7748.5000    37.5070     0.1172 
 7749.0000   133.7840     0.1521 
 7749.5000   338.9536     0.1719 
 7750.0000   520.2916     0.1783 
 7750.5000   510.9334     0.1752 
 7751.0000   540.2094     0.1761 
 7751.5000   581.0063     0.1803 
 7752.0000   405.3313     0.1708 
 7752.5000   145.4304     0.1428 
 7753.0000    29.2946     0.1111 
 7753.5000     9.9233     0.0927 
 7754.0000     6.9318     0.0952 
 7754.5000     2.5627     0.0780 
 7755.0000     0.2831     0.0164 
 7755.5000     0.0049     0.0029 
 7756.0000     0.0003     0.0009 
 7756.5000     0.0000     0.0005 
 7757.0000     0.0000     0.0004 
 7757.5000     0.0001     0.0006 
 7758.0000     0.0001     0.0007 
 7758.5000     0.0001     0.0008 
 7759.0000     0.0001     0.0008 
 7759.5000     0.0001     0.0007 
 7760.0000     0.0001     0.0007 
 7760.5000     0.0002     0.0010 
 7761.0000     0.0005     0.0019 
 7761.5000     0.0008     0.0023 
 7762.0000     0.0003     0.0014 
 7762.5000     0.0001     0.0007 
 7763.0000     0.0001     0.0008 
 7763.5000     0.0003     0.0013 
 7764.0000     0.0003     0.0013 
 7764.5000     0.0002     0.0010 
 7765.0000     0.0001     0.0008 
 7765.5000     0.0001     0.0007 
 7766.0000     0.0001     0.0007 
 7766.5000     0.0001     0.0006 
 7767.0000     0.0001     0.0006 
 7767.5000     0.0001     0.0005 
 7768.0000     0.0001     0.0005 
 7768.5000     0.0003     0.0010 
 7769.0000     0.0007     0.0019 
 7769.5000     0.0026     0.0036 
 7770.0000     0.0102     0.0082 
 7770.5000     0.3235     0.0268 
 7771.0000     1.5568     0.0713 
 7771.5000     2.5876     0.0779 
 7772.0000     4.6779     0.0905 
 7772.5000     1.5707     0.0644 
 7773.0000     0.2383     0.0349 
 7773.5000     0.0529     0.0161 
 7774.0000     0.0096     0.0081 
 7774.5000     0.0023     0.0033 
 7775.0000     0.0004     0.0016 
 7775.5000     0.0001     0.0009 
 7776.0000     0.0000     0.0004 
 7776.5000     0.0000     0.0002 
 7777.0000     0.0000     0.0001 
 7777.5000     0.0000     0.0001 
 7778.0000     0.0000     0.0002 
 7778.5000     0.0000     0.0002 
 7779.0000     0.0003     0.0006 
 7779.5000     0.0035     0.0030 
 7780.0000     0.5051     0.0192 
 7780.5000     9.0323     0.0822 
 7781.0000   224.2363     0.1750 
 7781.5000   254.5646     0.1713 
 7782.0000   147.6842     0.1569 
 7782.5000    54.7853     0.1347 
 7783.0000    19.9403     0.1111 
 7783.5000     5.7299     0.0928 
 7784.0000     1.7670     0.0628 
 7784.5000     1.7359     0.0712 
 7785.0000     3.9256     0.0880 
 7785.5000     4.9557     0.0907 
 7786.0000     5.1403     0.0913 
 7786.5000     4.8630     0.0905 
 7787.0000     4.3133     0.0897 
 7787.5000     2.4781     0.0790 
 7788.0000     1.6329     0.0716 
 7788.5000     0.8251     0.0539 
 7789.0000     0.3240     0.0364 
 7789.5000     0.2565     0.0297 
 7790.0000     0.5416     0.0414 
 7790.5000     3.8669     0.0723 
 7791.0000    13.9365     0.1054 
 7791.5000    25.1361     0.1211 
 7792.0000    19.2985     0.1135 
 7792.5000     5.8423     0.0860 
 7793.0000     0.3603     0.0371 
 7793.5000     0.0392     0.0064 
 7794.0000     0.0008     0.0017 
 7794.5000     0.0010     0.0019 
 7795.0000     0.0039     0.0049 
 7795.5000     0.0127     0.0110 
 7796.0000     0.0116     0.0102 
 7796.5000     0.0030     0.0038 
 7797.0000     0.0004     0.0011 
 7797.5000     0.0001     0.0005 
 7798.0000     0.0000     0.0004 
 7798.5000     0.0000     0.0005 
 7799.0000     0.0001     0.0005 
 7799.5000     0.0000     0.0005 
 7800.0000     0.0000     0.0004 
 7800.5000     0.0001     0.0006 
 7801.0000     0.0003     0.0011 
 7801.5000     0.0009     0.0023 
 7802.0000     0.0187     0.0072 
 7802.5000     0.1152     0.0252 
 7803.0000     1.8687     0.0790 
 7803.5000     2.1342     0.0747 
 7804.0000     3.0990     0.0787 
 7804.5000     6.2483     0.0920 
 7805.0000    13.2552     0.1059 
 7805.5000    24.5219     0.1187 
 7806.0000    44.8230     0.1293 
 7806.5000    88.7630     0.1442 
 7807.0000   149.8738     0.1574 
 7807.5000   145.5140     0.1558 
 7808.0000    74.5617     0.1376 
 7808.5000    29.7451     0.1155 
 7809.0000    21.1773     0.1090 
 7809.5000    61.8345     0.1277 
 7810.0000   178.2809     0.1544 
 7810.5000   404.8601     0.1736 
 7811.0000   653.3408     0.1848 
 7811.5000   873.3436     0.1918 
 7812.0000   997.6645     0.1943 
 7812.5000   714.0559     0.1863 
 7813.0000   415.9162     0.1733 
 7813.5000   282.1589     0.1628 
 7814.0000   238.5325     0.1603 
 7814.5000   307.0948     0.1653 
 7815.0000   431.8601     0.1740 
 7815.5000   556.9949     0.1802 
 7816.0000   614.6763     0.1821 
 7816.5000   619.6900     0.1827 
 7817.0000   581.6804     0.1808 
 7817.5000   513.6456     0.1773 
 7818.0000   412.3889     0.1709 
 7818.5000   301.5687     0.1625 
 7819.0000   224.2819     0.1550 
 7819.5000   211.6660     0.1554 
 7820.0000   249.3638     0.1601 
 7820.5000   294.6769     0.1638 
 7821.0000   350.6564     0.1682 
 7821.5000   370.8154     0.1689 
 7822.0000   344.3076     0.1676 
 7822.5000   280.2358     0.1621 
 7823.0000   190.8995     0.1517 
 7823.5000   156.8660     0.1491 
 7824.0000   253.4532     0.1588 
 7824.5000   437.2764     0.1730 
