~Version Information
 VERS.                  2.0:   CWLS log ASCII Standard -VERSION 2.0
 WRAP.                   NO:   One line per depth step
~Well Information Block
#MNEM.UNIT       Data Type    Information
#---------     -----------    ---------------------------
 STRT.F              7353.0000:
 STOP.F              8528.5000:
 STEP.F                 0.5000:
 NULL.               -999.2500:
 UWI .                CASN0108:  UWI
 API .                CASN0108:  UWI
 WELL.                CASN-108:  COMMON WELL NAME
 COMP.               ECOPETROL:  WELL OPERATOR
 FLD .                CASTILLA:  FIELD
 LIC .                 UNKNOWN:  AUTHORIZATION NO
 LOC .                     LLA:  BASIN
 CTRY.                COLOMBIA:  COUNTRY
 STAT.                    META:  STATE
 CNTY.                 UNKNOWN:  COUNTY
 PROV.                    META:  STATE
 SRVC.                 UNKNOWN:  COMPANY
 DATE.                 UNKNOWN:  LOG RUN DATE
 LONG.           -73.606511044:  LONGITUDE
 LATI.             3.902261590:  LATITUDE
 XCOORD.          1052311.0000:  X COORDINATE
 YCOORD.           923278.6250:  Y COORDINATE
 ELEV.FT             1333.7070:  ELEVATION
 TD  .FT             8565.0000:  TOTAL DEPTH
~Parameter Information Block
#MNEM.UNIT       Value        Description
#---------     -----------    ---------------------------
~Curve Information Block
#MNEM.UNIT                 API CODE     Curve Description
#---------               -----------    ---------------------------
 DEPTH.F                00 000 000 000:  Index Curve
 2019_pPerm_ANS.MD          00 000 000 000:  
 2019_pPhieE_D_ANS.V/V         00 000 000 000:  
~A DEPTH     2019_pPerm_ANS 2019_pPhieE_D_ANS
 7353.0000    34.8052     0.1040 
 7353.5000    47.7430     0.1060 
 7354.0000    97.1424     0.1239 
 7354.5000   789.1294     0.1600 
 7355.0000  2635.9541     0.1966 
 7355.5000  5841.4004     0.2158 
 7356.0000  8733.0010     0.2251 
 7356.5000 11007.6436     0.2307 
 7357.0000 12793.8916     0.2344 
 7357.5000 12977.4971     0.2345 
 7358.0000 12957.1885     0.2346 
 7358.5000 12515.0752     0.2334 
 7359.0000 12589.0020     0.2340 
 7359.5000 11945.5879     0.2328 
 7360.0000 10413.3564     0.2292 
 7360.5000  8883.1543     0.2256 
 7361.0000  7174.3247     0.2201 
 7361.5000  5934.2007     0.2159 
 7362.0000  5117.6030     0.2118 
 7362.5000  5050.6978     0.2120 
 7363.0000  5827.0049     0.2156 
 7363.5000  6593.8218     0.2186 
 7364.0000  6427.5913     0.2180 
 7364.5000  6094.5083     0.2166 
 7365.0000  6792.5815     0.2195 
 7365.5000  7029.3252     0.2201 
 7366.0000  5573.0693     0.2147 
 7366.5000  3882.8921     0.2059 
 7367.0000  2728.2690     0.1966 
 7367.5000  2326.8521     0.1938 
 7368.0000  2657.2383     0.1969 
 7368.5000  3257.4343     0.2023 
 7369.0000  3540.2100     0.2047 
 7369.5000  3195.3618     0.2017 
 7370.0000  2729.5801     0.1976 
 7370.5000  2554.2734     0.1964 
 7371.0000  2444.8711     0.1956 
 7371.5000  2197.7419     0.1930 
 7372.0000  1927.3345     0.1897 
 7372.5000  1832.8992     0.1886 
 7373.0000  1794.0165     0.1880 
 7373.5000  1896.8943     0.1894 
 7374.0000  1988.8148     0.1903 
 7374.5000  2262.7834     0.1931 
 7375.0000  2624.0220     0.1967 
 7375.5000  3386.6440     0.2020 
 7376.0000  4489.4795     0.2092 
 7376.5000  5388.3730     0.2134 
 7377.0000  6258.9873     0.2171 
 7377.5000  6617.4141     0.2180 
 7378.0000  7391.3716     0.2208 
 7378.5000  8719.6025     0.2252 
 7379.0000  9420.1357     0.2272 
 7379.5000  8420.2314     0.2248 
 7380.0000  5950.1846     0.2157 
 7380.5000  3689.3811     0.2038 
 7381.0000  2449.8672     0.1940 
 7381.5000  2012.1718     0.1899 
 7382.0000  2130.1199     0.1914 
 7382.5000  2424.3960     0.1951 
 7383.0000  2287.8665     0.1940 
 7383.5000  1858.6790     0.1886 
 7384.0000  1465.5251     0.1832 
 7384.5000  1095.5955     0.1766 
 7385.0000   853.8464     0.1708 
 7385.5000   665.8680     0.1656 
 7386.0000   698.6425     0.1657 
 7386.5000   855.5032     0.1713 
 7387.0000   927.5513     0.1739 
 7387.5000   849.1471     0.1711 
 7388.0000   741.2430     0.1683 
 7388.5000   605.3156     0.1637 
 7389.0000   447.8559     0.1572 
 7389.5000   278.6327     0.1464 
 7390.0000   152.0466     0.1324 
 7390.5000    92.6601     0.1226 
 7391.0000    73.1309     0.1184 
 7391.5000    66.1427     0.1171 
 7392.0000    52.9479     0.1129 
 7392.5000    27.7583     0.0983 
 7393.0000    11.2232     0.0817 
 7393.5000     5.5644     0.0693 
 7394.0000     2.8732     0.0599 
 7394.5000     1.5375     0.0499 
 7395.0000     0.6601     0.0393 
 7395.5000     0.2807     0.0282 
 7396.0000     0.0776     0.0168 
 7396.5000     2.1452     0.0613 
 7397.0000     0.1111     0.0187 
 7397.5000     0.1563     0.0171 
 7398.0000     0.8717     0.0442 
 7398.5000     0.3633     0.0288 
 7399.0000     0.2059     0.0269 
 7399.5000     0.0930     0.0159 
 7400.0000     0.1244     0.0318 
 7400.5000     0.0199     0.0111 
 7401.0000     0.1132     0.0131 
 7401.5000     1.0968     0.0435 
 7402.0000     3.4177     0.0623 
 7402.5000     5.8735     0.0725 
 7403.0000     5.1978     0.0702 
 7403.5000     3.1606     0.0615 
 7404.0000     1.2519     0.0455 
 7404.5000     0.2535     0.0272 
 7405.0000     0.4262     0.0104 
 7405.5000     2.2150     0.0565 
 7406.0000     0.3813     0.0185 
 7406.5000     0.0001     0.0051 
 7407.0000     0.0000     0.0022 
 7407.5000     0.0000     0.0020 
 7408.0000     0.0000     0.0037 
 7408.5000     0.0001     0.0053 
 7409.0000     0.0000     0.0030 
 7409.5000     0.0000     0.0007 
 7410.0000     0.0000     0.0001 
 7410.5000     0.0000     0.0000 
 7411.0000     0.0000     0.0000 
 7411.5000     0.0000     0.0000 
 7412.0000     0.0000     0.0000 
 7412.5000     0.0000     0.0000 
 7413.0000     0.0000     0.0000 
 7413.5000     0.0000     0.0000 
 7414.0000     0.0000     0.0000 
 7414.5000     0.0000     0.0000 
 7415.0000     0.0000     0.0000 
 7415.5000     0.0000     0.0000 
 7416.0000     0.0000     0.0000 
 7416.5000     0.0000     0.0000 
 7417.0000     0.0000     0.0003 
 7417.5000     0.3968     0.0037 
 7418.0000    17.7400     0.0572 
 7418.5000   344.3793     0.1539 
 7419.0000   462.5954     0.1581 
 7419.5000   383.9123     0.1544 
 7420.0000   235.0810     0.1428 
 7420.5000   106.0573     0.1244 
 7421.0000    30.9718     0.0978 
 7421.5000     7.4949     0.0692 
 7422.0000     2.9743     0.0609 
 7422.5000     0.4490     0.0300 
 7423.0000     0.0314     0.0234 
 7423.5000     0.0832     0.0264 
 7424.0000     0.1101     0.0280 
 7424.5000     0.1498     0.0320 
 7425.0000     0.1475     0.0325 
 7425.5000     0.0883     0.0263 
 7426.0000     0.0287     0.0240 
 7426.5000     0.0815     0.0254 
 7427.0000     0.1766     0.0332 
 7427.5000     0.2977     0.0403 
 7428.0000     0.1666     0.0335 
 7428.5000     0.0088     0.0235 
 7429.0000     0.0009     0.0163 
 7429.5000     0.0005     0.0134 
 7430.0000     0.0163     0.0175 
 7430.5000     0.0997     0.0278 
 7431.0000     0.1570     0.0328 
 7431.5000     0.3600     0.0336 
 7432.0000     1.5477     0.0534 
 7432.5000     2.4787     0.0443 
 7433.0000    22.9779     0.0840 
 7433.5000   197.9915     0.1290 
 7434.0000   848.4363     0.1693 
 7434.5000  2084.0186     0.1928 
 7435.0000  2777.5156     0.1991 
 7435.5000  2105.6035     0.1918 
 7436.0000  1394.3884     0.1820 
 7436.5000  1367.5543     0.1807 
 7437.0000  1691.8534     0.1868 
 7437.5000  2216.7778     0.1942 
 7438.0000  2272.8721     0.1938 
 7438.5000  1529.1738     0.1830 
 7439.0000  1242.4242     0.1792 
 7439.5000  2035.2983     0.1889 
 7440.0000  3703.4475     0.2048 
 7440.5000  5667.2227     0.2158 
 7441.0000  6639.5161     0.2189 
 7441.5000  6752.9258     0.2196 
 7442.0000  5944.8086     0.2166 
 7442.5000  4093.8667     0.2075 
 7443.0000  2101.2004     0.1904 
 7443.5000   936.6054     0.1715 
 7444.0000   515.1006     0.1586 
 7444.5000   376.6966     0.1526 
 7445.0000   413.0064     0.1545 
 7445.5000   560.2255     0.1613 
 7446.0000  1044.9713     0.1746 
 7446.5000  1795.9711     0.1886 
 7447.0000  1975.1915     0.1917 
 7447.5000  1692.2145     0.1869 
 7448.0000  1735.9489     0.1862 
 7448.5000  2196.9082     0.1928 
 7449.0000  3320.4629     0.2025 
 7449.5000  4371.8901     0.2092 
 7450.0000  4092.3896     0.2081 
 7450.5000  3157.2788     0.2014 
 7451.0000  2002.7429     0.1903 
 7451.5000  1082.5306     0.1756 
 7452.0000   706.3430     0.1663 
 7452.5000   526.9090     0.1608 
 7453.0000   356.5973     0.1521 
 7453.5000   191.5999     0.1383 
 7454.0000    59.4886     0.1106 
 7454.5000    13.1190     0.0774 
 7455.0000     2.3168     0.0537 
 7455.5000     0.2913     0.0057 
 7456.0000     0.0000     0.0011 
 7456.5000     0.0000     0.0007 
 7457.0000     0.0000     0.0004 
 7457.5000     0.0000     0.0003 
 7458.0000     0.0000     0.0006 
 7458.5000     0.0000     0.0013 
 7459.0000     0.0000     0.0023 
 7459.5000     0.0000     0.0030 
 7460.0000     0.0001     0.0045 
 7460.5000     0.0003     0.0084 
 7461.0000     0.0005     0.0134 
 7461.5000     0.0193     0.0195 
 7462.0000     0.1268     0.0297 
 7462.5000     0.2573     0.0393 
 7463.0000     0.2634     0.0393 
 7463.5000     0.1593     0.0314 
 7464.0000     0.2394     0.0300 
 7464.5000     1.2957     0.0442 
 7465.0000    11.1335     0.0682 
 7465.5000    47.1809     0.1117 
 7466.0000    34.8047     0.1047 
 7466.5000     9.3876     0.0767 
 7467.0000     1.7499     0.0395 
 7467.5000     0.1571     0.0227 
 7468.0000     0.1706     0.0243 
 7468.5000     0.2378     0.0278 
 7469.0000     0.6824     0.0381 
 7469.5000     1.5054     0.0501 
 7470.0000     2.7735     0.0622 
 7470.5000     1.6948     0.0519 
