~Version Information
 VERS.                  2.0:   CWLS log ASCII Standard -VERSION 2.0
 WRAP.                   NO:   One line per depth step
~Well Information Block
#MNEM.UNIT       Data Type    Information
#---------     -----------    ---------------------------
 STRT.F              7375.0000:
 STOP.F              8337.5000:
 STEP.F                 0.5000:
 NULL.               -999.2500:
 UWI .                CASN0038:  UWI
 API .                CASN0038:  UWI
 WELL.                 CASN-38:  COMMON WELL NAME
 COMP.               ECOPETROL:  WELL OPERATOR
 FLD .                CASTILLA:  FIELD
 LIC .                 UNKNOWN:  AUTHORIZATION NO
 LOC .                     LLA:  BASIN
 CTRY.                COLOMBIA:  COUNTRY
 STAT.                    META:  STATE
 CNTY.       CASTILLA_LA_NUEVA:  COUNTY
 PROV.                    META:  STATE
 SRVC.                 UNKNOWN:  COMPANY
 DATE.                 UNKNOWN:  LOG RUN DATE
 LONG.           -73.615687866:  LONGITUDE
 LATI.             3.887258472:  LATITUDE
 XCOORD.          1051292.6250:  X COORDINATE
 YCOORD.           921618.9375:  Y COORDINATE
 ELEV.FT             1369.0000:  ELEVATION
 TD  .FT             8358.0000:  TOTAL DEPTH
~Parameter Information Block
#MNEM.UNIT       Value        Description
#---------     -----------    ---------------------------
~Curve Information Block
#MNEM.UNIT                 API CODE     Curve Description
#---------               -----------    ---------------------------
 DEPTH.F                00 000 000 000:  Index Curve
 2019_pPerm_ANS.MD          00 000 000 000:  
 2019_pPhieE_D_ANS.V/V         00 000 000 000:  
~A DEPTH     2019_pPerm_ANS 2019_pPhieE_D_ANS
# ...
 7847.0000     0.1007     0.0312 
 7847.5000     0.0140     0.0008 
 7848.0000     0.0281     0.0169 
 7848.5000     0.0456     0.0225 
 7849.0000     0.0127     0.0090 
 7849.5000     0.0148     0.0021 
 7850.0000     0.0878     0.0294 
 7850.5000     0.0706     0.0256 
 7851.0000     0.1334     0.0177 
 7851.5000     2.2881     0.0701 
 7852.0000    12.5348     0.1024 
 7852.5000    74.9558     0.1424 
 7853.0000   168.6623     0.1649 
 7853.5000   135.1522     0.1651 
 7854.0000    53.2415     0.1431 
 7854.5000    34.0378     0.1306 
 7855.0000    37.6148     0.1362 
 7855.5000    52.7888     0.1393 
 7856.0000    61.5628     0.1464 
 7856.5000    27.8554     0.1247 
 7857.0000    13.4117     0.1091 
 7857.5000    16.6813     0.0998 
 7858.0000    55.1330     0.1363 
 7858.5000    69.3040     0.1485 
 7859.0000     9.8941     0.0189 
 7859.5000     0.0047     0.0012 
 7860.0000     0.0025     0.0022 
 7860.5000     0.0744     0.0128 
 7861.0000     0.4245     0.0563 
 7861.5000     0.0591     0.0113 
 7862.0000     0.0045     0.0061 
 7862.5000     0.0004     0.0013 
 7863.0000     0.0001     0.0000 
 7863.5000     0.0011     0.0001 
 7864.0000     0.0303     0.0186 
 7864.5000     0.0420     0.0198 
 7865.0000     1.0186     0.0538 
 7865.5000     3.9149     0.0905 
 7866.0000     2.5306     0.0810 
 7866.5000     1.5235     0.0733 
 7867.0000     3.1900     0.0592 
 7867.5000    15.6751     0.1169 
 7868.0000    25.2065     0.1253 
 7868.5000    23.6512     0.1177 
 7869.0000    42.4975     0.1389 
 7869.5000    20.7956     0.1167 
 7870.0000    10.6972     0.1053 
 7870.5000     9.3483     0.1107 
 7871.0000     1.5694     0.0553 
 7871.5000     0.1713     0.0312 
 7872.0000     0.0594     0.0214 
 7872.5000     0.1421     0.0316 
 7873.0000     0.3273     0.0428 
 7873.5000     2.3180     0.0474 
 7874.0000    12.9742     0.1043 
 7874.5000    79.4380     0.1370 
 7875.0000   262.1110     0.1683 
 7875.5000   258.4614     0.1729 
 7876.0000    33.8102     0.1216 
 7876.5000    37.5753     0.1336 
 7877.0000    42.2716     0.1404 
 7877.5000    11.5296     0.0605 
 7878.0000    21.9267     0.1286 
 7878.5000     4.9788     0.0312 
 7879.0000     6.3951     0.1017 
 7879.5000     6.9796     0.0863 
 7880.0000    19.2126     0.1193 
 7880.5000     4.1977     0.0777 
 7881.0000     0.2338     0.0020 
 7881.5000     0.0002     0.0013 
 7882.0000     0.0004     0.0020 
 7882.5000     0.0000     0.0000 
 7883.0000     0.0001     0.0001 
 7883.5000     0.0017     0.0019 
 7884.0000     0.0437     0.0144 
 7884.5000     0.1645     0.0347 
 7885.0000     0.0289     0.0011 
 7885.5000     0.0014     0.0034 
 7886.0000     0.0003     0.0006 
 7886.5000     0.0001     0.0009 
 7887.0000     0.0003     0.0014 
 7887.5000     0.0004     0.0015 
 7888.0000     0.0033     0.0030 
 7888.5000     0.0462     0.0120 
 7889.0000    13.0908     0.0472 
 7889.5000   116.7211     0.1434 
 7890.0000   415.0728     0.1800 
 7890.5000   541.6983     0.1867 
 7891.0000   645.1329     0.1951 
 7891.5000   330.1243     0.1694 
 7892.0000   526.3768     0.1842 
 7892.5000   713.2538     0.2016 
 7893.0000   252.6405     0.1692 
 7893.5000   129.9713     0.1538 
 7894.0000    75.9690     0.1407 
 7894.5000    35.0046     0.1274 
 7895.0000     2.7170     0.0191 
 7895.5000    49.3164     0.1457 
 7896.0000    22.4218     0.1171 
 7896.5000   108.8201     0.1491 
 7897.0000   237.5749     0.1682 
 7897.5000   302.8107     0.1719 
 7898.0000   450.0504     0.1824 
 7898.5000   701.0753     0.1935 
 7899.0000  1071.2817     0.2043 
 7899.5000  2005.8663     0.2165 
 7900.0000  2766.5842     0.2274 
 7900.5000  2185.4595     0.2393 
 7901.0000  2752.4810     0.2527 
 7901.5000  4001.2578     0.2713 
 7902.0000  5165.2852     0.2838 
 7902.5000  6109.9448     0.2919 
 7903.0000  6498.2837     0.2991 
 7903.5000  4560.3311     0.2757 
 7904.0000  4147.3691     0.2688 
 7904.5000  5262.6064     0.2853 
 7905.0000  5262.6616     0.2817 
 7905.5000  6359.5239     0.2939 
 7906.0000  7961.2881     0.3059 
 7906.5000  9424.1016     0.3149 
 7907.0000  9335.7080     0.3158 
 7907.5000  8312.7422     0.3073 
 7908.0000  9404.3887     0.3160 
 7908.5000  9641.9561     0.3162 
 7909.0000  9151.8525     0.3149 
 7909.5000  7460.3359     0.3015 
 7910.0000  6684.3149     0.2950 
 7910.5000  7087.1323     0.2990 
 7911.0000  8512.2979     0.3076 
 7911.5000 11112.5830     0.3261 
 7912.0000 11245.9971     0.3261 
 7912.5000  9176.5098     0.3133 
 7913.0000  6944.3696     0.2988 
 7913.5000  4619.4097     0.2777 
 7914.0000  3023.7664     0.2663 
 7914.5000  1345.0233     0.2391 
 7915.0000   175.9929     0.1569 
 7915.5000    21.1292     0.0384 
 7916.0000     0.3860     0.0471 
 7916.5000     3.0341     0.0647 
 7917.0000    13.9027     0.1141 
 7917.5000    12.2752     0.1058 
 7918.0000    28.7275     0.1215 
 7918.5000   170.1875     0.1674 
 7919.0000   227.1392     0.1710 
 7919.5000    84.5523     0.1489 
 7920.0000     7.5365     0.0605 
 7920.5000     8.8098     0.1029 
 7921.0000    16.3101     0.1127 
 7921.5000    33.5415     0.1310 
 7922.0000    35.5759     0.1374 
 7922.5000     4.8035     0.0348 
 7923.0000     0.0511     0.0174 
 7923.5000     0.0355     0.0165 
 7924.0000     0.1077     0.0269 
 7924.5000     1.6914     0.0421 
 7925.0000    20.1063     0.1197 
 7925.5000    40.6140     0.1315 
 7926.0000    84.2592     0.1438 
 7926.5000   121.8174     0.1568 
 7927.0000    20.8108     0.0543 
 7927.5000     0.1856     0.0360 
 7928.0000     4.9364     0.0284 
 7928.5000    74.5754     0.1267 
 7929.0000   820.4595     0.2098 
 7929.5000   227.6207     0.1673 
 7930.0000    60.8613     0.1371 
 7930.5000    38.3833     0.1359 
 7931.0000    26.8013     0.1281 
 7931.5000    17.2382     0.1116 
 7932.0000    49.3491     0.1301 
 7932.5000   127.0693     0.1614 
 7933.0000    37.4675     0.1219 
 7933.5000     5.5866     0.0688 
 7934.0000    11.7325     0.1010 
 7934.5000    36.8310     0.1421 
 7935.0000     3.5659     0.0009 
 7935.5000     0.0001     0.0006 
 7936.0000     0.0618     0.0017 
 7936.5000     0.9311     0.0714 
 7937.0000     0.0514     0.0001 
 7937.5000     1.3457     0.0751 
 7938.0000     0.3842     0.0466 
 7938.5000     0.0647     0.0021 
 7939.0000     0.0294     0.0169 
 7939.5000     0.0558     0.0142 
 7940.0000   122.3598     0.0393 
 7940.5000  1722.7415     0.2174 
 7941.0000  3149.7825     0.2604 
 7941.5000  3782.8535     0.2738 
 7942.0000  2086.4980     0.2499 
 7942.5000   357.1896     0.1634 
 7943.0000    16.8016     0.0255 
 7943.5000     0.0308     0.0132 
 7944.0000     0.0702     0.0245 
 7944.5000     0.1174     0.0304 
 7945.0000     2.7568     0.0336 
 7945.5000    16.9517     0.1167 
 7946.0000    50.2837     0.1245 
 7946.5000   240.9191     0.1580 
 7947.0000  1933.4384     0.2358 
 7947.5000  4213.8721     0.2739 
 7948.0000  4253.6899     0.2762 
 7948.5000  3419.7244     0.2642 
 7949.0000   918.8372     0.1829 
 7949.5000   152.6489     0.1587 
 7950.0000   113.9873     0.1412 
 7950.5000   267.3341     0.1731 
 7951.0000   168.7243     0.1668 
 7951.5000    17.6773     0.0699 
 7952.0000     0.4088     0.0186 
 7952.5000     1.1637     0.0716 
 7953.0000     0.7048     0.0581 
 7953.5000     0.6362     0.0087 
 7954.0000     3.4832     0.0894 
 7954.5000    51.7298     0.0721 
 7955.0000   472.4688     0.1762 
 7955.5000  2070.7292     0.2478 
 7956.0000  3592.0789     0.2675 
 7956.5000  4084.7739     0.2660 
 7957.0000  6562.7144     0.2959 
 7957.5000  8214.3281     0.3101 
 7958.0000  8041.4434     0.3064 
 7958.5000  5468.4790     0.2871 
 7959.0000  2543.9976     0.2678 
 7959.5000  1214.1384     0.2443 
 7960.0000   176.5719     0.1558 
 7960.5000   127.5324     0.1519 
 7961.0000   142.7360     0.1550 
 7961.5000   104.8287     0.1540 
 7962.0000    82.3568     0.1516 
 7962.5000    39.3783     0.1313 
 7963.0000    24.0103     0.1221 
 7963.5000    44.9124     0.1318 
 7964.0000   160.8807     0.1588 
 7964.5000   365.1218     0.1811 
