~Version Information
 VERS.                  2.0:   CWLS log ASCII Standard -VERSION 2.0
 WRAP.                   NO:   One line per depth step
~Well Information Block
#MNEM.UNIT       Data Type    Information
#---------     -----------    ---------------------------
 STRT.F              7353.0000:
 STOP.F              8528.5000:
 STEP.F                 0.5000:
 NULL.               -999.2500:
 UWI .                CASN0108:  UWI
 API .                CASN0108:  UWI
 WELL.                CASN-108:  COMMON WELL NAME
 COMP.               ECOPETROL:  WELL OPERATOR
 FLD .                CASTILLA:  FIELD
 LIC .                 UNKNOWN:  AUTHORIZATION NO
 LOC .                     LLA:  BASIN
 CTRY.                COLOMBIA:  COUNTRY
 STAT.                    META:  STATE
 CNTY.                 UNKNOWN:  COUNTY
 PROV.                    META:  STATE
 SRVC.                 UNKNOWN:  COMPANY
 DATE.                 UNKNOWN:  LOG RUN DATE
 LONG.           -73.606511044:  LONGITUDE
 LATI.             3.902261590:  LATITUDE
 XCOORD.          1052311.0000:  X COORDINATE
 YCOORD.           923278.6250:  Y COORDINATE
 ELEV.FT             1333.7070:  ELEVATION
 TD  .FT             8565.0000:  TOTAL DEPTH
~Parameter Information Block
#MNEM.UNIT       Value        Description
#---------     -----------    ---------------------------
~Curve Information Block
#MNEM.UNIT                 API CODE     Curve Description
#---------               -----------    ---------------------------
 DEPTH.F                00 000 000 000:  Index Curve
 2019_pPerm_ANS.MD          00 000 000 000:  
 2019_pPhieE_D_ANS.V/V         00 000 000 000:  
~A DEPTH     2019_pPerm_ANS 2019_pPhieE_D_ANS
# ...
 8415.0000  1970.4104     0.1877 
 8415.5000  2083.5359     0.1884 
 8416.0000  2359.4561     0.1922 
 8416.5000  2554.0840     0.1953 
 8417.0000  2382.9265     0.1922 
 8417.5000  2074.6765     0.1885 
 8418.0000  1852.6401     0.1854 
 8418.5000  1982.3091     0.1866 
 8419.0000  2276.2854     0.1910 
 8419.5000  2560.1372     0.1941 
 8420.0000  2821.6467     0.1966 
 8420.5000  2950.6975     0.1973 
 8421.0000  2986.7764     0.1974 
 8421.5000  2927.0369     0.1973 
 8422.0000  2778.1978     0.1965 
 8422.5000  2614.5068     0.1953 
 8423.0000  2389.9490     0.1928 
 8423.5000  2156.8767     0.1902 
 8424.0000  2123.8564     0.1906 
 8424.5000  2388.7581     0.1965 
 8425.0000  2730.8027     0.2013 
 8425.5000  2874.4600     0.2015 
 8426.0000  2552.7839     0.1962 
 8426.5000  2121.4795     0.1891 
 8427.0000  2044.2137     0.1884 
 8427.5000  2005.5828     0.1889 
 8428.0000  2065.6965     0.1901 
 8428.5000  2072.2883     0.1890 
 8429.0000  1961.7522     0.1850 
 8429.5000  1965.2937     0.1845 
 8430.0000  2218.4006     0.1882 
 8430.5000  2563.4360     0.1931 
 8431.0000  2694.9253     0.1955 
 8431.5000  2300.9004     0.1900 
 8432.0000  1634.6309     0.1784 
 8432.5000  1214.9377     0.1693 
 8433.0000  1099.3357     0.1668 
 8433.5000  1316.9558     0.1721 
 8434.0000  2022.2566     0.1867 
 8434.5000  3365.6465     0.2032 
 8435.0000  4551.9302     0.2130 
 8435.5000  3628.9402     0.2057 
 8436.0000  2205.9575     0.1897 
 8436.5000  1788.2085     0.1833 
 8437.0000  1964.9778     0.1904 
 8437.5000  2864.8411     0.2036 
 8438.0000  3643.1914     0.2104 
 8438.5000  3459.9771     0.2081 
 8439.0000  3061.9497     0.2027 
 8439.5000  3082.9031     0.2017 
 8440.0000  3400.8667     0.2047 
 8440.5000  4078.6533     0.2108 
 8441.0000  4691.6289     0.2162 
 8441.5000  4429.9541     0.2139 
 8442.0000  3698.3745     0.2061 
 8442.5000  3143.5796     0.1996 
 8443.0000  3016.0764     0.1979 
 8443.5000  3282.7905     0.2015 
 8444.0000  3638.0549     0.2056 
 8444.5000  3951.4285     0.2091 
 8445.0000  3922.3518     0.2091 
 8445.5000  3692.3213     0.2073 
 8446.0000  2766.4741     0.1975 
 8446.5000  2030.8477     0.1889 
 8447.0000  2330.2751     0.1924 
 8447.5000  3379.8716     0.2063 
 8448.0000  5789.9761     0.2234 
 8448.5000  7570.3701     0.2302 
 8449.0000  7814.8296     0.2304 
 8449.5000  7870.4297     0.2293 
 8450.0000  7999.0889     0.2289 
 8450.5000  7998.3130     0.2278 
 8451.0000  7961.7646     0.2278 
 8451.5000  7431.1646     0.2265 
 8452.0000  5634.3384     0.2179 
 8452.5000  4149.3057     0.2086 
 8453.0000  3996.0742     0.2079 
 8453.5000  4950.1812     0.2165 
 8454.0000  4883.5801     0.2171 
 8454.5000  2086.2151     0.1832 
 8455.0000   449.4583     0.1309 
 8455.5000   141.0648     0.0961 
 8456.0000    98.4931     0.0923 
 8456.5000   162.3619     0.1104 
 8457.0000   237.8059     0.1231 
 8457.5000   293.6314     0.1287 
 8458.0000   350.4370     0.1331 
 8458.5000   392.9259     0.1358 
 8459.0000   421.4942     0.1371 
 8459.5000   452.6143     0.1383 
 8460.0000   518.7838     0.1427 
 8460.5000   564.6068     0.1463 
 8461.0000   523.1754     0.1454 
 8461.5000   347.3717     0.1346 
 8462.0000   212.1758     0.1230 
 8462.5000   150.9547     0.1148 
 8463.0000   124.2649     0.1098 
 8463.5000   118.8878     0.1086 
 8464.0000   121.8768     0.1093 
 8464.5000   130.8397     0.1106 
 8465.0000   156.6136     0.1155 
 8465.5000   196.8052     0.1234 
 8466.0000   215.0952     0.1276 
 8466.5000   192.6618     0.1250 
 8467.0000   132.8767     0.1126 
 8467.5000   106.2619     0.1086 
 8468.0000   173.6715     0.1225 
 8468.5000   314.9788     0.1428 
 8469.0000   586.2752     0.1590 
 8469.5000   855.2512     0.1680 
 8470.0000   741.0616     0.1651 
 8470.5000   375.2998     0.1460 
 8471.0000   107.4360     0.1082 
 8471.5000     7.3568     0.0148 
 8472.0000     1.0821     0.0004 
 8472.5000     0.7676     0.0001 
 8473.0000     0.7674     0.0001 
 8473.5000     0.8348     0.0002 
 8474.0000     0.9617     0.0006 
 8474.5000     1.1851     0.0020 
 8475.0000     1.7320     0.0082 
 8475.5000     2.9268     0.0209 
 8476.0000     4.5913     0.0331 
 8476.5000     6.7829     0.0446 
 8477.0000     8.4785     0.0509 
 8477.5000     7.4024     0.0491 
 8478.0000     3.3645     0.0242 
 8478.5000     1.8180     0.0073 
 8479.0000     1.3122     0.0038 
 8479.5000     1.9358     0.0083 
 8480.0000     3.7097     0.0273 
 8480.5000     8.6289     0.0482 
 8481.0000    18.6137     0.0702 
 8481.5000    52.7019     0.1057 
 8482.0000    67.8279     0.1107 
 8482.5000    54.9403     0.1097 
 8483.0000    11.5727     0.0429 
 8483.5000     3.4550     0.0220 
 8484.0000     2.9735     0.0219 
 8484.5000     2.9232     0.0225 
 8485.0000     2.1755     0.0141 
 8485.5000     1.3963     0.0043 
 8486.0000     1.0753     0.0011 
 8486.5000     1.0453     0.0009 
 8487.0000     3.5532     0.0058 
 8487.5000   144.1166     0.0675 
 8488.0000  2134.0793     0.2109 
 8488.5000  3843.1646     0.2192 
 8489.0000  2135.7476     0.1975 
 8489.5000   436.0684     0.1551 
 8490.0000    81.8928     0.0700 
 8490.5000     1.5127     0.0015 
 8491.0000     1.0018     0.0003 
 8491.5000    30.3074     0.0055 
 8492.0000   657.6661     0.1740 
 8492.5000  1854.9102     0.1976 
 8493.0000  2877.2803     0.2048 
 8493.5000  3100.1316     0.2040 
 8494.0000  2399.6780     0.1960 
 8494.5000  1490.1133     0.1811 
 8495.0000  1055.5586     0.1707 
 8495.5000  1194.6249     0.1744 
 8496.0000  1759.2518     0.1879 
 8496.5000  2110.2222     0.1952 
 8497.0000  1782.4188     0.1895 
 8497.5000  1259.7814     0.1783 
 8498.0000   983.6609     0.1727 
 8498.5000   890.6032     0.1692 
 8499.0000   845.7382     0.1663 
 8499.5000  1051.9637     0.1713 
 8500.0000  1414.4191     0.1806 
 8500.5000  1532.5298     0.1842 
 8501.0000  1475.9470     0.1834 
 8501.5000  1360.5580     0.1814 
 8502.0000  1391.1907     0.1831 
 8502.5000  1703.8583     0.1887 
 8503.0000  2117.1118     0.1943 
 8503.5000  2776.8828     0.2029 
 8504.0000  3430.3606     0.2107 
 8504.5000  3381.9229     0.2106 
 8505.0000  2962.2146     0.2069 
 8505.5000  2561.8931     0.2020 
 8506.0000  2314.2842     0.1979 
 8506.5000  2230.5923     0.1962 
 8507.0000  2198.4575     0.1950 
 8507.5000  2357.3025     0.1980 
 8508.0000  2776.1267     0.2034 
 8508.5000  3329.1482     0.2089 
 8509.0000  3997.9502     0.2144 
 8509.5000  4680.4790     0.2198 
 8510.0000  5424.4507     0.2258 
 8510.5000  5915.4277     0.2287 
 8511.0000  5132.3887     0.2251 
 8511.5000  3666.7888     0.2125 
 8512.0000  2412.3918     0.1957 
 8512.5000  1901.2937     0.1896 
 8513.0000  2313.9685     0.1968 
 8513.5000  2931.7717     0.2058 
 8514.0000  3378.0474     0.2107 
 8514.5000  3360.5842     0.2090 
 8515.0000  3213.7456     0.2066 
 8515.5000  3433.3479     0.2101 
 8516.0000  3461.5686     0.2113 
 8516.5000  3103.7310     0.2071 
 8517.0000  2697.8501     0.2022 
 8517.5000  2710.6892     0.2015 
 8518.0000  3738.3020     0.2135 
 8518.5000  6414.5698     0.2323 
 8519.0000  8753.5352     0.2420 
 8519.5000  7931.8203     0.2390 
 8520.0000  6199.9990     0.2305 
 8520.5000  5248.3110     0.2250 
 8521.0000  4391.6636     0.2185 
 8521.5000  3574.2373     0.2102 
 8522.0000  3190.8628     0.2066 
 8522.5000  3858.5200     0.2121 
 8523.0000  4775.5176     0.2200 
 8523.5000  4822.0278     0.2205 
 8524.0000  4537.6548     0.2181 
 8524.5000  4564.3608     0.2186 
 8525.0000  4728.4272     0.2204 
 8525.5000  4616.7109     0.2204 
 8526.0000  4121.5054     0.2166 
 8526.5000  3759.6379     0.2141 
 8527.0000  3694.2615     0.2141 
 8527.5000  3647.3152     0.2135 
 8528.0000  3485.5132     0.2118 
 8528.5000  3219.9370     0.2088 
