~Version Information
 VERS.                  2.0:   CWLS log ASCII Standard -VERSION 2.0
 WRAP.                   NO:   One line per depth step
~Well Information Block
#MNEM.UNIT       Data Type    Information
#---------     -----------    ---------------------------
 STRT.F              7125.0000:
 STOP.F              8192.5000:
 STEP.F                 0.5000:
 NULL.               -999.2500:
 UWI .                CASN0029:  UWI
 API .                CASN0029:  UWI
 WELL.                 CASN-29:  COMMON WELL NAME
 COMP.               ECOPETROL:  WELL OPERATOR
 FLD .                CASTILLA:  FIELD
 LIC .                 UNKNOWN:  AUTHORIZATION NO
 LOC .                     LLA:  BASIN
 CTRY.                COLOMBIA:  COUNTRY
 STAT.                    META:  STATE
 CNTY.       CASTILLA_LA_NUEVA:  COUNTY
 PROV.                    META:  STATE
 SRVC.                 UNKNOWN:  COMPANY
 DATE.                 UNKNOWN:  LOG RUN DATE
 LONG.           -73.616655939:  LONGITUDE
 LATI.             3.893399628:  LATITUDE
 XCOORD.          1051184.7500:  X COORDINATE
 YCOORD.           922298.0000:  Y COORDINATE
 ELEV.FT             1376.0000:  ELEVATION
 TD  .FT             8225.0000:  TOTAL DEPTH
~Parameter Information Block
#MNEM.UNIT       Value        Description
#---------     -----------    ---------------------------
~Curve Information Block
#MNEM.UNIT                 API CODE     Curve Description
#---------               -----------    ---------------------------
 DEPTH.F                00 000 000 000:  Index Curve
 2019_pPerm_ANS.MD          00 000 000 000:  
 2019_pPhieE_D_ANS.V/V         00 000 000 000:  
~A DEPTH     2019_pPerm_ANS 2019_pPhieE_D_ANS
 7125.0000 20000.0000     0.3280 
 7125.5000 20000.0000     0.2929 
 7126.0000 20000.0000     0.3291 
 7126.5000 20000.0000     0.3383 
 7127.0000 20000.0000     0.3216 
 7127.5000 20000.0000     0.2198 
 7128.0000  4214.1895     0.2072 
 7128.5000  3288.3105     0.1986 
 7129.0000  4483.5801     0.2109 
 7129.5000  3811.6309     0.2057 
 7130.0000  2766.6035     0.1982 
 7130.5000  1826.4559     0.1864 
 7131.0000  1653.9038     0.1899 
 7131.5000   284.5504     0.1273 
 7132.0000    16.6050     0.0360 
 7132.5000     0.0169     0.0002 
 7133.0000     0.0000     0.0000 
 7133.5000     5.4352     0.0035 
 7134.0000   110.1649     0.1243 
 7134.5000   728.7847     0.1458 
 7135.0000 15652.5654     0.2409 
 7135.5000 20000.0000     0.2503 
 7136.0000  5790.6396     0.1909 
 7136.5000  2273.3049     0.1898 
 7137.0000  8934.8838     0.2335 
 7137.5000  1628.1139     0.1711 
 7138.0000  2444.4578     0.1939 
 7138.5000  4001.0515     0.2090 
 7139.0000  1181.2114     0.1664 
 7139.5000   523.9724     0.1474 
 7140.0000  2407.2788     0.1921 
 7140.5000  6062.0181     0.2157 
 7141.0000 10675.4170     0.2306 
 7141.5000 13315.8408     0.2355 
 7142.0000 15027.8496     0.2379 
 7142.5000 15719.5469     0.2423 
 7143.0000  6912.8931     0.2177 
 7143.5000  3551.8181     0.1927 
 7144.0000  7068.5093     0.2194 
 7144.5000 15284.6533     0.2396 
 7145.0000 20000.0000     0.2460 
 7145.5000 20000.0000     0.2533 
 7146.0000 20000.0000     0.2569 
 7146.5000 20000.0000     0.2464 
 7147.0000  5569.7329     0.2128 
 7147.5000  2077.7271     0.1833 
 7148.0000  2017.9082     0.1869 
 7148.5000  6234.1475     0.2207 
 7149.0000  6096.7744     0.2163 
 7149.5000  4733.0864     0.2133 
 7150.0000   911.0050     0.1566 
 7150.5000    69.9843     0.0897 
 7151.0000     4.8853     0.0644 
 7151.5000     0.5804     0.0340 
 7152.0000     4.7975     0.0220 
 7152.5000    39.4074     0.1038 
 7153.0000   103.7273     0.1280 
 7153.5000   113.8634     0.1282 
 7154.0000    75.9958     0.1211 
 7154.5000     9.2514     0.0710 
 7155.0000     0.9249     0.0124 
 7155.5000     0.0656     0.0040 
 7156.0000    10.2599     0.0596 
 7156.5000    53.6337     0.1114 
 7157.0000   441.7551     0.1555 
 7157.5000   910.9586     0.1733 
 7158.0000   835.3963     0.1721 
 7158.5000   529.2737     0.1609 
 7159.0000   148.4110     0.1235 
 7159.5000    20.9087     0.0873 
 7160.0000    13.9582     0.0819 
 7160.5000    26.4968     0.1009 
 7161.0000    17.6906     0.0919 
 7161.5000     3.2289     0.0456 
 7162.0000     1.0055     0.0464 
 7162.5000     0.1578     0.0012 
 7163.0000     0.0000     0.0000 
 7163.5000     0.0000     0.0000 
 7164.0000     0.0000     0.0000 
 7164.5000     0.0000     0.0000 
 7165.0000     0.0000     0.0000 
 7165.5000     0.0000     0.0000 
 7166.0000     0.0000     0.0000 
 7166.5000     0.0000     0.0002 
 7167.0000     0.0026     0.0028 
 7167.5000     0.2274     0.0290 
 7168.0000     0.3234     0.0301 
 7168.5000     1.3309     0.0456 
 7169.0000     3.2858     0.0631 
 7169.5000     2.3510     0.0584 
 7170.0000     0.2294     0.0158 
 7170.5000     0.0001     0.0016 
 7171.0000     0.0000     0.0003 
 7171.5000     0.0000     0.0003 
 7172.0000     0.0000     0.0001 
 7172.5000     0.0000     0.0000 
 7173.0000     0.0000     0.0000 
 7173.5000     0.0000     0.0000 
 7174.0000     0.0000     0.0000 
 7174.5000     0.0000     0.0000 
 7175.0000     0.0000     0.0001 
 7175.5000     0.0000     0.0001 
 7176.0000     0.0571     0.0012 
 7176.5000     0.4231     0.0424 
 7177.0000    16.1252     0.0674 
 7177.5000    78.4451     0.1204 
 7178.0000    93.8009     0.1244 
 7178.5000    98.0978     0.1249 
 7179.0000    92.1153     0.1242 
 7179.5000    71.4554     0.1193 
 7180.0000    17.6791     0.0784 
 7180.5000     6.6217     0.0584 
 7181.0000  1583.0947     0.1072 
 7181.5000 11644.0225     0.2301 
 7182.0000 20000.0000     0.2522 
 7182.5000  3524.7317     0.0785 
 7183.0000     8.2811     0.0793 
 7183.5000  1389.5659     0.0402 
 7184.0000  9359.0312     0.2274 
 7184.5000 11709.9727     0.2355 
 7185.0000  4159.2368     0.2046 
 7185.5000   587.6743     0.0469 
 7186.0000     0.0518     0.0001 
 7186.5000     0.0000     0.0001 
 7187.0000     0.0000     0.0001 
 7187.5000     0.0000     0.0001 
 7188.0000     0.0000     0.0001 
 7188.5000     0.0000     0.0001 
 7189.0000     0.0000     0.0001 
 7189.5000     0.0000     0.0001 
 7190.0000     0.0000     0.0001 
 7190.5000     0.0000     0.0001 
 7191.0000     3.3305     0.0001 
 7191.5000    59.9814     0.1050 
 7192.0000   218.4486     0.1438 
 7192.5000   237.5885     0.1433 
 7193.0000   242.0568     0.1439 
 7193.5000   238.0625     0.1439 
 7194.0000   200.5925     0.1396 
 7194.5000   177.4942     0.1363 
 7195.0000   220.2520     0.1424 
 7195.5000   240.5911     0.1439 
 7196.0000   255.7101     0.1424 
 7196.5000   417.0403     0.1544 
 7197.0000  1332.9237     0.1769 
 7197.5000  3258.1597     0.2021 
 7198.0000  3705.0327     0.2054 
 7198.5000  3768.4800     0.2054 
 7199.0000  2628.5608     0.1972 
 7199.5000  1364.2363     0.1816 
 7200.0000   526.3555     0.1562 
 7200.5000   146.8120     0.1308 
 7201.0000    60.6467     0.1139 
 7201.5000    10.9985     0.0745 
 7202.0000     1.3588     0.0373 
 7202.5000     0.0630     0.0125 
 7203.0000     0.0005     0.0137 
 7203.5000     0.0003     0.0095 
 7204.0000     0.0000     0.0018 
 7204.5000     0.0000     0.0017 
 7205.0000     0.0000     0.0038 
 7205.5000     0.0001     0.0061 
 7206.0000     0.0001     0.0061 
 7206.5000     0.0001     0.0054 
 7207.0000     0.0002     0.0076 
 7207.5000     0.0002     0.0076 
 7208.0000     0.0012     0.0069 
 7208.5000     0.1089     0.0287 
 7209.0000     0.1965     0.0353 
 7209.5000     0.0620     0.0181 
 7210.0000     0.2366     0.0337 
 7210.5000     1.1276     0.0511 
 7211.0000     0.1175     0.0200 
 7211.5000     0.0004     0.0097 
 7212.0000     0.0001     0.0067 
 7212.5000     0.0003     0.0091 
 7213.0000     0.0004     0.0090 
 7213.5000     0.0008     0.0181 
 7214.0000     0.0006     0.0121 
 7214.5000     0.0610     0.0184 
 7215.0000     0.4517     0.0377 
 7215.5000     0.3798     0.0311 
 7216.0000     1.2101     0.0418 
 7216.5000     4.9202     0.0656 
 7217.0000    26.4894     0.0945 
 7217.5000    70.9420     0.1186 
 7218.0000    85.4109     0.1229 
 7218.5000    83.2449     0.1214 
 7219.0000   130.7783     0.1297 
 7219.5000   207.4592     0.1403 
 7220.0000   472.4197     0.1515 
 7220.5000  1473.1149     0.1799 
 7221.0000  6096.3784     0.2182 
 7221.5000  8607.1846     0.2255 
 7222.0000  6995.6738     0.2210 
 7222.5000  3798.4817     0.2027 
 7223.0000  3592.1511     0.2057 
 7223.5000  2480.8613     0.1961 
 7224.0000  1072.3368     0.1685 
 7224.5000  2228.9607     0.1852 
 7225.0000  6286.9312     0.2210 
 7225.5000  4010.4700     0.1990 
 7226.0000 11061.6123     0.2170 
 7226.5000 20000.0000     0.2740 
 7227.0000 16164.0420     0.2353 
 7227.5000  8085.5400     0.2062 
 7228.0000 19362.0234     0.2454 
 7228.5000  7959.6929     0.2173 
 7229.0000  2384.2556     0.1946 
 7229.5000   984.3298     0.1711 
 7230.0000   212.9547     0.1378 
 7230.5000  5262.7192     0.1676 
 7231.0000 20000.0000     0.2543 
 7231.5000 20000.0000     0.2618 
 7232.0000 20000.0000     0.2883 
 7232.5000 20000.0000     0.2439 
 7233.0000  4190.7173     0.1604 
 7233.5000 20000.0000     0.2441 
 7234.0000 20000.0000     0.3329 
 7234.5000 20000.0000     0.2959 
 7235.0000 20000.0000     0.3009 
 7235.5000 20000.0000     0.2761 
 7236.0000 16374.1328     0.2166 
 7236.5000 12218.9209     0.2319 
 7237.0000 20000.0000     0.2499 
 7237.5000 20000.0000     0.3158 
 7238.0000 20000.0000     0.3276 
 7238.5000 20000.0000     0.3023 
 7239.0000 20000.0000     0.2382 
 7239.5000  2940.8311     0.1994 
 7240.0000 11170.4404     0.1940 
 7240.5000 20000.0000     0.2699 
 7241.0000 20000.0000     0.2997 
 7241.5000 20000.0000     0.2561 
 7242.0000  7301.2705     0.2029 
 7242.5000   730.0359     0.1457 
