~Version Information
 VERS.                  2.0:   CWLS log ASCII Standard -VERSION 2.0
 WRAP.                   NO:   One line per depth step
~Well Information Block
#MNEM.UNIT       Data Type    Information
#---------     -----------    ---------------------------
 STRT.F              7375.0000:
 STOP.F              8337.5000:
 STEP.F                 0.5000:
 NULL.               -999.2500:
 UWI .                CASN0038:  UWI
 API .                CASN0038:  UWI
 WELL.                 CASN-38:  COMMON WELL NAME
 COMP.               ECOPETROL:  WELL OPERATOR
 FLD .                CASTILLA:  FIELD
 LIC .                 UNKNOWN:  AUTHORIZATION NO
 LOC .                     LLA:  BASIN
 CTRY.                COLOMBIA:  COUNTRY
 STAT.                    META:  STATE
 CNTY.       CASTILLA_LA_NUEVA:  COUNTY
 PROV.                    META:  STATE
 SRVC.                 UNKNOWN:  COMPANY
 DATE.                 UNKNOWN:  LOG RUN DATE
 LONG.           -73.615687866:  LONGITUDE
 LATI.             3.887258472:  LATITUDE
 XCOORD.          1051292.6250:  X COORDINATE
 YCOORD.           921618.9375:  Y COORDINATE
 ELEV.FT             1369.0000:  ELEVATION
 TD  .FT             8358.0000:  TOTAL DEPTH
~Parameter Information Block
#MNEM.UNIT       Value        Description
#---------     -----------    ---------------------------
~Curve Information Block
#MNEM.UNIT                 API CODE     Curve Description
#---------               -----------    ---------------------------
 DEPTH.F                00 000 000 000:  Index Curve
 2019_pPerm_ANS.MD          00 000 000 000:  
 2019_pPhieE_D_ANS.V/V         00 000 000 000:  
~A DEPTH     2019_pPerm_ANS 2019_pPhieE_D_ANS
# ...
 8083.0000 10845.7441     0.2403 
 8083.5000  6308.5054     0.2264 
 8084.0000  4775.1733     0.2183 
 8084.5000  1790.6567     0.1798 
 8085.0000   140.9670     0.0864 
 8085.5000   263.9133     0.0581 
 8086.0000  1380.9884     0.1731 
 8086.5000  1739.3584     0.1809 
 8087.0000  1792.8258     0.1837 
 8087.5000   428.1991     0.0281 
 8088.0000   966.6492     0.1712 
 8088.5000  1817.2806     0.1833 
 8089.0000  4028.6052     0.2137 
 8089.5000  3136.2454     0.2013 
 8090.0000  2300.5266     0.1904 
 8090.5000  2731.6733     0.2009 
 8091.0000  5095.0952     0.2227 
 8091.5000  7774.7300     0.2349 
 8092.0000 11319.5732     0.2480 
 8092.5000 11445.7207     0.2432 
 8093.0000  7348.2446     0.2231 
 8093.5000  6275.3711     0.2216 
 8094.0000  7229.3311     0.2236 
 8094.5000 12007.1592     0.2428 
 8095.0000 15325.5889     0.2476 
 8095.5000 15741.1553     0.2471 
 8096.0000 15272.4248     0.2497 
 8096.5000 12799.8281     0.2459 
 8097.0000  7488.8457     0.2263 
 8097.5000  6383.7046     0.2250 
 8098.0000  6854.5034     0.2272 
 8098.5000  7268.2754     0.2314 
 8099.0000  6827.4912     0.2297 
 8099.5000  6038.0210     0.2267 
 8100.0000  3725.4556     0.2089 
 8100.5000  3709.1609     0.2174 
 8101.0000  3635.6682     0.2227 
 8101.5000  4987.2129     0.2312 
 8102.0000  7973.4702     0.2352 
 8102.5000  8676.5938     0.2354 
 8103.0000 11328.2461     0.2494 
 8103.5000 10825.1768     0.2493 
 8104.0000  7322.3550     0.2330 
 8104.5000  7184.2866     0.2305 
 8105.0000  6266.2632     0.2262 
 8105.5000  5461.0327     0.2178 
 8106.0000  7743.1987     0.2309 
 8106.5000 15332.9951     0.2568 
 8107.0000 12156.9062     0.2437 
 8107.5000  9227.9355     0.2402 
 8108.0000  6511.2588     0.2258 
 8108.5000  6570.0259     0.2300 
 8109.0000  5887.0005     0.2348 
 8109.5000  3616.3936     0.2284 
 8110.0000  2285.1367     0.2211 
 8110.5000  2197.7168     0.2273 
 8111.0000  2201.5076     0.2274 
 8111.5000  1814.3528     0.2203 
 8112.0000  2274.7073     0.2212 
 8112.5000  2914.4207     0.2187 
 8113.0000  3250.2585     0.2149 
 8113.5000  3288.8315     0.2205 
 8114.0000  5880.6763     0.2303 
 8114.5000  9475.7109     0.2393 
 8115.0000 10353.5635     0.2512 
 8115.5000  5542.5591     0.2479 
 8116.0000   890.2343     0.0027 
 8116.5000    86.2574     0.0102 
 8117.0000  1805.8424     0.2114 
 8117.5000  4799.6821     0.2331 
 8118.0000  7936.9805     0.2419 
 8118.5000  5468.1846     0.2286 
 8119.0000  3271.8477     0.2219 
 8119.5000  1898.4088     0.2225 
 8120.0000  1788.4611     0.2210 
 8120.5000  1670.8988     0.2107 
 8121.0000  2627.9314     0.2257 
 8121.5000  2728.4028     0.2321 
 8122.0000   265.4034     0.0000 
 8122.5000     0.3581     0.0000 
 8123.0000    49.7073     0.0073 
 8123.5000   920.9865     0.1886 
 8124.0000  2212.3101     0.2035 
 8124.5000  6142.6602     0.2182 
 8125.0000 14956.1504     0.2464 
 8125.5000 10910.3359     0.2379 
 8126.0000  4822.2969     0.2172 
 8126.5000  3729.6162     0.2017 
 8127.0000  6489.8052     0.2288 
 8127.5000  9549.6113     0.2452 
 8128.0000  6886.0288     0.2283 
 8128.5000  7636.2710     0.2293 
 8129.0000 11880.2578     0.2505 
 8129.5000  8289.5527     0.2279 
 8130.0000  6997.4048     0.2244 
 8130.5000  6718.0635     0.2240 
 8131.0000  5821.3491     0.2237 
 8131.5000  6899.0903     0.2341 
 8132.0000  7136.1831     0.2393 
 8132.5000  6570.2852     0.2372 
 8133.0000  7412.2368     0.2303 
 8133.5000  8012.7656     0.2326 
 8134.0000  9007.5410     0.2340 
 8134.5000  6246.7529     0.2213 
 8135.0000  5835.6060     0.2238 
 8135.5000  1261.5659     0.1672 
 8136.0000  3937.1147     0.2000 
 8136.5000  9926.7236     0.2388 
 8137.0000 10035.0693     0.2400 
 8137.5000  7011.4897     0.2244 
 8138.0000  7301.6626     0.2294 
 8138.5000  8471.3389     0.2341 
 8139.0000  6897.4438     0.2239 
 8139.5000 11087.0811     0.2557 
 8140.0000  2123.3796     0.1373 
 8140.5000  1518.4479     0.1745 
 8141.0000  5070.5073     0.2281 
 8141.5000  4087.1846     0.2155 
 8142.0000  2688.4277     0.1924 
 8142.5000  3824.9536     0.2060 
 8143.0000  5053.2798     0.2156 
 8143.5000  5171.3672     0.2169 
 8144.0000  4917.4829     0.2154 
 8144.5000  6877.7261     0.2264 
 8145.0000  6594.4697     0.2253 
 8145.5000  5393.6860     0.2181 
 8146.0000  6052.6826     0.2209 
 8146.5000  7872.6157     0.2303 
 8147.0000  9519.4717     0.2356 
 8147.5000 10830.1250     0.2399 
 8148.0000 10775.5293     0.2397 
 8148.5000  8954.9229     0.2357 
 8149.0000  6792.7964     0.2317 
 8149.5000  6044.5015     0.2239 
 8150.0000  8731.2266     0.2346 
 8150.5000 15050.2764     0.2583 
 8151.0000 13073.6689     0.2491 
 8151.5000 11927.4893     0.2428 
 8152.0000 10205.8535     0.2424 
 8152.5000  6783.2129     0.2334 
 8153.0000  3890.6140     0.2210 
 8153.5000  2205.9099     0.2035 
 8154.0000  2594.0715     0.2066 
 8154.5000  3481.3806     0.2086 
 8155.0000  5995.0479     0.2183 
 8155.5000  9966.1191     0.2397 
 8156.0000  3944.7532     0.2049 
 8156.5000  1861.4257     0.1877 
 8157.0000  2364.8362     0.1865 
 8157.5000  4271.2075     0.2106 
 8158.0000  4146.4590     0.2065 
 8158.5000  4779.3115     0.2100 
 8159.0000  4918.5488     0.2135 
 8159.5000  5307.9399     0.2165 
 8160.0000  5519.1509     0.2166 
 8160.5000  4924.0210     0.2124 
 8161.0000  5924.5962     0.2126 
 8161.5000 12335.6592     0.2445 
 8162.0000 14253.1602     0.2463 
 8162.5000 15714.3330     0.2515 
 8163.0000 10104.4268     0.2315 
 8163.5000  7974.7319     0.2379 
 8164.0000  6391.9297     0.2308 
 8164.5000  6674.6763     0.2334 
 8165.0000  5970.7559     0.2291 
 8165.5000  4748.5044     0.2174 
 8166.0000  6354.8701     0.2276 
 8166.5000  7331.2803     0.2349 
 8167.0000  5604.5923     0.2234 
 8167.5000  7011.9546     0.2310 
 8168.0000  8385.9326     0.2315 
 8168.5000 11194.3809     0.2433 
 8169.0000 11360.9639     0.2426 
 8169.5000 14414.7695     0.2511 
 8170.0000 13353.2188     0.2450 
 8170.5000 13908.7959     0.2443 
 8171.0000 14647.2949     0.2464 
 8171.5000 14530.3672     0.2526 
 8172.0000  8051.4258     0.2258 
 8172.5000  8310.2871     0.2260 
 8173.0000 13344.5732     0.2455 
 8173.5000 12340.3154     0.2436 
 8174.0000 11833.2002     0.2418 
 8174.5000 12519.5166     0.2439 
 8175.0000 13551.5283     0.2441 
 8175.5000 16827.7324     0.2532 
 8176.0000 11891.0537     0.2414 
 8176.5000  8732.3389     0.2344 
 8177.0000  5848.4180     0.2180 
 8177.5000  5221.7715     0.2184 
 8178.0000  5742.7935     0.2242 
 8178.5000  6043.1382     0.2246 
 8179.0000  3217.4255     0.2000 
 8179.5000  3234.0271     0.2037 
 8180.0000  2910.1250     0.2019 
 8180.5000  2124.0276     0.1860 
 8181.0000  3802.9456     0.2109 
 8181.5000  4179.3975     0.2187 
 8182.0000  3842.4019     0.2103 
 8182.5000  3849.5786     0.2053 
 8183.0000  4723.4077     0.2141 
 8183.5000  5481.6626     0.2222 
 8184.0000  5639.6943     0.2228 
 8184.5000  6266.8198     0.2224 
 8185.0000  8384.0625     0.2367 
 8185.5000 11643.2881     0.2500 
 8186.0000  9604.2949     0.2484 
 8186.5000  8453.0215     0.2469 
 8187.0000  4937.4058     0.2221 
 8187.5000 14350.2705     0.2477 
 8188.0000 20000.0000     0.2615 
 8188.5000 20000.0000     0.2644 
 8189.0000 16319.1123     0.2520 
 8189.5000 16731.2539     0.2564 
 8190.0000 16274.3164     0.2519 
 8190.5000 13650.0186     0.2448 
 8191.0000 15328.9600     0.2512 
 8191.5000 15170.1846     0.2497 
 8192.0000 15445.3203     0.2507 
 8192.5000 18432.8223     0.2577 
 8193.0000 20000.0000     0.2749 
 8193.5000 17846.4102     0.2639 
 8194.0000 14497.4414     0.2558 
 8194.5000 10287.7070     0.2370 
 8195.0000 11172.8574     0.2420 
 8195.5000  9301.8506     0.2363 
 8196.0000  9285.9658     0.2355 
 8196.5000 11086.5508     0.2384 
 8197.0000 15283.8760     0.2506 
 8197.5000 16795.2676     0.2525 
 8198.0000 15028.9902     0.2493 
 8198.5000 15912.2109     0.2546 
 8199.0000 20000.0000     0.2631 
 8199.5000 18206.5469     0.2521 
 8200.0000 20000.0000     0.2612 
 8200.5000 19308.0117     0.2530 
