~Version Information
 VERS.                  2.0:   CWLS log ASCII Standard -VERSION 2.0
 WRAP.                   NO:   One line per depth step
~Well Information Block
#MNEM.UNIT       Data Type    Information
#---------     -----------    ---------------------------
 STRT.F              7375.0000:
 STOP.F              8337.5000:
 STEP.F                 0.5000:
 NULL.               -999.2500:
 UWI .                CASN0038:  UWI
 API .                CASN0038:  UWI
 WELL.                 CASN-38:  COMMON WELL NAME
 COMP.               ECOPETROL:  WELL OPERATOR
 FLD .                CASTILLA:  FIELD
 LIC .                 UNKNOWN:  AUTHORIZATION NO
 LOC .                     LLA:  BASIN
 CTRY.                COLOMBIA:  COUNTRY
 STAT.                    META:  STATE
 CNTY.       CASTILLA_LA_NUEVA:  COUNTY
 PROV.                    META:  STATE
 SRVC.                 UNKNOWN:  COMPANY
 DATE.                 UNKNOWN:  LOG RUN DATE
 LONG.           -73.615687866:  LONGITUDE
 LATI.             3.887258472:  LATITUDE
 XCOORD.          1051292.6250:  X COORDINATE
 YCOORD.           921618.9375:  Y COORDINATE
 ELEV.FT             1369.0000:  ELEVATION
 TD  .FT             8358.0000:  TOTAL DEPTH
~Parameter Information Block
#MNEM.UNIT       Value        Description
#---------     -----------    ---------------------------
~Curve Information Block
#MNEM.UNIT                 API CODE     Curve Description
#---------               -----------    ---------------------------
 DEPTH.F                00 000 000 000:  Index Curve
 2019_pPerm_ANS.MD          00 000 000 000:  
 2019_pPhieE_D_ANS.V/V         00 000 000 000:  
~A DEPTH     2019_pPerm_ANS 2019_pPhieE_D_ANS
 7375.0000     0.0000     0.0000 
 7375.5000     0.0000     0.0000 
 7376.0000     0.0000     0.0000 
 7376.5000     0.0000     0.0001 
 7377.0000     0.0000     0.0000 
 7377.5000     0.6449     0.0018 
 7378.0000     7.8855     0.0657 
 7378.5000   115.1571     0.1125 
 7379.0000   559.5287     0.1603 
 7379.5000  1058.2063     0.1814 
 7380.0000   163.8754     0.0635 
 7380.5000     0.4352     0.0089 
 7381.0000     0.0000     0.0007 
 7381.5000     0.0000     0.0000 
 7382.0000     0.0000     0.0000 
 7382.5000     0.0000     0.0000 
 7383.0000     0.0000     0.0000 
 7383.5000     0.0000     0.0006 
 7384.0000     0.0000     0.0000 
 7384.5000     0.0000     0.0000 
 7385.0000     0.0000     0.0000 
 7385.5000     0.0000     0.0000 
 7386.0000     0.0000     0.0001 
 7386.5000     0.0000     0.0009 
 7387.0000     0.0000     0.0027 
 7387.5000     0.0000     0.0020 
 7388.0000     0.0000     0.0005 
 7388.5000     0.0000     0.0031 
 7389.0000     0.0002     0.0069 
 7389.5000     0.0175     0.0199 
 7390.0000     0.2009     0.0325 
 7390.5000     1.3848     0.0386 
 7391.0000     9.5825     0.0754 
 7391.5000    67.3056     0.1029 
 7392.0000   499.0983     0.1493 
 7392.5000  4952.5391     0.1949 
 7393.0000 19528.7520     0.2465 
 7393.5000 19105.7363     0.2388 
 7394.0000 20000.0000     0.2567 
 7394.5000 20000.0000     0.2461 
 7395.0000 20000.0000     0.2492 
 7395.5000 20000.0000     0.2539 
 7396.0000 20000.0000     0.2572 
 7396.5000 20000.0000     0.2609 
 7397.0000 11911.7451     0.2313 
 7397.5000  4884.6538     0.1489 
 7398.0000 17188.1230     0.2423 
 7398.5000 20000.0000     0.2490 
 7399.0000 20000.0000     0.2490 
 7399.5000 20000.0000     0.2458 
 7400.0000 20000.0000     0.2544 
 7400.5000 15687.3066     0.2390 
 7401.0000  2911.6577     0.1799 
 7401.5000   375.5088     0.1449 
 7402.0000   466.9618     0.1448 
 7402.5000  1772.6273     0.1879 
 7403.0000  2789.0696     0.2002 
 7403.5000  2308.9429     0.1934 
 7404.0000  1788.0347     0.1828 
 7404.5000  2797.5938     0.1976 
 7405.0000  5565.7056     0.2126 
 7405.5000  9979.0742     0.2280 
 7406.0000 20000.0000     0.2441 
 7406.5000 20000.0000     0.2594 
 7407.0000 20000.0000     0.2482 
 7407.5000 16478.0391     0.2398 
 7408.0000 20000.0000     0.2452 
 7408.5000 20000.0000     0.2625 
 7409.0000 16155.2324     0.2315 
 7409.5000 13935.5088     0.2347 
 7410.0000 20000.0000     0.2509 
 7410.5000 20000.0000     0.2480 
 7411.0000 20000.0000     0.2552 
 7411.5000 20000.0000     0.2669 
 7412.0000 20000.0000     0.2602 
 7412.5000 20000.0000     0.2719 
 7413.0000 20000.0000     0.2600 
 7413.5000 17027.8711     0.2378 
 7414.0000  7363.5166     0.2208 
 7414.5000  1737.4943     0.1711 
 7415.0000   109.4768     0.1179 
 7415.5000    84.7320     0.1237 
 7416.0000    57.5140     0.1136 
 7416.5000    21.3335     0.0867 
 7417.0000    17.5223     0.0867 
 7417.5000  7977.9336     0.1515 
 7418.0000 20000.0000     0.2658 
 7418.5000 20000.0000     0.2777 
 7419.0000 20000.0000     0.2814 
 7419.5000 20000.0000     0.2725 
 7420.0000 20000.0000     0.2605 
 7420.5000  9875.2998     0.1829 
 7421.0000 20000.0000     0.2499 
 7421.5000 20000.0000     0.2726 
 7422.0000 20000.0000     0.2708 
 7422.5000 20000.0000     0.2672 
 7423.0000 20000.0000     0.2591 
 7423.5000 20000.0000     0.2563 
 7424.0000 20000.0000     0.2554 
 7424.5000 20000.0000     0.2726 
 7425.0000 20000.0000     0.2655 
 7425.5000 20000.0000     0.2527 
 7426.0000 20000.0000     0.2524 
 7426.5000 13675.1416     0.2354 
 7427.0000 13612.2246     0.2326 
 7427.5000 20000.0000     0.2452 
 7428.0000 11391.8721     0.2318 
 7428.5000  1584.5533     0.1784 
 7429.0000   189.6948     0.0240 
 7429.5000     2.3939     0.0591 
 7430.0000     0.4180     0.0180 
 7430.5000     0.0001     0.0002 
 7431.0000     0.0000     0.0000 
 7431.5000     0.0001     0.0011 
 7432.0000     2.8331     0.0151 
 7432.5000    74.9720     0.0950 
 7433.0000   377.7719     0.1575 
 7433.5000   162.8870     0.1312 
 7434.0000    12.6511     0.0238 
 7434.5000     0.0003     0.0006 
 7435.0000     0.0000     0.0001 
 7435.5000     0.0000     0.0005 
 7436.0000     0.0000     0.0000 
 7436.5000     0.0000     0.0004 
 7437.0000     0.0046     0.0069 
 7437.5000     0.9827     0.0396 
 7438.0000     4.8267     0.0680 
 7438.5000     8.4217     0.0804 
 7439.0000     5.6893     0.0710 
 7439.5000     1.1283     0.0412 
 7440.0000     0.0224     0.0069 
 7440.5000     0.0000     0.0012 
 7441.0000     0.0002     0.0081 
 7441.5000     0.0000     0.0028 
 7442.0000     0.0000     0.0010 
 7442.5000     0.0000     0.0004 
 7443.0000     0.0000     0.0018 
 7443.5000     0.0000     0.0001 
 7444.0000     0.0000     0.0000 
 7444.5000     0.0000     0.0001 
 7445.0000     0.0000     0.0000 
 7445.5000     0.0000     0.0000 
 7446.0000     0.0000     0.0001 
 7446.5000     0.0000     0.0006 
 7447.0000     0.0000     0.0034 
 7447.5000     3.5350     0.0102 
 7448.0000   289.6062     0.1464 
 7448.5000   660.4013     0.1640 
 7449.0000  5052.0044     0.2036 
 7449.5000 15578.3369     0.2397 
 7450.0000 18516.6406     0.2435 
 7450.5000 19535.9023     0.2451 
 7451.0000 13704.1582     0.2374 
 7451.5000  4066.6836     0.2021 
 7452.0000   785.2281     0.1545 
 7452.5000   298.1551     0.1487 
 7453.0000   146.9394     0.1318 
 7453.5000    43.8420     0.1034 
 7454.0000     7.1440     0.0575 
 7454.5000    11.8492     0.0865 
 7455.0000    10.9946     0.0821 
 7455.5000     9.3254     0.0794 
 7456.0000     7.9169     0.0766 
 7456.5000    15.1184     0.0740 
 7457.0000    56.2623     0.1140 
 7457.5000   108.0633     0.1149 
 7458.0000   350.7593     0.1516 
 7458.5000   442.7566     0.1604 
 7459.0000   194.4814     0.1388 
 7459.5000    39.3386     0.0840 
 7460.0000     2.4856     0.0556 
 7460.5000     1.7190     0.0223 
 7461.0000     8.1662     0.0778 
 7461.5000   167.3437     0.0878 
 7462.0000   939.6091     0.1759 
 7462.5000   964.9821     0.1744 
 7463.0000   988.8779     0.1710 
 7463.5000  1867.5619     0.1907 
 7464.0000  1846.6064     0.1916 
 7464.5000   504.5018     0.1518 
 7465.0000   111.7754     0.1149 
 7465.5000   129.4767     0.1310 
 7466.0000   348.3214     0.1368 
 7466.5000  1233.6835     0.1818 
 7467.0000   839.5880     0.1647 
 7467.5000  1401.6595     0.1794 
 7468.0000  6817.8330     0.2188 
 7468.5000 12932.1328     0.2346 
 7469.0000 11874.5508     0.2339 
 7469.5000  7873.3364     0.2222 
 7470.0000  7798.8979     0.2219 
 7470.5000  8319.4346     0.2248 
 7471.0000  5220.3555     0.2097 
 7471.5000  5153.4546     0.2117 
 7472.0000  8008.5596     0.2238 
 7472.5000  9801.7949     0.2286 
 7473.0000  8296.8535     0.2262 
 7473.5000  2861.0571     0.1926 
 7474.0000  1231.8070     0.1794 
 7474.5000   790.5739     0.1539 
 7475.0000  3492.1755     0.1971 
 7475.5000 12361.6885     0.2347 
 7476.0000 17868.9551     0.2434 
 7476.5000 13824.6055     0.2365 
 7477.0000  8819.7012     0.2228 
 7477.5000 17815.4062     0.2409 
 7478.0000 20000.0000     0.2561 
 7478.5000  6014.1230     0.1184 
 7479.0000  4828.4541     0.2111 
 7479.5000  1010.2036     0.1484 
 7480.0000    11.4020     0.0647 
 7480.5000     4.2008     0.0687 
 7481.0000     1.4447     0.0459 
 7481.5000     2.6127     0.0630 
 7482.0000     0.2747     0.0069 
 7482.5000     0.1727     0.0158 
 7483.0000     0.9567     0.0466 
 7483.5000     0.2822     0.0331 
 7484.0000     0.0396     0.0228 
 7484.5000     0.8883     0.0325 
 7485.0000     4.7062     0.0725 
 7485.5000     0.8083     0.0340 
 7486.0000     0.4524     0.0295 
 7486.5000     1.9639     0.0566 
 7487.0000     0.3613     0.0185 
 7487.5000     0.0003     0.0078 
 7488.0000     0.0432     0.0226 
 7488.5000     0.2462     0.0385 
 7489.0000     0.1917     0.0125 
 7489.5000     0.9272     0.0432 
 7490.0000    13.1297     0.0760 
 7490.5000    59.7959     0.1098 
 7491.0000   622.6419     0.1610 
 7491.5000  1935.3914     0.1842 
 7492.0000  9624.7637     0.2281 
 7492.5000 16104.2725     0.2401 
