~Version Information
 VERS.                  2.0:   CWLS log ASCII Standard -VERSION 2.0
 WRAP.                   NO:   One line per depth step
~Well Information Block
#MNEM.UNIT       Data Type    Information
#---------     -----------    ---------------------------
 STRT.F              7267.0000:
 STOP.F              8234.0000:
 STEP.F                 0.5000:
 NULL.               -999.2500:
 UWI .                CASN0087:  UWI
 API .                CASN0087:  UWI
 WELL.                 CASN-87:  COMMON WELL NAME
 COMP.               ECOPETROL:  WELL OPERATOR
 FLD .                CASTILLA:  FIELD
 LIC .                 UNKNOWN:  AUTHORIZATION NO
 LOC .                     LLA:  BASIN
 CTRY.                COLOMBIA:  COUNTRY
 STAT.                    META:  STATE
 CNTY.                 UNKNOWN:  COUNTY
 PROV.                    META:  STATE
 SRVC.                 UNKNOWN:  COMPANY
 DATE.                 UNKNOWN:  LOG RUN DATE
 LONG.           -73.612780838:  LONGITUDE
 LATI.             3.904697520:  LATITUDE
 XCOORD.          1051614.5000:  X COORDINATE
 YCOORD.           923547.6250:  Y COORDINATE
 ELEV.FT             1354.7550:  ELEVATION
 TD  .FT             8220.0000:  TOTAL DEPTH
~Parameter Information Block
#MNEM.UNIT       Value        Description
#---------     -----------    ---------------------------
~Curve Information Block
#MNEM.UNIT                 API CODE     Curve Description
#---------               -----------    ---------------------------
 DEPTH.F                00 000 000 000:  Index Curve
 2019_pPerm_ANS.MD          00 000 000 000:  
 2019_pPhieE_D_ANS.V/V         00 000 000 000:  
~A DEPTH     2019_pPerm_ANS 2019_pPhieE_D_ANS
# ...
 8093.0000   469.9117     0.1607 
 8093.5000   259.7058     0.1223 
 8094.0000    68.6741     0.0511 
 8094.5000     2.1388     0.0100 
 8095.0000     2.5122     0.0116 
 8095.5000   120.4337     0.0598 
 8096.0000   353.8799     0.1337 
 8096.5000   420.0817     0.1612 
 8097.0000   311.2762     0.1502 
 8097.5000   274.8925     0.1455 
 8098.0000   377.8116     0.1524 
 8098.5000   635.1382     0.1651 
 8099.0000  1315.5055     0.1816 
 8099.5000  3003.2339     0.2013 
 8100.0000  5282.8647     0.2174 
 8100.5000  6464.5273     0.2228 
 8101.0000  5948.1392     0.2192 
 8101.5000  5001.5015     0.2140 
 8102.0000  4538.8179     0.2114 
 8102.5000  4258.0078     0.2095 
 8103.0000  3849.2573     0.2063 
 8103.5000  3534.6753     0.2037 
 8104.0000  3596.0581     0.2042 
 8104.5000  3962.7449     0.2074 
 8105.0000  4222.5098     0.2096 
 8105.5000  4044.6697     0.2084 
 8106.0000  3491.7307     0.2039 
 8106.5000  2886.4756     0.1980 
 8107.0000  2525.5969     0.1939 
 8107.5000  2518.8657     0.1938 
 8108.0000  2829.1523     0.1971 
 8108.5000  3273.2991     0.2019 
 8109.0000  3460.3901     0.2044 
 8109.5000  3167.0024     0.2025 
 8110.0000  2634.7605     0.1975 
 8110.5000  2252.0063     0.1933 
 8111.0000  2177.7773     0.1921 
 8111.5000  2347.4727     0.1936 
 8112.0000  2745.4597     0.1974 
 8112.5000  3266.8169     0.2023 
 8113.0000  3619.1191     0.2051 
 8113.5000  3658.2620     0.2048 
 8114.0000  3729.5347     0.2047 
 8114.5000  4380.3472     0.2089 
 8115.0000  5435.4336     0.2157 
 8115.5000  6212.1528     0.2203 
 8116.0000  6487.0190     0.2219 
 8116.5000  6294.2837     0.2211 
 8117.0000  5589.8740     0.2174 
 8117.5000  4469.0820     0.2106 
 8118.0000  3309.9456     0.2026 
 8118.5000  2161.3179     0.1898 
 8119.0000  1001.4169     0.1639 
 8119.5000   267.8383     0.1107 
 8120.0000    39.8114     0.0525 
 8120.5000     7.3915     0.0391 
 8121.0000   179.9268     0.0811 
 8121.5000   910.1959     0.1489 
 8122.0000  2304.3374     0.1932 
 8122.5000  3685.1902     0.2066 
 8123.0000  4579.3037     0.2121 
 8123.5000  5154.4829     0.2153 
 8124.0000  5494.1978     0.2171 
 8124.5000  5300.6602     0.2153 
 8125.0000  4398.4878     0.2087 
 8125.5000  3452.7405     0.2013 
 8126.0000  3043.4436     0.1977 
 8126.5000  3039.6318     0.1983 
 8127.0000  2964.3699     0.1995 
 8127.5000  2380.1704     0.1956 
 8128.0000  1421.7399     0.1825 
 8128.5000   646.7839     0.1649 
 8129.0000   378.7217     0.1561 
 8129.5000   539.1958     0.1627 
 8130.0000   918.5636     0.1754 
 8130.5000  1115.2515     0.1811 
 8131.0000   863.2048     0.1732 
 8131.5000   394.0533     0.1283 
 8132.0000    83.5831     0.0527 
 8132.5000     3.1988     0.0074 
 8133.0000     0.8486     0.0002 
 8133.5000     0.8541     0.0001 
 8134.0000     1.9171     0.0081 
 8134.5000   351.1993     0.0647 
 8135.0000  1691.1108     0.1600 
 8135.5000  3804.2727     0.2134 
 8136.0000  4996.6997     0.2186 
 8136.5000  4256.6187     0.2102 
 8137.0000  2861.9014     0.1978 
 8137.5000  2097.4819     0.1901 
 8138.0000  1908.4880     0.1887 
 8138.5000  1921.0730     0.1902 
 8139.0000  1885.1528     0.1903 
 8139.5000  1779.8777     0.1885 
 8140.0000  1696.8619     0.1867 
 8140.5000  1712.5386     0.1867 
 8141.0000  1728.7926     0.1872 
 8141.5000  1599.7407     0.1853 
 8142.0000  1366.3171     0.1808 
 8142.5000  1231.9111     0.1777 
 8143.0000  1307.3381     0.1786 
 8143.5000  1498.0513     0.1816 
 8144.0000  1663.7463     0.1836 
 8144.5000  1746.0247     0.1840 
 8145.0000  1840.9585     0.1852 
 8145.5000  2052.8289     0.1890 
 8146.0000  2541.9932     0.1959 
 8146.5000  3247.0000     0.2041 
 8147.0000  3466.8425     0.2067 
 8147.5000  2818.8596     0.1993 
 8148.0000  1967.9092     0.1883 
 8148.5000  1677.1991     0.1839 
 8149.0000  1976.5908     0.1883 
 8149.5000  2302.9885     0.1928 
 8150.0000  2196.4851     0.1909 
 8150.5000  1867.5222     0.1858 
 8151.0000  1795.2146     0.1848 
 8151.5000  2016.2012     0.1886 
 8152.0000  2206.5024     0.1918 
 8152.5000  2193.9026     0.1920 
 8153.0000  2223.5652     0.1927 
 8153.5000  2641.9265     0.1980 
 8154.0000  3429.6470     0.2062 
 8154.5000  4330.1958     0.2133 
 8155.0000  4709.0522     0.2156 
 8155.5000  4041.5278     0.2097 
 8156.0000  2772.7805     0.1966 
 8156.5000  1740.6310     0.1826 
 8157.0000  1261.9937     0.1741 
 8157.5000  1052.3226     0.1689 
 8158.0000   849.5321     0.1625 
 8158.5000   691.4921     0.1570 
 8159.0000   727.4294     0.1587 
 8159.5000  1037.4982     0.1687 
 8160.0000  1433.2200     0.1789 
 8160.5000  1589.2753     0.1821 
 8161.0000  1433.8562     0.1784 
 8161.5000  1257.9449     0.1743 
 8162.0000  1321.7523     0.1756 
 8162.5000  1582.3918     0.1811 
 8163.0000  1874.0663     0.1865 
 8163.5000  2082.1001     0.1900 
 8164.0000  2324.1523     0.1931 
 8164.5000  2803.3267     0.1984 
 8165.0000  3557.2881     0.2056 
 8165.5000  4260.1963     0.2118 
 8166.0000  4452.2798     0.2136 
 8166.5000  4365.3545     0.2131 
 8167.0000  4952.7935     0.2167 
 8167.5000  6663.2900     0.2259 
 8168.0000  8062.0171     0.2327 
 8168.5000  7223.2656     0.2282 
 8169.0000  4682.4385     0.2124 
 8169.5000  2565.3604     0.1942 
 8170.0000  1654.5680     0.1824 
 8170.5000  1508.3036     0.1803 
 8171.0000  1677.0138     0.1839 
 8171.5000  1887.1464     0.1880 
 8172.0000  2138.1423     0.1921 
 8172.5000  2439.0388     0.1964 
 8173.0000  2522.6401     0.1977 
 8173.5000  2159.8245     0.1923 
 8174.0000  1649.0304     0.1837 
 8174.5000  1300.9303     0.1763 
 8175.0000  1053.1608     0.1696 
 8175.5000   814.5102     0.1610 
 8176.0000   583.4476     0.1500 
 8176.5000   398.5862     0.1377 
 8177.0000   273.1689     0.1258 
 8177.5000   214.5231     0.1191 
 8178.0000   209.4791     0.1184 
 8178.5000   215.8522     0.1193 
 8179.0000   253.3917     0.1236 
 8179.5000   479.8170     0.1396 
 8180.0000  1149.6021     0.1662 
 8180.5000  2100.5444     0.1896 
 8181.0000  2692.0398     0.1998 
 8181.5000  2805.3613     0.2012 
 8182.0000  2821.5959     0.2014 
 8182.5000  2808.7527     0.2012 
 8183.0000  2632.8110     0.1991 
 8183.5000  2326.4885     0.1951 
 8184.0000  2045.2734     0.1910 
 8184.5000  1907.2261     0.1889 
 8185.0000  1902.5282     0.1888 
 8185.5000  1967.0056     0.1899 
 8186.0000  2120.6382     0.1921 
 8186.5000  2397.6121     0.1960 
 8187.0000  2689.9717     0.1998 
 8187.5000  5357.8799     0.2136 
 8188.0000 19924.7500     0.2489 
 8188.5000 20000.0000     0.2872 
 8189.0000 20000.0000     0.2967 
 8189.5000 20000.0000     0.2711 
 8190.0000  9911.8867     0.1839 
 8190.5000  1894.2056     0.0582 
 8191.0000     5.0920     0.0000 
 8191.5000     5.0920     0.0000 
 8192.0000     5.0920     0.0000 
 8192.5000     5.0920     0.0000 
 8193.0000     5.0920     0.0000 
 8193.5000     5.0920     0.0000 
 8194.0000     5.0920     0.0000 
 8194.5000     5.0920     0.0000 
 8195.0000     5.0920     0.0000 
 8195.5000     5.0920     0.0000 
 8196.0000     5.0920     0.0000 
 8196.5000     5.0920     0.0000 
 8197.0000     5.0920     0.0000 
 8197.5000     5.0920     0.0000 
 8198.0000     5.0920     0.0000 
 8198.5000     5.0920     0.0000 
 8199.0000     5.0920     0.0000 
 8199.5000     5.0920     0.0000 
 8200.0000     5.0920     0.0000 
 8200.5000     5.0920     0.0000 
 8201.0000     5.0920     0.0000 
 8201.5000     5.0920     0.0000 
 8202.0000     5.0920     0.0000 
 8202.5000     5.0920     0.0000 
 8203.0000     5.0920     0.0000 
 8203.5000     5.0920     0.0000 
 8204.0000     5.0920     0.0000 
 8204.5000     5.0920     0.0000 
 8205.0000     5.0920     0.0000 
 8205.5000     5.0920     0.0000 
 8206.0000     5.0920     0.0000 
 8206.5000     5.0920     0.0000 
 8207.0000     5.0920     0.0000 
 8207.5000     5.0920     0.0000 
 8208.0000     5.0920     0.0000 
 8208.5000     5.0920     0.0000 
 8209.0000     5.0920     0.0000 
 8209.5000     5.0920     0.0000 
 8210.0000     5.0920     0.0000 
 8210.5000     5.0920     0.0000 
