~Version Information
 VERS.                  2.0:   CWLS log ASCII Standard -VERSION 2.0
 WRAP.                   NO:   One line per depth step
~Well Information Block
#MNEM.UNIT       Data Type    Information
#---------     -----------    ---------------------------
 STRT.F              8011.0000:
 STOP.F              9260.0000:
 STEP.F                 0.5000:
 NULL.               -999.2500:
 UWI .                CASN0030:  UWI
 API .                CASN0030:  UWI
 WELL.                 CASN-30:  COMMON WELL NAME
 COMP.               ECOPETROL:  WELL OPERATOR
 FLD .                CASTILLA:  FIELD
 LIC .                 UNKNOWN:  AUTHORIZATION NO
 LOC .                     LLA:  BASIN
 CTRY.                COLOMBIA:  COUNTRY
 STAT.                    META:  STATE
 CNTY.       CASTILLA_LA_NUEVA:  COUNTY
 PROV.                    META:  STATE
 SRVC.                 UNKNOWN:  COMPANY
 DATE.                 UNKNOWN:  LOG RUN DATE
 LONG.           -73.616480936:  LONGITUDE
 LATI.             3.893355943:  LATITUDE
 XCOORD.          1051204.2500:  X COORDINATE
 YCOORD.           922293.1875:  Y COORDINATE
 ELEV.FT             1376.0000:  ELEVATION
 TD  .FT             9235.0000:  TOTAL DEPTH
~Parameter Information Block
#MNEM.UNIT       Value        Description
#---------     -----------    ---------------------------
~Curve Information Block
#MNEM.UNIT                 API CODE     Curve Description
#---------               -----------    ---------------------------
 DEPTH.F                00 000 000 000:  Index Curve
 2019_pPerm_ANS.MD          00 000 000 000:  
 2019_pPhieE_D_ANS.V/V         00 000 000 000:  
~A DEPTH     2019_pPerm_ANS 2019_pPhieE_D_ANS
 8011.0000     0.0000     0.0001 
 8011.5000     0.0000     0.0001 
 8012.0000     0.0000     0.0001 
 8012.5000     0.0000     0.0001 
 8013.0000     0.0000     0.0001 
 8013.5000     0.0000     0.0001 
 8014.0000     0.0000     0.0001 
 8014.5000     0.0000     0.0001 
 8015.0000     0.0000     0.0001 
 8015.5000     0.0000     0.0001 
 8016.0000     0.0000     0.0001 
 8016.5000     0.0000     0.0001 
 8017.0000     0.0000     0.0001 
 8017.5000     0.0000     0.0001 
 8018.0000     0.0000     0.0001 
 8018.5000     0.0000     0.0001 
 8019.0000     0.0000     0.0020 
 8019.5000     0.0000     0.0000 
 8020.0000     0.0000     0.0000 
 8020.5000     0.0000     0.0000 
 8021.0000     0.0000     0.0000 
 8021.5000     0.0000     0.0000 
 8022.0000     0.0000     0.0000 
 8022.5000     0.0000     0.0000 
 8023.0000     0.0000     0.0000 
 8023.5000     0.0000     0.0002 
 8024.0000     0.0000     0.0007 
 8024.5000     0.0000     0.0004 
 8025.0000     0.0000     0.0002 
 8025.5000     0.0000     0.0005 
 8026.0000     0.0000     0.0013 
 8026.5000     0.0001     0.0062 
 8027.0000     0.0131     0.0097 
 8027.5000     0.7906     0.0268 
 8028.0000    14.9555     0.0752 
 8028.5000    96.8143     0.1165 
 8029.0000   661.7153     0.1607 
 8029.5000  1913.7878     0.1886 
 8030.0000  4483.1538     0.2109 
 8030.5000  5905.8081     0.2160 
 8031.0000  6096.7744     0.2176 
 8031.5000  5298.9771     0.2133 
 8032.0000  6151.8271     0.2173 
 8032.5000  6519.5542     0.2185 
 8033.0000  5345.3940     0.2134 
 8033.5000  4344.2466     0.2086 
 8034.0000  3998.8936     0.2055 
 8034.5000  4651.0571     0.2104 
 8035.0000  5227.2417     0.2138 
 8035.5000  4939.0273     0.2119 
 8036.0000  4263.6377     0.2082 
 8036.5000  3717.6521     0.2047 
 8037.0000  3520.9534     0.2042 
 8037.5000  3021.5110     0.2002 
 8038.0000  2581.4270     0.1961 
 8038.5000  2805.4868     0.1973 
 8039.0000  3813.0891     0.2055 
 8039.5000  5061.6528     0.2133 
 8040.0000  5315.9585     0.2137 
 8040.5000  4479.8062     0.2086 
 8041.0000  4284.1694     0.2083 
 8041.5000  5201.5254     0.2130 
 8042.0000  6087.9062     0.2167 
 8042.5000  5251.6382     0.2138 
 8043.0000  3812.1028     0.2056 
 8043.5000  2662.2349     0.1961 
 8044.0000  2166.0408     0.1922 
 8044.5000  2421.3521     0.1942 
 8045.0000  3230.1807     0.2015 
 8045.5000  4460.9219     0.2102 
 8046.0000  4856.7334     0.2118 
 8046.5000  4574.2759     0.2093 
 8047.0000  5126.0366     0.2118 
 8047.5000  7023.1011     0.2196 
 8048.0000  9522.3975     0.2285 
 8048.5000  9548.4824     0.2273 
 8049.0000  9207.9297     0.2265 
 8049.5000  8790.3164     0.2255 
 8050.0000  7748.5171     0.2224 
 8050.5000  6620.1865     0.2185 
 8051.0000  6285.5332     0.2169 
 8051.5000  6571.9619     0.2184 
 8052.0000  7705.4883     0.2229 
 8052.5000  7953.8970     0.2230 
 8053.0000  7228.6807     0.2211 
 8053.5000  6080.7988     0.2165 
 8054.0000  5897.9609     0.2155 
 8054.5000  6215.0127     0.2173 
 8055.0000  6328.6104     0.2172 
 8055.5000  6781.8257     0.2195 
 8056.0000  6551.5063     0.2184 
 8056.5000  6160.8926     0.2172 
 8057.0000  5453.0933     0.2135 
 8057.5000  5622.8691     0.2142 
 8058.0000  6824.6851     0.2192 
 8058.5000  8215.0400     0.2245 
 8059.0000  8208.7100     0.2240 
 8059.5000  7417.7812     0.2205 
 8060.0000  7755.7358     0.2224 
 8060.5000  8130.7495     0.2239 
 8061.0000  7832.7979     0.2228 
 8061.5000  6095.0630     0.2165 
 8062.0000  4502.2095     0.2095 
 8062.5000  4014.7527     0.2066 
 8063.0000  3790.8220     0.2055 
 8063.5000  4580.9844     0.2103 
 8064.0000  5167.2451     0.2128 
 8064.5000  5853.2749     0.2155 
 8065.0000  6831.3647     0.2193 
 8065.5000  8000.2310     0.2236 
 8066.0000  8520.7686     0.2245 
 8066.5000  9892.1885     0.2268 
 8067.0000 14585.0537     0.2368 
 8067.5000 20000.0000     0.2479 
 8068.0000 20000.0000     0.2516 
 8068.5000 20000.0000     0.2470 
 8069.0000 17823.7383     0.2416 
 8069.5000 16608.4863     0.2402 
 8070.0000 18391.0000     0.2425 
 8070.5000 20000.0000     0.2475 
 8071.0000 20000.0000     0.2514 
 8071.5000 18464.7559     0.2433 
 8072.0000  8473.5098     0.2215 
 8072.5000  2428.6011     0.1948 
 8073.0000  1140.4688     0.1735 
 8073.5000   730.8839     0.1679 
 8074.0000   618.8796     0.1647 
 8074.5000   453.7995     0.1575 
 8075.0000   252.4735     0.1431 
 8075.5000   134.4585     0.1300 
 8076.0000   132.7696     0.1313 
 8076.5000   130.7392     0.1308 
 8077.0000   117.2546     0.1292 
 8077.5000    82.2450     0.1208 
 8078.0000    53.5630     0.1124 
 8078.5000    30.3447     0.1007 
 8079.0000    14.5718     0.0868 
 8079.5000     5.5225     0.0685 
 8080.0000     0.9945     0.0399 
 8080.5000     0.1457     0.0163 
 8081.0000     0.0096     0.0059 
 8081.5000     0.0018     0.0190 
 8082.0000     0.0000     0.0021 
 8082.5000     0.0000     0.0002 
 8083.0000     0.0000     0.0000 
 8083.5000     0.0000     0.0000 
 8084.0000     0.0000     0.0000 
 8084.5000     0.0000     0.0000 
 8085.0000     0.0000     0.0000 
 8085.5000     0.0000     0.0000 
 8086.0000     0.0000     0.0000 
 8086.5000     0.0000     0.0002 
 8087.0000     0.0000     0.0007 
 8087.5000     0.7926     0.0079 
 8088.0000     4.4834     0.0710 
 8088.5000     1.1301     0.0342 
 8089.0000     0.7044     0.0413 
 8089.5000     0.5962     0.0388 
 8090.0000     0.8109     0.0253 
 8090.5000     3.4417     0.0656 
 8091.0000     0.6285     0.0097 
 8091.5000     0.0000     0.0020 
 8092.0000     0.0000     0.0016 
 8092.5000     0.0000     0.0018 
 8093.0000     0.0000     0.0026 
 8093.5000     0.0000     0.0026 
 8094.0000     0.0000     0.0027 
 8094.5000     0.0000     0.0003 
 8095.0000     0.0000     0.0000 
 8095.5000     0.0000     0.0000 
 8096.0000     0.0000     0.0000 
 8096.5000     0.0000     0.0000 
 8097.0000     0.0000     0.0000 
 8097.5000     0.0000     0.0000 
 8098.0000     0.0000     0.0000 
 8098.5000     0.0000     0.0000 
 8099.0000     0.0000     0.0000 
 8099.5000     0.0000     0.0000 
 8100.0000     0.0000     0.0000 
 8100.5000     0.0000     0.0000 
 8101.0000     0.0000     0.0001 
 8101.5000     0.0120     0.0009 
 8102.0000     2.7474     0.0251 
 8102.5000    41.1251     0.1085 
 8103.0000    71.7022     0.1172 
 8103.5000   211.0257     0.1390 
 8104.0000   418.3216     0.1555 
 8104.5000   438.5234     0.1584 
 8105.0000   291.8355     0.1475 
 8105.5000   176.1765     0.1347 
 8106.0000   133.3461     0.1308 
 8106.5000   125.1607     0.1297 
 8107.0000   116.5638     0.1282 
 8107.5000   105.8282     0.1262 
 8108.0000    93.4687     0.1237 
 8108.5000    79.0162     0.1195 
 8109.0000    75.9813     0.1196 
 8109.5000    71.3575     0.1174 
 8110.0000    77.4009     0.1205 
 8110.5000    69.3429     0.1175 
 8111.0000    59.5917     0.1143 
 8111.5000    52.3943     0.1121 
 8112.0000    42.5610     0.1073 
 8112.5000    37.2427     0.1052 
 8113.0000    32.9120     0.1028 
 8113.5000    28.5478     0.1000 
 8114.0000    25.3507     0.0982 
 8114.5000    19.9049     0.0932 
 8115.0000    16.3195     0.0888 
 8115.5000    15.4463     0.0885 
 8116.0000    15.7178     0.0889 
 8116.5000    15.4062     0.0890 
 8117.0000     8.1337     0.0755 
 8117.5000     3.7046     0.0631 
 8118.0000     2.1017     0.0536 
 8118.5000     2.4084     0.0519 
 8119.0000     6.6033     0.0780 
 8119.5000     1.2676     0.0403 
 8120.0000     0.1174     0.0252 
 8120.5000     0.3241     0.0337 
 8121.0000     1.1636     0.0490 
 8121.5000     0.6184     0.0347 
 8122.0000     0.7758     0.0397 
 8122.5000     3.7971     0.0552 
 8123.0000    21.2283     0.0875 
 8123.5000   210.9409     0.1325 
 8124.0000   691.2003     0.1667 
 8124.5000  1113.0356     0.1790 
 8125.0000  1185.8861     0.1788 
 8125.5000  1312.5754     0.1818 
 8126.0000  1257.7582     0.1803 
 8126.5000   829.3872     0.1717 
 8127.0000   256.3238     0.1428 
 8127.5000    50.6216     0.0942 
 8128.0000     3.3989     0.0547 
 8128.5000     0.5752     0.0318 
