~Version Information
 VERS.                  2.0:   CWLS log ASCII Standard -VERSION 2.0
 WRAP.                   NO:   One line per depth step
~Well Information Block
#MNEM.UNIT       Data Type    Information
#---------     -----------    ---------------------------
 STRT.F              7159.5000:
 STOP.F              8265.0000:
 STEP.F                 0.5000:
 NULL.               -999.2500:
 UWI .                CASN0033:  UWI
 API .                CASN0033:  UWI
 WELL.                 CASN-33:  COMMON WELL NAME
 COMP.               ECOPETROL:  WELL OPERATOR
 FLD .                CASTILLA:  FIELD
 LIC .                 UNKNOWN:  AUTHORIZATION NO
 LOC .                     LLA:  BASIN
 CTRY.                COLOMBIA:  COUNTRY
 STAT.                    META:  STATE
 CNTY.       CASTILLA_LA_NUEVA:  COUNTY
 PROV.                    META:  STATE
 SRVC.                 UNKNOWN:  COMPANY
 DATE.                 UNKNOWN:  LOG RUN DATE
 LONG.           -73.616507528:  LONGITUDE
 LATI.             3.893623539:  LATITUDE
 XCOORD.          1051201.2500:  X COORDINATE
 YCOORD.           922322.7500:  Y COORDINATE
 ELEV.FT             1376.0000:  ELEVATION
 TD  .FT             8280.0000:  TOTAL DEPTH
~Parameter Information Block
#MNEM.UNIT       Value        Description
#---------     -----------    ---------------------------
~Curve Information Block
#MNEM.UNIT                 API CODE     Curve Description
#---------               -----------    ---------------------------
 DEPTH.F                00 000 000 000:  Index Curve
 2019_pPerm_ANS.MD          00 000 000 000:  
 2019_pPhieE_D_ANS.V/V         00 000 000 000:  
~A DEPTH     2019_pPerm_ANS 2019_pPhieE_D_ANS
# ...
 7749.5000     9.8319     0.0733 
 7750.0000    52.2866     0.1364 
 7750.5000     9.6941     0.0706 
 7751.0000     0.2945     0.0311 
 7751.5000    73.0401     0.0830 
 7752.0000   428.0908     0.1870 
 7752.5000   657.0652     0.1936 
 7753.0000   905.4870     0.2002 
 7753.5000   873.9882     0.1954 
 7754.0000   836.5405     0.1907 
 7754.5000   964.9155     0.1958 
 7755.0000  1034.8658     0.2009 
 7755.5000   540.7983     0.1824 
 7756.0000   237.1345     0.1640 
 7756.5000   108.4645     0.1493 
 7757.0000    63.7779     0.1345 
 7757.5000   105.1808     0.1510 
 7758.0000   175.4820     0.1676 
 7758.5000   113.6833     0.1556 
 7759.0000    19.4095     0.0647 
 7759.5000     0.9027     0.0591 
 7760.0000    31.5563     0.0537 
 7760.5000   189.0511     0.1669 
 7761.0000   376.8060     0.1856 
 7761.5000   240.3673     0.1725 
 7762.0000    39.9331     0.0714 
 7762.5000     0.3172     0.0374 
 7763.0000     0.1265     0.0164 
 7763.5000   104.0414     0.0451 
 7764.0000  1190.6744     0.2183 
 7764.5000  1854.1476     0.2252 
 7765.0000  1561.6888     0.2322 
 7765.5000  -999.2500  -999.2500 
 7766.0000  4575.5439     0.2157 
 7766.5000  7858.0210     0.2329 
 7767.0000 12774.9463     0.2501 
 7767.5000 11834.7207     0.2451 
 7768.0000 10275.4727     0.2400 
 7768.5000  8728.5869     0.2344 
 7769.0000  7376.9165     0.2288 
 7769.5000  6619.0103     0.2259 
 7770.0000  5991.2495     0.2230 
 7770.5000  7234.6055     0.2300 
 7771.0000  8684.9521     0.2369 
 7771.5000  6020.5811     0.2250 
 7772.0000  4024.2070     0.2130 
 7772.5000  4004.6011     0.2138 
 7773.0000  4177.8896     0.2145 
 7773.5000  6356.7852     0.2280 
 7774.0000  8995.3750     0.2415 
 7774.5000  7453.1401     0.2343 
 7775.0000  5767.4058     0.2270 
 7775.5000  4092.8069     0.2157 
 7776.0000  3061.2830     0.2043 
 7776.5000  3748.9832     0.2136 
 7777.0000  4667.7363     0.2230 
 7777.5000  4238.3950     0.2188 
 7778.0000  3537.4568     0.2146 
 7778.5000  2445.3037     0.2010 
 7779.0000  1821.7545     0.1873 
 7779.5000  2167.3987     0.1960 
 7780.0000  2848.9077     0.2046 
 7780.5000  3354.0813     0.2108 
 7781.0000  3653.0247     0.2170 
 7781.5000  3001.4521     0.2080 
 7782.0000  2434.7837     0.1990 
 7782.5000  2359.0691     0.1986 
 7783.0000  2510.2546     0.1982 
 7783.5000  3137.3262     0.2074 
 7784.0000  3785.0264     0.2166 
 7784.5000  3202.1750     0.2087 
 7785.0000  2528.1677     0.2008 
 7785.5000  2035.4640     0.1949 
 7786.0000  1784.0159     0.1891 
 7786.5000  2386.5278     0.2018 
 7787.0000  3238.4121     0.2144 
 7787.5000  3320.4072     0.2125 
 7788.0000  3254.0942     0.2106 
 7788.5000  2938.9060     0.2070 
 7789.0000  2681.6853     0.2033 
 7789.5000  3155.5278     0.2075 
 7790.0000  3698.6045     0.2116 
 7790.5000  3114.0146     0.2067 
 7791.0000  2547.3201     0.2018 
 7791.5000  2094.1499     0.1999 
 7792.0000  1712.8390     0.1981 
 7792.5000  2731.2678     0.2104 
 7793.0000  4066.8923     0.2226 
 7793.5000  4235.4150     0.2247 
 7794.0000  4169.5361     0.2267 
 7794.5000  1924.6631     0.2050 
 7795.0000   755.7687     0.1833 
 7795.5000   929.1863     0.1919 
 7796.0000  1198.7617     0.2004 
 7796.5000   792.9837     0.1858 
 7797.0000   461.6491     0.1712 
 7797.5000   225.9353     0.1560 
 7798.0000    35.1518     0.0317 
 7798.5000    20.7613     0.0571 
 7799.0000   134.3424     0.1403 
 7799.5000   240.3198     0.1501 
 7800.0000   359.3391     0.1598 
 7800.5000   315.3131     0.1500 
 7801.0000   246.8794     0.1402 
 7801.5000   172.7551     0.1291 
 7802.0000   120.7463     0.1180 
 7802.5000    74.9765     0.1120 
 7803.0000    44.1419     0.1059 
 7803.5000     4.3009     0.0215 
 7804.0000     1.2607     0.0028 
 7804.5000     0.8880     0.0010 
 7805.0000     0.7785     0.0003 
 7805.5000     0.7265     0.0002 
 7806.0000     0.6956     0.0000 
 7806.5000     0.7078     0.0000 
 7807.0000     0.7397     0.0000 
 7807.5000     0.8371     0.0001 
 7808.0000     1.0139     0.0003 
 7808.5000     2.3152     0.0056 
 7809.0000    80.9725     0.0458 
 7809.5000   823.1905     0.1857 
 7810.0000  1614.9072     0.1982 
 7810.5000  2092.7593     0.2029 
 7811.0000  2630.7886     0.2076 
 7811.5000  3389.6440     0.2142 
 7812.0000  4292.3750     0.2208 
 7812.5000  4990.6885     0.2212 
 7813.0000  5748.6626     0.2216 
 7813.5000  5986.4170     0.2234 
 7814.0000  6223.1094     0.2252 
 7814.5000  6482.1499     0.2261 
 7815.0000  6660.9863     0.2270 
 7815.5000  5774.9600     0.2214 
 7816.0000  4749.4155     0.2157 
 7816.5000  2568.9973     0.1970 
 7817.0000  1281.3484     0.1783 
 7817.5000   999.9279     0.1802 
 7818.0000   947.4432     0.1821 
 7818.5000  1494.5951     0.1940 
 7819.0000  2344.9963     0.2059 
 7819.5000  2653.4285     0.2050 
 7820.0000  2835.4895     0.2041 
 7820.5000  2913.3633     0.2054 
 7821.0000  3017.7590     0.2066 
 7821.5000  3333.5542     0.2105 
 7822.0000  3676.9268     0.2145 
 7822.5000  3768.5437     0.2156 
 7823.0000  3911.6582     0.2167 
 7823.5000  4518.5952     0.2243 
 7824.0000  5162.0264     0.2318 
 7824.5000  4954.2803     0.2299 
 7825.0000  4409.6641     0.2280 
 7825.5000  3208.3186     0.2178 
 7826.0000  2345.4094     0.2076 
 7826.5000  2139.7871     0.2068 
 7827.0000  2114.5723     0.2061 
 7827.5000  2322.3796     0.2099 
 7828.0000  2584.8574     0.2137 
 7828.5000  2777.7520     0.2139 
 7829.0000  3020.7639     0.2142 
 7829.5000  3677.9573     0.2191 
 7830.0000  4557.4771     0.2240 
 7830.5000  6058.7778     0.2315 
 7831.0000  7877.2456     0.2390 
 7831.5000  8815.0225     0.2407 
 7832.0000  9702.4551     0.2425 
 7832.5000  9667.7842     0.2411 
 7833.0000  9612.3193     0.2398 
 7833.5000 11545.0693     0.2447 
 7834.0000 13525.1143     0.2496 
 7834.5000  5714.5771     0.2201 
 7835.0000  1749.3088     0.1906 
 7835.5000   726.7143     0.1638 
 7836.0000   257.3980     0.1369 
 7836.5000   120.9354     0.1286 
 7837.0000    13.3411     0.0120 
 7837.5000     1.2407     0.0015 
 7838.0000     0.8896     0.0001 
 7838.5000     0.8641     0.0001 
 7839.0000     0.8649     0.0001 
 7839.5000     0.8141     0.0000 
 7840.0000     0.7671     0.0000 
 7840.5000     0.7684     0.0000 
 7841.0000     0.7865     0.0000 
 7841.5000     0.8370     0.0001 
 7842.0000     1.1107     0.0001 
 7842.5000    27.4443     0.0140 
 7843.0000   522.7593     0.1792 
 7843.5000   427.5836     0.1635 
 7844.0000   253.3710     0.1479 
 7844.5000    12.5588     0.0418 
 7845.0000     2.1206     0.0022 
 7845.5000     1.2508     0.0021 
 7846.0000     1.2323     0.0020 
 7846.5000     1.2275     0.0021 
 7847.0000     1.3525     0.0022 
 7847.5000     2.5153     0.0118 
 7848.0000   227.5497     0.0453 
 7848.5000  1552.1345     0.2057 
 7849.0000  2557.8826     0.2109 
 7849.5000  2692.5103     0.2106 
 7850.0000  2790.5613     0.2103 
 7850.5000  3649.8406     0.2191 
 7851.0000  4599.2207     0.2280 
 7851.5000  3434.6060     0.2157 
 7852.0000  2375.5449     0.2035 
 7852.5000  1782.0089     0.1977 
 7853.0000  1330.2906     0.1920 
 7853.5000  1298.8888     0.1938 
 7854.0000  1281.6653     0.1957 
 7854.5000  1078.1754     0.1905 
 7855.0000   879.1963     0.1854 
 7855.5000   154.2818     0.0612 
 7856.0000     2.3211     0.0076 
 7856.5000     2.4373     0.0146 
 7857.0000    65.8181     0.0263 
 7857.5000   899.5507     0.1829 
 7858.0000  2175.5239     0.1980 
 7858.5000  3723.5454     0.2121 
 7859.0000  5545.3823     0.2261 
 7859.5000  4770.3921     0.2216 
 7860.0000  3867.6895     0.2170 
 7860.5000  3555.2976     0.2138 
 7861.0000  3748.7053     0.2107 
 7861.5000  6032.0278     0.2282 
 7862.0000  9246.6348     0.2457 
 7862.5000  7944.6162     0.2391 
 7863.0000  6025.9307     0.2325 
 7863.5000  3946.7817     0.2212 
 7864.0000  3113.7336     0.2099 
 7864.5000  4726.7334     0.2269 
 7865.0000  8214.5264     0.2439 
 7865.5000  9302.6787     0.2454 
 7866.0000  9426.9561     0.2469 
 7866.5000  7877.7305     0.2399 
 7867.0000  6723.7441     0.2329 
