~Version Information
 VERS.                  2.0:   CWLS log ASCII Standard -VERSION 2.0
 WRAP.                   NO:   One line per depth step
~Well Information Block
#MNEM.UNIT       Data Type    Information
#---------     -----------    ---------------------------
 STRT.F              8011.0000:
 STOP.F              9260.0000:
 STEP.F                 0.5000:
 NULL.               -999.2500:
 UWI .                CASN0030:  UWI
 API .                CASN0030:  UWI
 WELL.                 CASN-30:  COMMON WELL NAME
 COMP.               ECOPETROL:  WELL OPERATOR
 FLD .                CASTILLA:  FIELD
 LIC .                 UNKNOWN:  AUTHORIZATION NO
 LOC .                     LLA:  BASIN
 CTRY.                COLOMBIA:  COUNTRY
 STAT.                    META:  STATE
 CNTY.       CASTILLA_LA_NUEVA:  COUNTY
 PROV.                    META:  STATE
 SRVC.                 UNKNOWN:  COMPANY
 DATE.                 UNKNOWN:  LOG RUN DATE
 LONG.           -73.616480936:  LONGITUDE
 LATI.             3.893355943:  LATITUDE
 XCOORD.          1051204.2500:  X COORDINATE
 YCOORD.           922293.1875:  Y COORDINATE
 ELEV.FT             1376.0000:  ELEVATION
 TD  .FT             9235.0000:  TOTAL DEPTH
~Parameter Information Block
#MNEM.UNIT       Value        Description
#---------     -----------    ---------------------------
~Curve Information Block
#MNEM.UNIT                 API CODE     Curve Description
#---------               -----------    ---------------------------
 DEPTH.F                00 000 000 000:  Index Curve
 2019_pPerm_ANS.MD          00 000 000 000:  
 2019_pPhieE_D_ANS.V/V         00 000 000 000:  
~A DEPTH     2019_pPerm_ANS 2019_pPhieE_D_ANS
# ...
 8955.0000    59.0967     0.0919 
 8955.5000    90.8927     0.0936 
 8956.0000   297.3398     0.1323 
 8956.5000   909.6268     0.1631 
 8957.0000  1982.2573     0.1889 
 8957.5000  5566.2744     0.2205 
 8958.0000 11436.0596     0.2461 
 8958.5000 10743.4121     0.2447 
 8959.0000  8943.6602     0.2384 
 8959.5000  7960.1416     0.2368 
 8960.0000  6309.1377     0.2295 
 8960.5000  4895.8232     0.2225 
 8961.0000  3758.8914     0.2147 
 8961.5000  3413.2952     0.2145 
 8962.0000  3102.5386     0.2099 
 8962.5000  3112.7556     0.2096 
 8963.0000  3260.3586     0.2075 
 8963.5000  3924.5957     0.2119 
 8964.0000  5513.9868     0.2194 
 8964.5000  8822.3936     0.2346 
 8965.0000 12082.0107     0.2441 
 8965.5000 14364.0488     0.2496 
 8966.0000 16515.0449     0.2555 
 8966.5000 16648.4141     0.2572 
 8967.0000 12662.2432     0.2488 
 8967.5000  9444.2998     0.2393 
 8968.0000  9714.1045     0.2413 
 8968.5000 11446.8457     0.2538 
 8969.0000  7938.5039     0.2521 
 8969.5000  3665.4165     0.2319 
 8970.0000  2049.8843     0.2057 
 8970.5000  1459.8696     0.1907 
 8971.0000  1832.7994     0.1912 
 8971.5000  2128.3479     0.1928 
 8972.0000  2577.9170     0.1965 
 8972.5000  3677.2683     0.2085 
 8973.0000  6071.5391     0.2253 
 8973.5000  8945.4453     0.2378 
 8974.0000  9911.9248     0.2387 
 8974.5000 10262.8467     0.2408 
 8975.0000  9411.9160     0.2386 
 8975.5000  7590.3345     0.2334 
 8976.0000  5851.2021     0.2234 
 8976.5000  5057.2593     0.2186 
 8977.0000  5095.4434     0.2178 
 8977.5000  5941.8779     0.2229 
 8978.0000  7233.0879     0.2292 
 8978.5000  7719.8706     0.2341 
 8979.0000  6826.6558     0.2296 
 8979.5000  5168.5210     0.2207 
 8980.0000  4215.6719     0.2146 
 8980.5000  5650.2788     0.2224 
 8981.0000  8136.7441     0.2355 
 8981.5000  9202.5771     0.2417 
 8982.0000  8209.4043     0.2408 
 8982.5000  6460.1284     0.2332 
 8983.0000  5625.2568     0.2286 
 8983.5000  5302.3066     0.2243 
 8984.0000  4740.6748     0.2189 
 8984.5000  4504.8496     0.2153 
 8985.0000  4978.5967     0.2172 
 8985.5000  6638.5649     0.2260 
 8986.0000  9534.8828     0.2396 
 8986.5000 12167.4404     0.2476 
 8987.0000 13591.1875     0.2519 
 8987.5000 12480.0713     0.2478 
 8988.0000 10874.8955     0.2429 
 8988.5000  8515.1562     0.2348 
 8989.0000  6830.5649     0.2262 
 8989.5000  5781.2451     0.2231 
 8990.0000  6690.7915     0.2278 
 8990.5000  7677.1987     0.2332 
 8991.0000  7100.4014     0.2319 
 8991.5000  5753.0674     0.2272 
 8992.0000  5063.2656     0.2260 
 8992.5000  4557.6167     0.2239 
 8993.0000  5270.0020     0.2266 
 8993.5000  6699.6177     0.2318 
 8994.0000  8550.3193     0.2361 
 8994.5000 10148.9688     0.2405 
 8995.0000 11719.7627     0.2452 
 8995.5000 13156.8535     0.2496 
 8996.0000 13054.8193     0.2481 
 8996.5000 13504.5039     0.2480 
 8997.0000 14921.2656     0.2506 
 8997.5000 17434.4570     0.2576 
 8998.0000 17912.6484     0.2632 
 8998.5000 13054.5898     0.2598 
 8999.0000  7365.2998     0.2422 
 8999.5000  3728.6384     0.2147 
 9000.0000  1921.8850     0.1928 
 9000.5000  2171.2373     0.1936 
 9001.0000  3058.5566     0.2045 
 9001.5000  4696.3433     0.2202 
 9002.0000  5279.0356     0.2234 
 9002.5000  4421.3257     0.2178 
 9003.0000  4000.8406     0.2151 
 9003.5000  4669.0610     0.2192 
 9004.0000  5785.4375     0.2275 
 9004.5000  5644.7837     0.2250 
 9005.0000  5062.3174     0.2222 
 9005.5000  4781.8701     0.2215 
 9006.0000  4557.6860     0.2209 
 9006.5000  4186.6064     0.2159 
 9007.0000  3698.7654     0.2107 
 9007.5000  3683.7236     0.2109 
 9008.0000  3952.1172     0.2119 
 9008.5000  4884.6094     0.2188 
 9009.0000  6598.5454     0.2274 
 9009.5000  8203.2061     0.2350 
 9010.0000  6783.9302     0.2302 
 9010.5000  4394.0581     0.2166 
 9011.0000  3070.5308     0.2058 
 9011.5000  2243.6189     0.2055 
 9012.0000  2287.1724     0.2129 
 9012.5000  1384.8994     0.1959 
 9013.0000  1091.5671     0.1863 
 9013.5000  1170.2410     0.1902 
 9014.0000  2042.4672     0.2106 
 9014.5000  2600.5942     0.2165 
 9015.0000  1840.2428     0.2013 
 9015.5000  1067.3784     0.1812 
 9016.0000   687.3682     0.1650 
 9016.5000   698.6660     0.1631 
 9017.0000  1130.7765     0.1804 
 9017.5000  1617.7323     0.1933 
 9018.0000  1760.6705     0.1943 
 9018.5000  1489.2657     0.1878 
 9019.0000  1565.6567     0.1924 
 9019.5000  1865.9301     0.1984 
 9020.0000  2174.5315     0.2025 
 9020.5000  2239.2432     0.1996 
 9021.0000  2488.0022     0.2024 
 9021.5000  4096.6470     0.2150 
 9022.0000  6061.2290     0.2270 
 9022.5000  8329.5059     0.2377 
 9023.0000  9738.3418     0.2425 
 9023.5000 11608.7832     0.2486 
 9024.0000 13179.7969     0.2525 
 9024.5000 13149.5117     0.2512 
 9025.0000 12567.0098     0.2478 
 9025.5000 11983.9844     0.2459 
 9026.0000 11240.5996     0.2467 
 9026.5000  9260.8955     0.2430 
 9027.0000  6884.6650     0.2348 
 9027.5000  5635.2734     0.2275 
 9028.0000  6189.7217     0.2296 
 9028.5000  7956.2354     0.2369 
 9029.0000  8035.0269     0.2367 
 9029.5000  6930.9663     0.2307 
 9030.0000  6213.2393     0.2270 
 9030.5000  6161.9448     0.2261 
 9031.0000  5393.2476     0.2206 
 9031.5000  4419.9316     0.2136 
 9032.0000  5413.9443     0.2188 
 9032.5000  7184.7153     0.2293 
 9033.0000  9637.7930     0.2399 
 9033.5000 10764.4473     0.2432 
 9034.0000 12123.3652     0.2477 
 9034.5000 11348.2363     0.2437 
 9035.0000  9474.7764     0.2375 
 9035.5000  8311.4307     0.2324 
 9036.0000  8437.3984     0.2330 
 9036.5000  8649.3818     0.2335 
 9037.0000  8066.1143     0.2305 
 9037.5000  8156.7407     0.2316 
 9038.0000  9532.5293     0.2392 
 9038.5000 11115.1465     0.2484 
 9039.0000 10643.1650     0.2502 
 9039.5000  5979.3447     0.2339 
 9040.0000  2901.0432     0.2166 
 9040.5000  2032.9491     0.2006 
 9041.0000  2497.7058     0.2071 
 9041.5000  4855.2075     0.2210 
 9042.0000  8583.0742     0.2406 
 9042.5000 10060.4053     0.2506 
 9043.0000  9109.8486     0.2527 
 9043.5000  7451.0679     0.2470 
 9044.0000  7102.9253     0.2425 
 9044.5000  8515.4033     0.2430 
 9045.0000  9853.6787     0.2482 
 9045.5000  7384.3096     0.2419 
 9046.0000  3987.0229     0.2266 
 9046.5000  1631.2018     0.2010 
 9047.0000   705.8040     0.1847 
 9047.5000    91.9434     0.0685 
 9048.0000     5.2780     0.0288 
 9048.5000     1.8186     0.0071 
 9049.0000     1.7450     0.0070 
 9049.5000    24.8601     0.0184 
 9050.0000   290.3673     0.1613 
 9050.5000   489.8075     0.1661 
 9051.0000  1181.5886     0.1838 
 9051.5000  2504.0347     0.2055 
 9052.0000  5291.6494     0.2242 
 9052.5000  8444.7959     0.2362 
 9053.0000 11613.7314     0.2453 
 9053.5000 13643.5234     0.2510 
 9054.0000 12131.6035     0.2485 
 9054.5000  9052.2139     0.2377 
 9055.0000  7491.0947     0.2298 
 9055.5000  7245.0293     0.2293 
 9056.0000  7581.2134     0.2326 
 9056.5000  7301.9976     0.2313 
 9057.0000  7496.7427     0.2322 
 9057.5000  8224.2109     0.2337 
 9058.0000  9407.9414     0.2381 
 9058.5000  9700.4443     0.2408 
 9059.0000  8113.9756     0.2359 
 9059.5000  6154.0981     0.2263 
 9060.0000  5975.8018     0.2247 
 9060.5000  7788.6938     0.2317 
 9061.0000 10092.6670     0.2414 
 9061.5000  9276.6670     0.2412 
 9062.0000  7292.1948     0.2341 
 9062.5000  7355.9546     0.2302 
 9063.0000  9067.9736     0.2379 
 9063.5000 18844.1426     0.2607 
 9064.0000 20000.0000     0.2696 
 9064.5000 20000.0000     0.2655 
 9065.0000 18497.2598     0.2577 
 9065.5000 20000.0000     0.2616 
 9066.0000 20000.0000     0.2673 
 9066.5000 20000.0000     0.2661 
 9067.0000 20000.0000     0.2658 
 9067.5000 20000.0000     0.2715 
 9068.0000 20000.0000     0.2693 
 9068.5000  9359.4268     0.2420 
 9069.0000  3393.5366     0.2115 
 9069.5000  1729.7081     0.1960 
 9070.0000  2400.2305     0.2090 
 9070.5000  3922.4963     0.2241 
 9071.0000  5493.7012     0.2290 
 9071.5000  7890.4238     0.2344 
 9072.0000 14486.5049     0.2498 
 9072.5000 20000.0000     0.2680 
