~Version Information
 VERS.                  2.0:   CWLS log ASCII Standard -VERSION 2.0
 WRAP.                   NO:   One line per depth step
~Well Information Block
#MNEM.UNIT       Data Type    Information
#---------     -----------    ---------------------------
 STRT.F              7159.5000:
 STOP.F              8265.0000:
 STEP.F                 0.5000:
 NULL.               -999.2500:
 UWI .                CASN0033:  UWI
 API .                CASN0033:  UWI
 WELL.                 CASN-33:  COMMON WELL NAME
 COMP.               ECOPETROL:  WELL OPERATOR
 FLD .                CASTILLA:  FIELD
 LIC .                 UNKNOWN:  AUTHORIZATION NO
 LOC .                     LLA:  BASIN
 CTRY.                COLOMBIA:  COUNTRY
 STAT.                    META:  STATE
 CNTY.       CASTILLA_LA_NUEVA:  COUNTY
 PROV.                    META:  STATE
 SRVC.                 UNKNOWN:  COMPANY
 DATE.                 UNKNOWN:  LOG RUN DATE
 LONG.           -73.616507528:  LONGITUDE
 LATI.             3.893623539:  LATITUDE
 XCOORD.          1051201.2500:  X COORDINATE
 YCOORD.           922322.7500:  Y COORDINATE
 ELEV.FT             1376.0000:  ELEVATION
 TD  .FT             8280.0000:  TOTAL DEPTH
~Parameter Information Block
#MNEM.UNIT       Value        Description
#---------     -----------    ---------------------------
~Curve Information Block
#MNEM.UNIT                 API CODE     Curve Description
#---------               -----------    ---------------------------
 DEPTH.F                00 000 000 000:  Index Curve
 2019_pPerm_ANS.MD          00 000 000 000:  
 2019_pPhieE_D_ANS.V/V         00 000 000 000:  
~A DEPTH     2019_pPerm_ANS 2019_pPhieE_D_ANS
# ...
 8103.5000  2579.2019     0.1951 
 8104.0000  2187.0842     0.1890 
 8104.5000  1927.7209     0.1847 
 8105.0000  1691.1888     0.1804 
 8105.5000  1513.6740     0.1785 
 8106.0000  1354.4735     0.1766 
 8106.5000  1268.4186     0.1772 
 8107.0000  1208.0673     0.1778 
 8107.5000  1348.5886     0.1819 
 8108.0000  1540.7120     0.1861 
 8108.5000  1899.9302     0.1908 
 8109.0000  2349.6069     0.1955 
 8109.5000  2863.2231     0.1991 
 8110.0000  3346.2183     0.2028 
 8110.5000  3179.6040     0.2002 
 8111.0000  3035.6411     0.1977 
 8111.5000  3501.2336     0.2043 
 8112.0000  3985.4082     0.2109 
 8112.5000  3589.2512     0.2058 
 8113.0000  3014.1614     0.2007 
 8113.5000  2217.9839     0.1908 
 8114.0000  1689.3965     0.1808 
 8114.5000  1573.8639     0.1815 
 8115.0000  1606.5156     0.1822 
 8115.5000  1845.9655     0.1869 
 8116.0000  2281.9836     0.1915 
 8116.5000  3144.0630     0.2016 
 8117.0000  4317.3135     0.2117 
 8117.5000  4891.9873     0.2144 
 8118.0000  5286.6460     0.2171 
 8118.5000  5320.5527     0.2173 
 8119.0000  5262.6992     0.2176 
 8119.5000  5117.2666     0.2167 
 8120.0000  5055.7007     0.2157 
 8120.5000  5622.6147     0.2195 
 8121.0000  6153.5166     0.2233 
 8121.5000  5202.2104     0.2163 
 8122.0000  4223.3657     0.2093 
 8122.5000  3461.1199     0.2035 
 8123.0000  2860.5325     0.1978 
 8123.5000  3049.3589     0.2006 
 8124.0000  3286.6169     0.2033 
 8124.5000  3071.5442     0.2013 
 8125.0000  2852.9548     0.1994 
 8125.5000  2454.7114     0.1970 
 8126.0000  2107.5969     0.1947 
 8126.5000  2126.1033     0.1962 
 8127.0000  2183.2161     0.1977 
 8127.5000  2681.4878     0.2023 
 8128.0000  3282.1755     0.2068 
 8128.5000  3851.9900     0.2108 
 8129.0000  4558.5405     0.2147 
 8129.5000  5944.2827     0.2229 
 8130.0000  7602.2554     0.2312 
 8130.5000  8507.0312     0.2335 
 8131.0000  9181.5918     0.2358 
 8131.5000  8993.0371     0.2342 
 8132.0000  8772.3193     0.2327 
 8132.5000  9130.4736     0.2337 
 8133.0000  9318.0225     0.2347 
 8133.5000  8126.0967     0.2295 
 8134.0000  6507.2871     0.2242 
 8134.5000  3557.1348     0.2072 
 8135.0000  2132.2166     0.1902 
 8135.5000  2113.1907     0.2047 
 8136.0000  2509.3953     0.2192 
 8136.5000  3027.2061     0.2230 
 8137.0000  3638.8303     0.2267 
 8137.5000  4062.9580     0.2235 
 8138.0000  4262.8579     0.2203 
 8138.5000  3527.1812     0.2161 
 8139.0000  2841.6162     0.2120 
 8139.5000  2606.7415     0.2121 
 8140.0000  2297.1919     0.2121 
 8140.5000  1148.6038     0.1865 
 8141.0000   492.9926     0.1608 
 8141.5000   231.9730     0.1486 
 8142.0000    27.9713     0.0333 
 8142.5000    71.1754     0.0582 
 8143.0000   458.9459     0.1696 
 8143.5000  1557.1746     0.1943 
 8144.0000  3773.1138     0.2191 
 8144.5000  4067.2532     0.2155 
 8145.0000  4218.9019     0.2120 
 8145.5000  3754.9282     0.2118 
 8146.0000  3318.3921     0.2116 
 8146.5000  4447.8955     0.2210 
 8147.0000  5864.3477     0.2303 
 8147.5000  8645.8574     0.2439 
 8148.0000 11737.3438     0.2574 
 8148.5000  7588.2393     0.2400 
 8149.0000  4599.9629     0.2226 
 8149.5000  4781.3594     0.2220 
 8150.0000  5347.7178     0.2214 
 8150.5000  6424.1938     0.2264 
 8151.0000  7691.4077     0.2315 
 8151.5000  8728.9951     0.2345 
 8152.0000  9611.4102     0.2375 
 8152.5000  9422.6826     0.2359 
 8153.0000  9270.9756     0.2343 
 8153.5000 10227.3916     0.2372 
 8154.0000 10989.9238     0.2401 
 8154.5000  9347.6094     0.2338 
 8155.0000  7444.8516     0.2275 
 8155.5000  5185.9580     0.2164 
 8156.0000  3937.6543     0.2053 
 8156.5000  4323.7607     0.2111 
 8157.0000  5153.3154     0.2168 
 8157.5000  5502.5347     0.2182 
 8158.0000  5386.0459     0.2195 
 8158.5000  3791.1655     0.2061 
 8159.0000  2501.0259     0.1926 
 8159.5000  1546.1249     0.1777 
 8160.0000  1048.2689     0.1628 
 8160.5000  1134.1959     0.1708 
 8161.0000  1392.6082     0.1788 
 8161.5000  1869.2803     0.1868 
 8162.0000  2459.2988     0.1948 
 8162.5000  2731.8384     0.1967 
 8163.0000  2917.5889     0.1986 
 8163.5000  2691.4260     0.1957 
 8164.0000  2452.4319     0.1927 
 8164.5000  2431.5735     0.1920 
 8165.0000  2420.6414     0.1912 
 8165.5000  2249.7825     0.1891 
 8166.0000  2083.4192     0.1870 
 8166.5000  2106.7888     0.1880 
 8167.0000  2134.9932     0.1889 
 8167.5000  2239.7847     0.1907 
 8168.0000  2336.9939     0.1925 
 8168.5000  2158.6875     0.1892 
 8169.0000  1971.3203     0.1858 
 8169.5000  1683.6669     0.1800 
 8170.0000  1458.5822     0.1742 
 8170.5000  1602.7224     0.1777 
 8171.0000  1752.4553     0.1811 
 8171.5000  1551.2153     0.1771 
 8172.0000  1367.1584     0.1730 
 8172.5000  1429.1077     0.1748 
 8173.0000  1584.9114     0.1765 
 8173.5000  2000.5403     0.1857 
 8174.0000  2512.6377     0.1949 
 8174.5000  2761.4119     0.1978 
 8175.0000  2866.2432     0.2006 
 8175.5000  2553.0417     0.1950 
 8176.0000  2161.6646     0.1893 
 8176.5000  1633.1111     0.1801 
 8177.0000  1293.9749     0.1709 
 8177.5000  1298.6772     0.1740 
 8178.0000  1483.6932     0.1771 
 8178.5000  2060.0376     0.1892 
 8179.0000  2898.8496     0.2012 
 8179.5000  3266.4778     0.2029 
 8180.0000  3460.1506     0.2045 
 8180.5000  3290.6104     0.2017 
 8181.0000  3003.6445     0.1989 
 8181.5000  2465.2090     0.1932 
 8182.0000  2082.1965     0.1875 
 8182.5000  2385.4116     0.1934 
 8183.0000  2883.0649     0.1993 
 8183.5000  3530.9360     0.2055 
 8184.0000  4171.7578     0.2118 
 8184.5000  3704.9587     0.2063 
 8185.0000  3209.5488     0.2009 
 8185.5000  3208.1619     0.2018 
 8186.0000  3286.4031     0.2027 
 8186.5000  4225.4917     0.2108 
 8187.0000  5367.5107     0.2188 
 8187.5000  5339.9902     0.2191 
 8188.0000  5289.2158     0.2194 
 8188.5000  4998.2456     0.2172 
 8189.0000  4609.4985     0.2150 
 8189.5000  2288.7637     0.1898 
 8190.0000   972.7737     0.1646 
 8190.5000   903.1736     0.1664 
 8191.0000   928.9540     0.1683 
 8191.5000  1089.0638     0.1735 
 8192.0000  1294.8433     0.1787 
 8192.5000  1573.2100     0.1855 
 8193.0000  1836.3568     0.1922 
 8193.5000  1706.6240     0.1886 
 8194.0000  1577.3240     0.1850 
 8194.5000  1721.4476     0.1894 
 8195.0000  1910.3981     0.1938 
 8195.5000  1968.2517     0.1916 
 8196.0000  1817.1980     0.1895 
 8196.5000   912.6296     0.1635 
 8197.0000   447.5305     0.1375 
 8197.5000   227.9905     0.1214 
 8198.0000   144.9317     0.1052 
 8198.5000   121.8329     0.1031 
 8199.0000   121.4824     0.1010 
 8199.5000   153.9399     0.1101 
 8200.0000   195.8575     0.1193 
 8200.5000   191.7284     0.1163 
 8201.0000   183.3687     0.1134 
 8201.5000   201.7524     0.1187 
 8202.0000   212.8189     0.1240 
 8202.5000   147.1545     0.1101 
 8203.0000    94.7601     0.0962 
 8203.5000    72.7591     0.0951 
 8204.0000    64.0027     0.0940 
 8204.5000   104.5988     0.1115 
 8205.0000   164.9701     0.1291 
 8205.5000   150.6197     0.1218 
 8206.0000   132.0502     0.1145 
 8206.5000   143.9405     0.1158 
 8207.0000   159.9178     0.1170 
 8207.5000   198.0909     0.1233 
 8208.0000   243.3563     0.1296 
 8208.5000   302.9243     0.1406 
 8209.0000   374.1422     0.1517 
 8209.5000   558.4880     0.1645 
 8210.0000   809.6487     0.1773 
 8210.5000  1320.5693     0.1870 
 8211.0000  1971.5342     0.1966 
 8211.5000  1913.6007     0.1945 
 8212.0000  1772.7904     0.1923 
 8212.5000  1449.2230     0.1825 
 8213.0000  1193.5620     0.1726 
 8213.5000  1219.9583     0.1738 
 8214.0000  1317.9856     0.1749 
 8214.5000  1585.1306     0.1814 
 8215.0000  1943.6725     0.1880 
 8215.5000  2384.4407     0.1949 
 8216.0000  2773.5330     0.2019 
 8216.5000  2492.5640     0.1972 
 8217.0000  2145.8396     0.1926 
 8217.5000  1924.4552     0.1902 
 8218.0000  1691.4015     0.1879 
 8218.5000  1231.2267     0.1777 
 8219.0000   834.6412     0.1675 
 8219.5000   319.9367     0.1410 
 8220.0000   157.6591     0.1144 
 8220.5000   196.7349     0.1358 
 8221.0000   451.1652     0.1573 
