~Version Information
 VERS.                  2.0:   CWLS log ASCII Standard -VERSION 2.0
 WRAP.                   NO:   One line per depth step
~Well Information Block
#MNEM.UNIT       Data Type    Information
#---------     -----------    ---------------------------
 STRT.F              7180.5000:
 STOP.F              8032.0000:
 STEP.F                 0.5000:
 NULL.               -999.2500:
 UWI .                CASN0100:  UWI
 API .                CASN0100:  UWI
 WELL.                CASN-100:  COMMON WELL NAME
 COMP.               ECOPETROL:  WELL OPERATOR
 FLD .                CASTILLA:  FIELD
 LIC .                 UNKNOWN:  AUTHORIZATION NO
 LOC .                     LLA:  BASIN
 CTRY.                COLOMBIA:  COUNTRY
 STAT.                    META:  STATE
 CNTY.                 UNKNOWN:  COUNTY
 PROV.                    META:  STATE
 SRVC.                 UNKNOWN:  COMPANY
 DATE.                 UNKNOWN:  LOG RUN DATE
 LONG.           -73.635094741:  LONGITUDE
 LATI.             3.902985680:  LATITUDE
 XCOORD.          1049136.2500:  X COORDINATE
 YCOORD.           923356.9375:  Y COORDINATE
 ELEV.FT             1389.7300:  ELEVATION
 TD  .FT             8083.0000:  TOTAL DEPTH
~Parameter Information Block
#MNEM.UNIT       Value        Description
#---------     -----------    ---------------------------
~Curve Information Block
#MNEM.UNIT                 API CODE     Curve Description
#---------               -----------    ---------------------------
 DEPTH.F                00 000 000 000:  Index Curve
 2019_pPerm_ANS.MD          00 000 000 000:  
 2019_pPhieE_D_ANS.V/V         00 000 000 000:  
~A DEPTH     2019_pPerm_ANS 2019_pPhieE_D_ANS
# ...
 7416.5000     0.0000     0.0000 
 7417.0000     0.0000     0.0000 
 7417.5000     0.0000     0.0000 
 7418.0000     0.0000     0.0000 
 7418.5000     0.0000     0.0000 
 7419.0000     0.0000     0.0000 
 7419.5000     0.0000     0.0000 
 7420.0000     0.0000     0.0000 
 7420.5000     0.0000     0.0000 
 7421.0000     0.0000     0.0001 
 7421.5000     0.0001     0.0006 
 7422.0000     0.0001     0.0007 
 7422.5000     0.0000     0.0002 
 7423.0000     0.0000     0.0000 
 7423.5000     0.0000     0.0000 
 7424.0000     0.0000     0.0000 
 7424.5000     0.0000     0.0000 
 7425.0000     0.0000     0.0000 
 7425.5000     0.0000     0.0000 
 7426.0000     0.0000     0.0000 
 7426.5000     0.0000     0.0000 
 7427.0000     0.0000     0.0000 
 7427.5000     0.0000     0.0000 
 7428.0000     0.0000     0.0000 
 7428.5000     0.0000     0.0000 
 7429.0000     0.0000     0.0000 
 7429.5000     0.0000     0.0000 
 7430.0000     0.0000     0.0000 
 7430.5000     0.0000     0.0000 
 7431.0000     0.0000     0.0000 
 7431.5000     0.0000     0.0000 
 7432.0000     0.0000     0.0000 
 7432.5000     0.0000     0.0000 
 7433.0000     0.0000     0.0000 
 7433.5000     0.0000     0.0000 
 7434.0000     0.0000     0.0001 
 7434.5000     0.0000     0.0004 
 7435.0000     0.0001     0.0005 
 7435.5000     0.0001     0.0005 
 7436.0000     0.0008     0.0017 
 7436.5000     0.0151     0.0084 
 7437.0000     0.0882     0.0227 
 7437.5000     0.1992     0.0332 
 7438.0000     0.2672     0.0362 
 7438.5000     0.2118     0.0335 
 7439.0000     0.1289     0.0268 
 7439.5000     0.0564     0.0176 
 7440.0000     0.0314     0.0135 
 7440.5000     0.0477     0.0169 
 7441.0000     0.0758     0.0217 
 7441.5000     0.0748     0.0212 
 7442.0000     0.0620     0.0197 
 7442.5000     0.0332     0.0146 
 7443.0000     0.0091     0.0070 
 7443.5000     0.0013     0.0022 
 7444.0000     0.0001     0.0004 
 7444.5000     0.0000     0.0000 
 7445.0000     0.0000     0.0000 
 7445.5000     0.0000     0.0000 
 7446.0000     0.0000     0.0000 
 7446.5000     0.0000     0.0000 
 7447.0000     0.0000     0.0000 
 7447.5000     0.0000     0.0000 
 7448.0000     0.0000     0.0000 
 7448.5000     0.0000     0.0000 
 7449.0000     0.0000     0.0000 
 7449.5000     0.0000     0.0000 
 7450.0000     0.0000     0.0000 
 7450.5000     0.0000     0.0001 
 7451.0000     0.0000     0.0001 
 7451.5000     0.0000     0.0001 
 7452.0000     0.0000     0.0000 
 7452.5000     0.0000     0.0000 
 7453.0000     0.0000     0.0000 
 7453.5000     0.0000     0.0000 
 7454.0000     0.0000     0.0000 
 7454.5000     0.0000     0.0000 
 7455.0000     0.0000     0.0000 
 7455.5000     0.0000     0.0000 
 7456.0000     0.0000     0.0000 
 7456.5000     0.0000     0.0000 
 7457.0000     0.0000     0.0000 
 7457.5000     0.0000     0.0000 
 7458.0000     0.0000     0.0000 
 7458.5000     0.0000     0.0000 
 7459.0000     0.0000     0.0000 
 7459.5000     0.0000     0.0000 
 7460.0000     0.0000     0.0000 
 7460.5000     0.0000     0.0000 
 7461.0000     0.0000     0.0000 
 7461.5000     0.0000     0.0000 
 7462.0000     0.0000     0.0000 
 7462.5000     0.0000     0.0000 
 7463.0000     0.0000     0.0000 
 7463.5000     0.0000     0.0001 
 7464.0000     0.0001     0.0004 
 7464.5000     0.0002     0.0009 
 7465.0000     0.0002     0.0009 
 7465.5000     0.0001     0.0005 
 7466.0000     0.0001     0.0005 
 7466.5000     0.0002     0.0009 
 7467.0000     0.0002     0.0010 
 7467.5000     0.0002     0.0009 
 7468.0000     0.0002     0.0008 
 7468.5000     0.0002     0.0008 
 7469.0000     0.0001     0.0006 
 7469.5000     0.0001     0.0006 
 7470.0000     0.0002     0.0007 
 7470.5000     0.0002     0.0010 
 7471.0000     0.0004     0.0015 
 7471.5000     0.0004     0.0012 
 7472.0000     0.0001     0.0005 
 7472.5000     0.0000     0.0002 
 7473.0000     0.0000     0.0003 
 7473.5000     0.0001     0.0006 
 7474.0000     0.0001     0.0007 
 7474.5000     0.0001     0.0004 
 7475.0000     0.0000     0.0004 
 7475.5000     0.0009     0.0013 
 7476.0000     0.0131     0.0084 
 7476.5000     0.0531     0.0211 
 7477.0000     0.0319     0.0141 
 7477.5000     0.0068     0.0053 
 7478.0000     0.0027     0.0037 
 7478.5000     0.0111     0.0066 
 7479.0000     0.0652     0.0197 
 7479.5000     0.3289     0.0425 
 7480.0000     0.4079     0.0428 
 7480.5000     0.1127     0.0234 
 7481.0000     0.0252     0.0121 
 7481.5000     0.0150     0.0094 
 7482.0000     0.0120     0.0085 
 7482.5000     0.0164     0.0092 
 7483.0000     0.0485     0.0159 
 7483.5000     0.2028     0.0326 
 7484.0000     0.3921     0.0441 
 7484.5000     0.2396     0.0351 
 7485.0000     0.0718     0.0195 
 7485.5000     0.0224     0.0110 
 7486.0000     0.0192     0.0101 
 7486.5000     0.0381     0.0150 
 7487.0000     0.1104     0.0238 
 7487.5000     0.3345     0.0387 
 7488.0000     0.9469     0.0588 
 7488.5000     1.3635     0.0646 
 7489.0000     0.6995     0.0512 
 7489.5000     0.2597     0.0357 
 7490.0000     0.0935     0.0227 
 7490.5000     0.0211     0.0113 
 7491.0000     0.0044     0.0044 
 7491.5000     0.0006     0.0015 
 7492.0000     0.0001     0.0004 
 7492.5000     0.0000     0.0002 
 7493.0000     0.0003     0.0006 
 7493.5000     0.0083     0.0059 
 7494.0000     0.0529     0.0207 
 7494.5000     0.0360     0.0155 
 7495.0000     0.0057     0.0049 
 7495.5000     0.0010     0.0018 
 7496.0000     0.0007     0.0016 
 7496.5000     0.0014     0.0026 
 7497.0000     0.0027     0.0039 
 7497.5000     0.0042     0.0046 
 7498.0000     0.0087     0.0071 
 7498.5000     0.0246     0.0126 
 7499.0000     0.0442     0.0167 
 7499.5000     0.0310     0.0141 
 7500.0000     0.0171     0.0103 
 7500.5000     0.0154     0.0097 
 7501.0000     0.0144     0.0095 
 7501.5000     0.0071     0.0064 
 7502.0000     0.0029     0.0039 
 7502.5000     0.0025     0.0034 
 7503.0000     0.0036     0.0043 
 7503.5000     0.0119     0.0071 
 7504.0000     0.1107     0.0200 
 7504.5000     1.0140     0.0622 
 7505.0000     1.5644     0.0659 
 7505.5000     1.5672     0.0654 
 7506.0000     1.1334     0.0585 
 7506.5000     0.7734     0.0514 
 7507.0000     0.7370     0.0501 
 7507.5000     1.1752     0.0576 
 7508.0000     3.3315     0.0728 
 7508.5000    13.5151     0.0962 
 7509.0000    63.3828     0.1244 
 7509.5000   175.8889     0.1482 
 7510.0000   273.1982     0.1600 
 7510.5000   249.6457     0.1577 
 7511.0000   102.8594     0.1405 
 7511.5000    15.0611     0.1065 
 7512.0000     0.0263     0.0022 
 7512.5000     0.0000     0.0001 
 7513.0000     0.0000     0.0000 
 7513.5000     0.0000     0.0000 
 7514.0000     0.0000     0.0000 
 7514.5000     0.0000     0.0000 
 7515.0000     0.0000     0.0000 
 7515.5000     0.0000     0.0000 
 7516.0000     0.0000     0.0000 
 7516.5000     0.0000     0.0000 
 7517.0000     0.0000     0.0000 
 7517.5000     0.0000     0.0000 
 7518.0000     0.0000     0.0000 
 7518.5000     0.0000     0.0000 
 7519.0000     0.0000     0.0000 
 7519.5000     0.0000     0.0000 
 7520.0000     0.0000     0.0000 
 7520.5000     0.0001     0.0001 
 7521.0000     0.0199     0.0073 
 7521.5000     4.4102     0.0844 
 7522.0000     9.7905     0.0944 
 7522.5000     5.2234     0.0825 
 7523.0000     1.0430     0.0534 
 7523.5000     0.2183     0.0084 
 7524.0000     0.0001     0.0001 
 7524.5000     0.0000     0.0000 
 7525.0000     0.0000     0.0001 
 7525.5000     0.0000     0.0002 
 7526.0000     0.0000     0.0003 
 7526.5000     0.0000     0.0001 
 7527.0000     0.0000     0.0000 
 7527.5000     0.0000     0.0000 
 7528.0000     0.0000     0.0000 
 7528.5000     0.0000     0.0000 
 7529.0000     0.0000     0.0000 
 7529.5000     0.0000     0.0000 
 7530.0000     0.0000     0.0000 
 7530.5000     0.0000     0.0000 
 7531.0000     0.0000     0.0000 
 7531.5000     0.0000     0.0000 
 7532.0000     0.0000     0.0000 
 7532.5000     0.0000     0.0002 
 7533.0000     0.0008     0.0019 
 7533.5000     0.0037     0.0049 
 7534.0000     0.0062     0.0060 
