~Version Information
 VERS.                  2.0:   CWLS log ASCII Standard -VERSION 2.0
 WRAP.                   NO:   One line per depth step
~Well Information Block
#MNEM.UNIT       Data Type    Information
#---------     -----------    ---------------------------
 STRT.F              7375.0000:
 STOP.F              8337.5000:
 STEP.F                 0.5000:
 NULL.               -999.2500:
 UWI .                CASN0038:  UWI
 API .                CASN0038:  UWI
 WELL.                 CASN-38:  COMMON WELL NAME
 COMP.               ECOPETROL:  WELL OPERATOR
 FLD .                CASTILLA:  FIELD
 LIC .                 UNKNOWN:  AUTHORIZATION NO
 LOC .                     LLA:  BASIN
 CTRY.                COLOMBIA:  COUNTRY
 STAT.                    META:  STATE
 CNTY.       CASTILLA_LA_NUEVA:  COUNTY
 PROV.                    META:  STATE
 SRVC.                 UNKNOWN:  COMPANY
 DATE.                 UNKNOWN:  LOG RUN DATE
 LONG.           -73.615687866:  LONGITUDE
 LATI.             3.887258472:  LATITUDE
 XCOORD.          1051292.6250:  X COORDINATE
 YCOORD.           921618.9375:  Y COORDINATE
 ELEV.FT             1369.0000:  ELEVATION
 TD  .FT             8358.0000:  TOTAL DEPTH
~Parameter Information Block
#MNEM.UNIT       Value        Description
#---------     -----------    ---------------------------
~Curve Information Block
#MNEM.UNIT                 API CODE     Curve Description
#---------               -----------    ---------------------------
 DEPTH.F                00 000 000 000:  Index Curve
 2019_pPerm_ANS.MD          00 000 000 000:  
 2019_pPhieE_D_ANS.V/V         00 000 000 000:  
~A DEPTH     2019_pPerm_ANS 2019_pPhieE_D_ANS
# ...
 8201.0000 20000.0000     0.2737 
 8201.5000 20000.0000     0.2681 
 8202.0000 10687.7842     0.2404 
 8202.5000  9679.2959     0.2360 
 8203.0000 15732.1768     0.2542 
 8203.5000 19040.0137     0.2580 
 8204.0000 17134.2793     0.2494 
 8204.5000 20000.0000     0.2633 
 8205.0000 20000.0000     0.2663 
 8205.5000 20000.0000     0.2609 
 8206.0000 20000.0000     0.2612 
 8206.5000 13687.5332     0.2530 
 8207.0000  8975.3809     0.2450 
 8207.5000  7972.2583     0.2349 
 8208.0000  9480.3623     0.2379 
 8208.5000 13581.8242     0.2511 
 8209.0000 11772.4619     0.2446 
 8209.5000 12108.8184     0.2449 
 8210.0000 13539.7471     0.2478 
 8210.5000 11311.8623     0.2413 
 8211.0000  8648.7803     0.2353 
 8211.5000  9372.2627     0.2366 
 8212.0000  8691.6533     0.2334 
 8212.5000  9312.7881     0.2314 
 8213.0000 13171.3779     0.2457 
 8213.5000 17589.6895     0.2548 
 8214.0000 16161.0342     0.2598 
 8214.5000  8944.2617     0.2363 
 8215.0000  6354.6494     0.2301 
 8215.5000  3128.6648     0.2078 
 8216.0000   845.5623     0.1783 
 8216.5000    39.5043     0.0415 
 8217.0000     1.1009     0.0000 
 8217.5000     0.3713     0.0000 
 8218.0000     0.7892     0.0003 
 8218.5000     2.0016     0.0193 
 8219.0000     1.1051     0.0039 
 8219.5000     0.8391     0.0021 
 8220.0000     2.4811     0.0102 
 8220.5000    94.0129     0.0586 
 8221.0000  1749.1354     0.2084 
 8221.5000  3672.8281     0.2151 
 8222.0000  6542.7144     0.2336 
 8222.5000  7814.1899     0.2340 
 8223.0000  9634.2100     0.2321 
 8223.5000 17558.7500     0.2557 
 8224.0000 19160.1562     0.2609 
 8224.5000 15419.5957     0.2535 
 8225.0000 11331.8096     0.2439 
 8225.5000 13041.2607     0.2505 
 8226.0000 12687.9199     0.2453 
 8226.5000  8857.5479     0.2288 
 8227.0000  8300.6240     0.2358 
 8227.5000  7494.2817     0.2254 
 8228.0000 11471.1875     0.2459 
 8228.5000 12755.7061     0.2521 
 8229.0000 20000.0000     0.2643 
 8229.5000 20000.0000     0.2638 
 8230.0000 12751.3945     0.2508 
 8230.5000 10459.6621     0.2467 
 8231.0000  8977.2734     0.2444 
 8231.5000 11300.2549     0.2578 
 8232.0000 11971.7773     0.2507 
 8232.5000 13346.5908     0.2534 
 8233.0000 13816.8594     0.2544 
 8233.5000 10658.6416     0.2472 
 8234.0000  9208.9111     0.2438 
 8234.5000  9623.0938     0.2427 
 8235.0000 10091.2188     0.2403 
 8235.5000  9001.5039     0.2326 
 8236.0000  9902.5645     0.2383 
 8236.5000  8953.0488     0.2326 
 8237.0000  9610.8828     0.2355 
 8237.5000 12497.9619     0.2421 
 8238.0000 11941.5361     0.2413 
 8238.5000 10903.1172     0.2377 
 8239.0000 10639.9170     0.2385 
 8239.5000  8966.3369     0.2324 
 8240.0000  8653.4736     0.2285 
 8240.5000  8549.1309     0.2313 
 8241.0000  5727.1562     0.2176 
 8241.5000  4996.5610     0.2202 
 8242.0000  4799.2183     0.2172 
 8242.5000  6398.4419     0.2252 
 8243.0000  6685.7637     0.2282 
 8243.5000  6463.4844     0.2242 
 8244.0000  5741.4004     0.2222 
 8244.5000  5219.1274     0.2217 
 8245.0000  5800.4688     0.2211 
 8245.5000  4803.9761     0.2156 
 8246.0000  4177.8857     0.2076 
 8246.5000  5770.2354     0.2258 
 8247.0000  4489.0317     0.2176 
 8247.5000  4068.6692     0.2264 
 8248.0000  3503.8379     0.2203 
 8248.5000  2509.1392     0.2088 
 8249.0000  2190.2642     0.2028 
 8249.5000  2942.8237     0.2168 
 8250.0000  3173.8689     0.2172 
 8250.5000  2832.9973     0.2110 
 8251.0000  2989.6533     0.2143 
 8251.5000  3576.1250     0.2106 
 8252.0000  5381.9102     0.2216 
 8252.5000  6634.5039     0.2296 
 8253.0000  5895.0708     0.2219 
 8253.5000  7090.2944     0.2312 
 8254.0000  7287.3755     0.2290 
 8254.5000  5289.4487     0.2243 
 8255.0000  3670.4170     0.2139 
 8255.5000  3140.6016     0.2108 
 8256.0000  3036.1196     0.2105 
 8256.5000  2981.8767     0.2134 
 8257.0000  3759.1562     0.2178 
 8257.5000  4506.5312     0.2239 
 8258.0000  3957.2996     0.2206 
 8258.5000  4038.3103     0.2226 
 8259.0000  3162.0874     0.2205 
 8259.5000  2869.4302     0.2167 
 8260.0000  2519.9583     0.2124 
 8260.5000  3144.5303     0.2169 
 8261.0000  3387.3137     0.2166 
 8261.5000  3493.2642     0.2154 
 8262.0000  2806.4338     0.2192 
 8262.5000  2356.1396     0.2159 
 8263.0000  3104.7661     0.2144 
 8263.5000  3438.6814     0.2193 
 8264.0000  2680.8254     0.2065 
 8264.5000  2818.0063     0.2039 
 8265.0000  3716.2864     0.2130 
 8265.5000  3684.5073     0.2108 
 8266.0000  3851.7173     0.2119 
 8266.5000  3528.4966     0.2079 
 8267.0000  2895.3271     0.1982 
 8267.5000  3321.1243     0.2071 
 8268.0000  3492.0474     0.2083 
 8268.5000  3958.5723     0.2123 
 8269.0000  3469.1216     0.2076 
 8269.5000  2633.4490     0.1962 
 8270.0000  1615.6506     0.1846 
 8270.5000   944.5327     0.1598 
 8271.0000  1157.2703     0.1755 
 8271.5000  1222.3851     0.1807 
 8272.0000   711.8849     0.1604 
 8272.5000   403.0654     0.1384 
 8273.0000   275.0042     0.1315 
 8273.5000   417.6080     0.1488 
 8274.0000   346.9617     0.1355 
 8274.5000   291.8847     0.1414 
 8275.0000   288.8743     0.1373 
 8275.5000   328.6502     0.1467 
 8276.0000   264.2025     0.1425 
 8276.5000   304.2832     0.1501 
 8277.0000   443.9351     0.1615 
 8277.5000   695.7042     0.1758 
 8278.0000   857.6296     0.1862 
 8278.5000  1042.6104     0.1909 
 8279.0000  1653.0520     0.2040 
 8279.5000  2388.3628     0.2130 
 8280.0000  4421.0303     0.2279 
 8280.5000  4307.1777     0.2163 
 8281.0000  3719.2451     0.2049 
 8281.5000  4804.6724     0.2177 
 8282.0000  5397.0205     0.2223 
 8282.5000  5325.8994     0.2196 
 8283.0000  4676.7920     0.2161 
 8283.5000  3141.3147     0.1994 
 8284.0000  3138.8171     0.1989 
 8284.5000  3768.3445     0.2096 
 8285.0000  5049.2983     0.2222 
 8285.5000  4928.6118     0.2199 
 8286.0000  4597.4590     0.2189 
 8286.5000  3651.3857     0.2102 
 8287.0000  3881.5029     0.2121 
 8287.5000  4676.7524     0.2155 
 8288.0000  5173.4609     0.2195 
 8288.5000  6045.2021     0.2253 
 8289.0000  5092.1982     0.2205 
 8289.5000  4521.5220     0.2189 
 8290.0000  4304.2729     0.2139 
 8290.5000  3221.1497     0.2105 
 8291.0000  3234.4402     0.2122 
 8291.5000  4766.8936     0.2245 
 8292.0000  6666.8687     0.2313 
 8292.5000  6769.7217     0.2293 
 8293.0000  4381.5015     0.2148 
 8293.5000  2996.0640     0.1936 
 8294.0000  4368.0825     0.2188 
 8294.5000  1548.7531     0.1696 
 8295.0000   578.4944     0.1516 
 8295.5000   329.9458     0.1361 
 8296.0000   300.5318     0.1327 
 8296.5000   405.7063     0.1431 
 8297.0000   484.2177     0.1506 
 8297.5000   612.8834     0.1627 
 8298.0000   582.6082     0.1558 
 8298.5000   626.2508     0.1599 
 8299.0000   387.6366     0.1409 
 8299.5000   237.8094     0.1347 
 8300.0000   110.3201     0.1097 
 8300.5000    54.8791     0.1047 
 8301.0000     9.6215     0.0012 
 8301.5000     0.4377     0.0000 
 8302.0000     0.4179     0.0000 
 8302.5000     0.5400     0.0001 
 8303.0000     0.5841     0.0002 
 8303.5000     0.7237     0.0012 
 8304.0000     0.5957     0.0001 
 8304.5000     0.7964     0.0017 
 8305.0000     1.6259     0.0075 
 8305.5000   107.6774     0.0400 
 8306.0000  1099.8453     0.2008 
 8306.5000  1700.2750     0.2023 
 8307.0000   670.4171     0.1548 
 8307.5000   559.1962     0.1733 
 8308.0000   478.3362     0.1786 
 8308.5000   556.9225     0.1836 
 8309.0000   808.6161     0.1789 
 8309.5000   911.5485     0.1785 
 8310.0000  1601.4305     0.2054 
 8310.5000  1520.2750     0.1917 
 8311.0000  1697.7566     0.1885 
 8311.5000  1846.6744     0.1907 
 8312.0000  1682.1858     0.1868 
 8312.5000  1785.1660     0.1879 
 8313.0000  1978.1987     0.1889 
 8313.5000  2028.1229     0.1890 
 8314.0000  1971.3680     0.1884 
 8314.5000  1253.6251     0.1756 
 8315.0000  1026.3506     0.1718 
 8315.5000   928.4955     0.1664 
 8316.0000   958.8978     0.1696 
 8316.5000   626.4722     0.1633 
 8317.0000   403.1891     0.1349 
 8317.5000   298.9018     0.1259 
 8318.0000   599.6849     0.1412 
 8318.5000  2079.9507     0.1839 
