~Version Information
 VERS.                  2.0:   CWLS log ASCII Standard -VERSION 2.0
 WRAP.                   NO:   One line per depth step
~Well Information Block
#MNEM.UNIT       Data Type    Information
#---------     -----------    ---------------------------
 STRT.F              7958.5000:
 STOP.F              9186.0000:
 STEP.F                 0.5000:
 NULL.               -999.2500:
 UWI .                CASN0032:  UWI
 API .                CASN0032:  UWI
 WELL.                 CASN-32:  COMMON WELL NAME
 COMP.               ECOPETROL:  WELL OPERATOR
 FLD .                CASTILLA:  FIELD
 LIC .                 UNKNOWN:  AUTHORIZATION NO
 LOC .                     LLA:  BASIN
 CTRY.                COLOMBIA:  COUNTRY
 STAT.                    META:  STATE
 CNTY.       CASTILLA_LA_NUEVA:  COUNTY
 PROV.                    META:  STATE
 SRVC.                 UNKNOWN:  COMPANY
 DATE.                 UNKNOWN:  LOG RUN DATE
 LONG.           -73.616332248:  LONGITUDE
 LATI.             3.893579824:  LATITUDE
 XCOORD.          1051220.7500:  X COORDINATE
 YCOORD.           922317.9375:  Y COORDINATE
 ELEV.FT             1376.0000:  ELEVATION
 TD  .FT             9217.0000:  TOTAL DEPTH
~Parameter Information Block
#MNEM.UNIT       Value        Description
#---------     -----------    ---------------------------
~Curve Information Block
#MNEM.UNIT                 API CODE     Curve Description
#---------               -----------    ---------------------------
 DEPTH.F                00 000 000 000:  Index Curve
 2019_pPerm_ANS.MD          00 000 000 000:  
 2019_pPhieE_D_ANS.V/V         00 000 000 000:  
~A DEPTH     2019_pPerm_ANS 2019_pPhieE_D_ANS
# ...
 8902.5000 20000.0000     0.2603 
 8903.0000 13992.3945     0.2354 
 8903.5000  5046.0449     0.2037 
 8904.0000   931.7607     0.1107 
 8904.5000    63.3015     0.0611 
 8905.0000    30.3805     0.0383 
 8905.5000    21.6945     0.0314 
 8906.0000    23.1445     0.0362 
 8906.5000    17.2698     0.0243 
 8907.0000    17.8587     0.0279 
 8907.5000    12.8840     0.0147 
 8908.0000    12.7299     0.0095 
 8908.5000    20.4711     0.0305 
 8909.0000    33.1960     0.0350 
 8909.5000    82.2499     0.0760 
 8910.0000   280.3471     0.0786 
 8910.5000  1441.6282     0.1646 
 8911.0000  3072.0149     0.1898 
 8911.5000  4454.1641     0.2027 
 8912.0000  4729.1685     0.2034 
 8912.5000  4640.6152     0.2034 
 8913.0000  4380.9868     0.1980 
 8913.5000  7598.4082     0.2169 
 8914.0000 13241.0342     0.2354 
 8914.5000 20000.0000     0.2538 
 8915.0000 20000.0000     0.2661 
 8915.5000 20000.0000     0.2605 
 8916.0000 19541.9824     0.2483 
 8916.5000 19958.9980     0.2481 
 8917.0000 20000.0000     0.2544 
 8917.5000 20000.0000     0.2602 
 8918.0000 20000.0000     0.2483 
 8918.5000 20000.0000     0.2605 
 8919.0000 20000.0000     0.2602 
 8919.5000 20000.0000     0.2664 
 8920.0000 20000.0000     0.2661 
 8920.5000 20000.0000     0.2726 
 8921.0000 20000.0000     0.2663 
 8921.5000 20000.0000     0.2602 
 8922.0000 20000.0000     0.2601 
 8922.5000 20000.0000     0.2602 
 8923.0000 20000.0000     0.2601 
 8923.5000 20000.0000     0.2662 
 8924.0000 20000.0000     0.2662 
 8924.5000 20000.0000     0.2665 
 8925.0000 20000.0000     0.2724 
 8925.5000 20000.0000     0.2722 
 8926.0000 20000.0000     0.2719 
 8926.5000 20000.0000     0.2649 
 8927.0000 20000.0000     0.2564 
 8927.5000   406.2836     0.0751 
 8928.0000   641.7688     0.1456 
 8928.5000   677.0082     0.1405 
 8929.0000  1280.6459     0.1537 
 8929.5000  3230.6394     0.1902 
 8930.0000  6782.3594     0.2150 
 8930.5000 10118.3594     0.2280 
 8931.0000 11895.7051     0.2334 
 8931.5000 12238.6572     0.2337 
 8932.0000 12177.8467     0.2335 
 8932.5000 12168.6582     0.2335 
 8933.0000 11726.6816     0.2335 
 8933.5000  9287.7969     0.2210 
 8934.0000 11219.9912     0.2328 
 8934.5000  8264.2559     0.2204 
 8935.0000  5521.9331     0.2082 
 8935.5000  3385.6038     0.1897 
 8936.0000  2612.3103     0.1838 
 8936.5000  3353.2334     0.1908 
 8937.0000  4831.0610     0.2039 
 8937.5000  8146.1489     0.2165 
 8938.0000 15551.9062     0.2413 
 8938.5000 20000.0000     0.2538 
 8939.0000 20000.0000     0.2538 
 8939.5000 18727.5605     0.2478 
 8940.0000 13622.5635     0.2356 
 8940.5000 15261.8418     0.2415 
 8941.0000 15605.1660     0.2414 
 8941.5000 15625.2471     0.2414 
 8942.0000 16064.1123     0.2415 
 8942.5000 18328.7676     0.2480 
 8943.0000 16159.6885     0.2416 
 8943.5000 15453.9082     0.2417 
 8944.0000 13444.0068     0.2358 
 8944.5000 13005.3896     0.2356 
 8945.0000 13459.6182     0.2357 
 8945.5000 15611.0186     0.2418 
 8946.0000 16932.5820     0.2418 
 8946.5000 20000.0000     0.2537 
 8947.0000 19713.5645     0.2478 
 8947.5000 19046.0938     0.2477 
 8948.0000 20000.0000     0.2538 
 8948.5000 20000.0000     0.2534 
 8949.0000 18442.0527     0.2472 
 8949.5000 13091.7666     0.2354 
 8950.0000  9924.9561     0.2295 
 8950.5000  3706.7551     0.1930 
 8951.0000   520.9659     0.0001 
 8951.5000  1038.5859     0.0358 
 8952.0000 10616.3086     0.2301 
 8952.5000 17179.6543     0.2485 
 8953.0000  8097.2632     0.2180 
 8953.5000  1278.3730     0.1211 
 8954.0000   868.9372     0.1210 
 8954.5000  7020.3853     0.2057 
 8955.0000 20000.0000     0.2543 
 8955.5000 16956.6816     0.2418 
 8956.0000 15627.6104     0.2418 
 8956.5000 12846.7480     0.2358 
 8957.0000  9002.8809     0.2235 
 8957.5000  7125.7095     0.2176 
 8958.0000  4232.3970     0.1995 
 8958.5000  4521.1392     0.1995 
 8959.0000  6343.5508     0.2118 
 8959.5000 16412.0957     0.2422 
 8960.0000 20000.0000     0.2603 
 8960.5000 20000.0000     0.2667 
 8961.0000 20000.0000     0.2666 
 8961.5000 20000.0000     0.2602 
 8962.0000 20000.0000     0.2543 
 8962.5000 19768.3867     0.2480 
 8963.0000 18900.0215     0.2482 
 8963.5000 14769.1719     0.2421 
 8964.0000  5369.2578     0.1874 
 8964.5000  9037.9219     0.2237 
 8965.0000 14853.1543     0.2419 
 8965.5000 16017.1104     0.2416 
 8966.0000 18068.2773     0.2478 
 8966.5000 16001.9023     0.2418 
 8967.0000 14997.8389     0.2418 
 8967.5000 10551.6572     0.2294 
 8968.0000  2940.2244     0.1692 
 8968.5000   634.6871     0.1391 
 8969.0000   268.6536     0.1088 
 8969.5000    14.5999     0.0056 
 8970.0000     8.2978     0.0001 
 8970.5000     8.2242     0.0001 
 8971.0000   804.9994     0.0116 
 8971.5000  5511.5996     0.2056 
 8972.0000 14295.1191     0.2420 
 8972.5000 15800.7686     0.2418 
 8973.0000 15804.8184     0.2418 
 8973.5000 15083.3242     0.2420 
 8974.0000  9595.4893     0.2236 
 8974.5000  7818.1943     0.2176 
 8975.0000  9049.5801     0.2239 
 8975.5000 10923.4541     0.2298 
 8976.0000 13004.7979     0.2361 
 8976.5000 13695.2676     0.2362 
 8977.0000 15935.0371     0.2424 
 8977.5000 15988.7070     0.2422 
 8978.0000 15783.2178     0.2419 
 8978.5000 13611.4854     0.2360 
 8979.0000 13165.3164     0.2360 
 8979.5000 13098.7559     0.2358 
 8980.0000 13052.1631     0.2356 
 8980.5000 14465.7041     0.2408 
 8981.0000 12564.9795     0.2341 
 8981.5000 12173.7354     0.2334 
 8982.0000 12296.2686     0.2332 
 8982.5000 14399.5361     0.2396 
 8983.0000 15328.2246     0.2401 
 8983.5000 18081.1484     0.2469 
 8984.0000 18716.1016     0.2472 
 8984.5000 18429.1133     0.2474 
 8985.0000 15648.9443     0.2414 
 8985.5000 13020.8584     0.2349 
 8986.0000 12019.8936     0.2345 
 8986.5000  8656.7812     0.2222 
 8987.0000  5904.0327     0.2096 
 8987.5000  4071.4431     0.1977 
 8988.0000  4348.4912     0.1984 
 8988.5000  5966.4819     0.2109 
 8989.0000  6569.0000     0.2164 
 8989.5000  4841.0630     0.2041 
 8990.0000  5072.7305     0.2046 
 8990.5000  5960.9155     0.2107 
 8991.0000  7046.2861     0.2169 
 8991.5000  7658.5215     0.2174 
 8992.0000 11802.7568     0.2356 
 8992.5000 10846.2910     0.2297 
 8993.0000  8974.6807     0.2236 
 8993.5000  7655.0908     0.2174 
 8994.0000  8269.3975     0.2233 
 8994.5000  6392.2559     0.2113 
 8995.0000  6056.1289     0.2112 
 8995.5000  5926.2036     0.2112 
 8996.0000  5162.3916     0.2055 
 8996.5000  5197.7715     0.2054 
 8997.0000  5799.0542     0.2115 
 8997.5000  4064.6843     0.1929 
 8998.0000  4925.7598     0.2048 
 8998.5000  6039.9907     0.2110 
 8999.0000  7195.5542     0.2169 
 8999.5000  7044.9766     0.2169 
 9000.0000  6065.6743     0.2113 
 9000.5000  8721.5332     0.2233 
 9001.0000 10792.7734     0.2298 
 9001.5000 10551.4912     0.2298 
 9002.0000  9062.7295     0.2237 
 9002.5000  8433.1133     0.2233 
 9003.0000  6225.1245     0.2114 
 9003.5000  5172.2793     0.2052 
 9004.0000  5113.6353     0.2051 
 9004.5000  5937.9419     0.2114 
 9005.0000  5936.7329     0.2112 
 9005.5000  5126.3657     0.2051 
 9006.0000  4866.2876     0.2050 
 9006.5000  4144.5479     0.1990 
 9007.0000  3652.9158     0.1933 
 9007.5000  4048.6184     0.1992 
 9008.0000  3817.6897     0.1934 
 9008.5000  5026.9448     0.2055 
 9009.0000  6683.4790     0.2114 
 9009.5000 10611.4941     0.2297 
 9010.0000  9549.3730     0.2236 
 9010.5000 10789.0254     0.2296 
 9011.0000 11618.0957     0.2297 
 9011.5000 15521.2852     0.2418 
 9012.0000 13416.8447     0.2355 
 9012.5000 12678.5576     0.2354 
 9013.0000  8767.4785     0.2234 
 9013.5000  4572.4141     0.1994 
 9014.0000  4490.0835     0.1997 
 9014.5000  6242.2856     0.2117 
 9015.0000  8929.5059     0.2241 
 9015.5000 11009.1973     0.2302 
 9016.0000 12866.6084     0.2359 
 9016.5000 12687.5947     0.2356 
 9017.0000 10664.7432     0.2291 
 9017.5000  8617.8740     0.2230 
 9018.0000  6181.1675     0.2108 
 9018.5000  5955.8037     0.2107 
 9019.0000  5935.1865     0.2106 
 9019.5000  6107.9453     0.2104 
 9020.0000  7132.3823     0.2166 
