~Version Information
 VERS.                  2.0:   CWLS log ASCII Standard -VERSION 2.0
 WRAP.                   NO:   One line per depth step
~Well Information Block
#MNEM.UNIT       Data Type    Information
#---------     -----------    ---------------------------
 STRT.F              7353.0000:
 STOP.F              8528.5000:
 STEP.F                 0.5000:
 NULL.               -999.2500:
 UWI .                CASN0108:  UWI
 API .                CASN0108:  UWI
 WELL.                CASN-108:  COMMON WELL NAME
 COMP.               ECOPETROL:  WELL OPERATOR
 FLD .                CASTILLA:  FIELD
 LIC .                 UNKNOWN:  AUTHORIZATION NO
 LOC .                     LLA:  BASIN
 CTRY.                COLOMBIA:  COUNTRY
 STAT.                    META:  STATE
 CNTY.                 UNKNOWN:  COUNTY
 PROV.                    META:  STATE
 SRVC.                 UNKNOWN:  COMPANY
 DATE.                 UNKNOWN:  LOG RUN DATE
 LONG.           -73.606511044:  LONGITUDE
 LATI.             3.902261590:  LATITUDE
 XCOORD.          1052311.0000:  X COORDINATE
 YCOORD.           923278.6250:  Y COORDINATE
 ELEV.FT             1333.7070:  ELEVATION
 TD  .FT             8565.0000:  TOTAL DEPTH
~Parameter Information Block
#MNEM.UNIT       Value        Description
#---------     -----------    ---------------------------
~Curve Information Block
#MNEM.UNIT                 API CODE     Curve Description
#---------               -----------    ---------------------------
 DEPTH.F                00 000 000 000:  Index Curve
 2019_pPerm_ANS.MD          00 000 000 000:  
 2019_pPhieE_D_ANS.V/V         00 000 000 000:  
~A DEPTH     2019_pPerm_ANS 2019_pPhieE_D_ANS
# ...
 7943.0000  2914.7961     0.2564 
 7943.5000  2783.4058     0.2542 
 7944.0000  2787.4558     0.2543 
 7944.5000  2864.3628     0.2557 
 7945.0000  2913.3108     0.2570 
 7945.5000  2803.8997     0.2550 
 7946.0000  2489.3530     0.2493 
 7946.5000  2218.1177     0.2443 
 7947.0000  2281.8770     0.2449 
 7947.5000  2543.6277     0.2505 
 7948.0000  2632.2439     0.2526 
 7948.5000  2565.5022     0.2509 
 7949.0000  2342.0574     0.2466 
 7949.5000  2197.3069     0.2440 
 7950.0000  2230.8679     0.2446 
 7950.5000  2325.5623     0.2464 
 7951.0000  2518.6411     0.2501 
 7951.5000  2709.9971     0.2532 
 7952.0000  2916.0420     0.2565 
 7952.5000  3109.3521     0.2598 
 7953.0000  3133.3652     0.2599 
 7953.5000  3091.1050     0.2588 
 7954.0000  3180.8574     0.2602 
 7954.5000  3413.4675     0.2639 
 7955.0000  3507.5217     0.2661 
 7955.5000  2724.4707     0.2535 
 7956.0000  1781.4531     0.2121 
 7956.5000   382.8680     0.1498 
 7957.0000    11.5958     0.0926 
 7957.5000     1.9134     0.0643 
 7958.0000     0.0851     0.0237 
 7958.5000     0.0195     0.0088 
 7959.0000     0.0050     0.0062 
 7959.5000     0.0138     0.0088 
 7960.0000     0.0437     0.0181 
 7960.5000     0.1024     0.0298 
 7961.0000     0.0506     0.0194 
 7961.5000     0.0098     0.0054 
 7962.0000     0.0009     0.0019 
 7962.5000     0.0091     0.0032 
 7963.0000    88.8912     0.0212 
 7963.5000   844.4370     0.2048 
 7964.0000  2167.0881     0.2572 
 7964.5000  3889.9658     0.2722 
 7965.0000  4134.2725     0.2732 
 7965.5000  3771.9873     0.2704 
 7966.0000  1923.0911     0.2346 
 7966.5000   724.2244     0.1895 
 7967.0000   185.7568     0.1456 
 7967.5000    33.1991     0.1213 
 7968.0000    24.1900     0.1161 
 7968.5000    24.4177     0.1183 
 7969.0000    32.4761     0.1248 
 7969.5000    40.8337     0.1302 
 7970.0000    25.0919     0.1195 
 7970.5000     6.2745     0.0893 
 7971.0000     1.5010     0.0553 
 7971.5000     0.4515     0.0481 
 7972.0000     0.0735     0.0081 
 7972.5000     0.0015     0.0021 
 7973.0000     0.0019     0.0028 
 7973.5000     0.0108     0.0076 
 7974.0000     0.0526     0.0188 
 7974.5000     0.1392     0.0313 
 7975.0000     0.1907     0.0351 
 7975.5000     0.1896     0.0363 
 7976.0000     0.0804     0.0236 
 7976.5000     0.0192     0.0092 
 7977.0000     0.0063     0.0059 
 7977.5000     0.1376     0.0155 
 7978.0000     0.6787     0.0563 
 7978.5000     0.1344     0.0001 
 7979.0000     0.0949     0.0234 
 7979.5000     0.4530     0.0541 
 7980.0000     0.0325     0.0120 
 7980.5000     0.0034     0.0023 
 7981.0000     0.0002     0.0011 
 7981.5000     0.0006     0.0020 
 7982.0000     0.0007     0.0023 
 7982.5000     0.0002     0.0008 
 7983.0000     0.0000     0.0002 
 7983.5000     0.0000     0.0000 
 7984.0000     0.0000     0.0000 
 7984.5000     0.0001     0.0001 
 7985.0000     0.0336     0.0019 
 7985.5000    10.8905     0.0387 
 7986.0000    95.2412     0.1519 
 7986.5000   136.3467     0.1561 
 7987.0000    54.0679     0.1273 
 7987.5000     4.0936     0.0636 
 7988.0000     0.2670     0.0054 
 7988.5000     0.0047     0.0001 
 7989.0000     0.0896     0.0301 
 7989.5000     0.0047     0.0059 
 7990.0000     0.0018     0.0028 
 7990.5000     0.0032     0.0043 
 7991.0000     0.2083     0.0149 
 7991.5000     5.6885     0.0656 
 7992.0000    81.2817     0.1461 
 7992.5000   142.8970     0.1545 
 7993.0000   184.9283     0.1575 
 7993.5000   244.1602     0.1634 
 7994.0000   301.1318     0.1689 
 7994.5000   293.0852     0.1704 
 7995.0000   174.2483     0.1592 
 7995.5000    68.8456     0.1376 
 7996.0000    25.3760     0.1183 
 7996.5000    18.8426     0.1124 
 7997.0000    26.0172     0.1185 
 7997.5000    45.0610     0.1283 
 7998.0000    65.9073     0.1354 
 7998.5000    73.6857     0.1374 
 7999.0000    74.6201     0.1379 
 7999.5000    59.8688     0.1346 
 8000.0000    35.3097     0.1248 
 8000.5000    14.4840     0.1083 
 8001.0000     0.5175     0.0301 
 8001.5000     0.0248     0.0063 
 8002.0000     0.0018     0.0034 
 8002.5000     0.0036     0.0042 
 8003.0000     0.0197     0.0098 
 8003.5000     0.2270     0.0291 
 8004.0000     5.5257     0.0614 
 8004.5000    45.2175     0.1356 
 8005.0000    80.0007     0.1454 
 8005.5000    97.5037     0.1500 
 8006.0000    60.3927     0.1408 
 8006.5000     6.5218     0.0349 
 8007.0000     0.0300     0.0039 
 8007.5000     0.0046     0.0033 
 8008.0000     0.2545     0.0178 
 8008.5000     4.5975     0.0699 
 8009.0000    54.0833     0.1405 
 8009.5000    83.1992     0.1465 
 8010.0000   111.1231     0.1508 
 8010.5000   137.4884     0.1528 
 8011.0000   136.2406     0.1515 
 8011.5000   120.7405     0.1474 
 8012.0000   118.2808     0.1467 
 8012.5000   124.9676     0.1490 
 8013.0000   124.4782     0.1496 
 8013.5000   104.4814     0.1453 
 8014.0000    70.5779     0.1371 
 8014.5000    41.7341     0.1268 
 8015.0000    27.3427     0.1200 
 8015.5000    22.4580     0.1182 
 8016.0000    19.8937     0.1207 
 8016.5000     4.1871     0.0659 
 8017.0000     8.8124     0.0770 
 8017.5000    63.6847     0.1457 
 8018.0000    89.3540     0.1497 
 8018.5000   106.4532     0.1520 
 8019.0000   123.4946     0.1527 
 8019.5000   138.1258     0.1536 
 8020.0000   115.9601     0.1482 
 8020.5000    52.7392     0.1318 
 8021.0000    12.8072     0.1091 
 8021.5000     2.2238     0.0365 
 8022.0000     0.0858     0.0248 
 8022.5000     0.0331     0.0149 
 8023.0000     0.0087     0.0080 
 8023.5000     0.0037     0.0050 
 8024.0000     0.0019     0.0036 
 8024.5000     0.0019     0.0036 
 8025.0000     0.0020     0.0040 
 8025.5000     0.0015     0.0035 
 8026.0000     0.0005     0.0015 
 8026.5000     0.0000     0.0003 
 8027.0000     0.0000     0.0000 
 8027.5000     0.0000     0.0000 
 8028.0000     0.0000     0.0000 
 8028.5000     0.0002     0.0002 
 8029.0000     0.0666     0.0039 
 8029.5000     0.5537     0.0466 
 8030.0000     3.1469     0.0836 
 8030.5000     4.4475     0.0865 
 8031.0000     7.4587     0.0960 
 8031.5000    10.9798     0.1043 
 8032.0000    15.2416     0.1098 
 8032.5000    22.1144     0.1169 
 8033.0000    31.9805     0.1244 
 8033.5000    37.1586     0.1275 
 8034.0000    30.8368     0.1242 
 8034.5000    21.6769     0.1173 
 8035.0000    13.4606     0.1068 
 8035.5000     9.9633     0.1014 
 8036.0000    10.6277     0.1017 
 8036.5000    14.4775     0.1064 
 8037.0000    20.3575     0.1135 
 8037.5000    19.5841     0.1129 
 8038.0000    11.7997     0.1018 
 8038.5000     6.4936     0.0910 
 8039.0000     4.4559     0.0862 
 8039.5000     5.7468     0.0966 
 8040.0000     3.5177     0.0816 
 8040.5000    11.4167     0.1104 
 8041.0000    10.5271     0.1037 
 8041.5000     7.5370     0.0944 
 8042.0000     6.9463     0.0935 
 8042.5000    17.3412     0.1064 
 8043.0000    46.5477     0.1285 
 8043.5000   231.6882     0.1595 
 8044.0000   645.7750     0.1866 
 8044.5000  1204.7153     0.2009 
 8045.0000  1491.6647     0.2033 
 8045.5000  1567.8870     0.2018 
 8046.0000  2041.5397     0.2085 
 8046.5000  2891.4949     0.2225 
 8047.0000  1996.2826     0.2358 
 8047.5000  2147.7678     0.2383 
 8048.0000  3600.9097     0.2281 
 8048.5000  2857.7100     0.2172 
 8049.0000  2669.1362     0.2147 
 8049.5000  3152.3555     0.2226 
 8050.0000  1924.4146     0.2317 
 8050.5000  1790.8129     0.2359 
 8051.0000  1706.7998     0.2337 
 8051.5000  1627.3309     0.2310 
 8052.0000  2542.1543     0.2282 
 8052.5000  2145.7725     0.2223 
 8053.0000  1766.3040     0.2152 
 8053.5000  1599.0809     0.2099 
 8054.0000  1865.4890     0.2106 
 8054.5000  2360.5444     0.2159 
 8055.0000  2935.5818     0.2215 
 8055.5000  3300.7397     0.2246 
 8056.0000  3377.7427     0.2240 
 8056.5000  3553.3594     0.2278 
 8057.0000  2160.4514     0.2374 
 8057.5000  2110.8884     0.2438 
 8058.0000  2107.8201     0.2392 
 8058.5000  2817.6946     0.2262 
 8059.0000  2252.1602     0.2159 
 8059.5000  2286.4668     0.2161 
 8060.0000  2542.3879     0.2188 
 8060.5000  2335.8604     0.2154 
