~Version Information
 VERS.                  2.0:   CWLS log ASCII Standard -VERSION 2.0
 WRAP.                   NO:   One line per depth step
~Well Information Block
#MNEM.UNIT       Data Type    Information
#---------     -----------    ---------------------------
 STRT.F              7060.0000:
 STOP.F              8042.5000:
 STEP.F                 0.5000:
 NULL.               -999.2500:
 UWI .                CASN0046:  UWI
 API .                CASN0046:  UWI
 WELL.                 CASN-46:  COMMON WELL NAME
 COMP.               ECOPETROL:  WELL OPERATOR
 FLD .                CASTILLA:  FIELD
 LIC .                 UNKNOWN:  AUTHORIZATION NO
 LOC .                     LLA:  BASIN
 CTRY.                COLOMBIA:  COUNTRY
 STAT.                    META:  STATE
 CNTY.       CASTILLA_LA_NUEVA:  COUNTY
 PROV.                    META:  STATE
 SRVC.                 UNKNOWN:  COMPANY
 DATE.                 UNKNOWN:  LOG RUN DATE
 LONG.           -73.632420309:  LONGITUDE
 LATI.             3.896773166:  LATITUDE
 XCOORD.          1049433.6250:  X COORDINATE
 YCOORD.           922670.1250:  Y COORDINATE
 ELEV.FT             1389.3000:  ELEVATION
 TD  .FT             8065.0000:  TOTAL DEPTH
~Parameter Information Block
#MNEM.UNIT       Value        Description
#---------     -----------    ---------------------------
~Curve Information Block
#MNEM.UNIT                 API CODE     Curve Description
#---------               -----------    ---------------------------
 DEPTH.F                00 000 000 000:  Index Curve
 2019_pPerm_ANS.MD          00 000 000 000:  
 2019_pPhieE_D_ANS.V/V         00 000 000 000:  
~A DEPTH     2019_pPerm_ANS 2019_pPhieE_D_ANS
# ...
 7650.0000  2490.9185     0.2030 
 7650.5000  2916.8962     0.2073 
 7651.0000  3301.8560     0.2079 
 7651.5000  3685.0654     0.2086 
 7652.0000  3846.6274     0.2075 
 7652.5000  4506.4619     0.2118 
 7653.0000  4996.8140     0.2143 
 7653.5000  5077.4165     0.2132 
 7654.0000  5253.2422     0.2138 
 7654.5000  5552.8096     0.2156 
 7655.0000  6277.2881     0.2195 
 7655.5000  6924.2661     0.2228 
 7656.0000  7090.9390     0.2237 
 7656.5000  7167.2554     0.2236 
 7657.0000  6893.9927     0.2220 
 7657.5000  6802.9834     0.2225 
 7658.0000  5800.3345     0.2179 
 7658.5000  4376.2031     0.2091 
 7659.0000  3231.3865     0.2001 
 7659.5000  2511.1321     0.1937 
 7660.0000  2373.0259     0.1932 
 7660.5000  2301.2341     0.1904 
 7661.0000  2498.3486     0.1926 
 7661.5000  2508.5139     0.1923 
 7662.0000  2628.8384     0.1951 
 7662.5000  2898.6541     0.2002 
 7663.0000  3350.1223     0.2068 
 7663.5000  3952.7937     0.2130 
 7664.0000  3858.2810     0.2111 
 7664.5000  2925.0164     0.1995 
 7665.0000  2093.8481     0.1886 
 7665.5000  2076.1953     0.1887 
 7666.0000  2454.7690     0.1968 
 7666.5000  2839.2759     0.2027 
 7667.0000  2544.7227     0.1976 
 7667.5000  2302.2136     0.1959 
 7668.0000  2058.5242     0.1943 
 7668.5000  1773.1473     0.1898 
 7669.0000  1222.8507     0.1763 
 7669.5000   787.4705     0.1624 
 7670.0000   691.7903     0.1609 
 7670.5000   934.9389     0.1694 
 7671.0000  1333.0043     0.1793 
 7671.5000  1511.8414     0.1804 
 7672.0000  1675.6509     0.1818 
 7672.5000  1937.0332     0.1856 
 7673.0000  2620.2517     0.1967 
 7673.5000  3603.8115     0.2076 
 7674.0000  4846.5254     0.2168 
 7674.5000  5924.4092     0.2210 
 7675.0000  6212.3125     0.2208 
 7675.5000  6404.4312     0.2209 
 7676.0000  5859.7681     0.2190 
 7676.5000  4945.2896     0.2142 
 7677.0000  4203.9282     0.2082 
 7677.5000  3846.0249     0.2058 
 7678.0000  4800.1699     0.2135 
 7678.5000  5568.1064     0.2189 
 7679.0000  5716.3184     0.2216 
 7679.5000  4967.0850     0.2172 
 7680.0000  2851.0349     0.2009 
 7680.5000  1118.1198     0.1754 
 7681.0000   555.3322     0.1560 
 7681.5000   617.5103     0.1624 
 7682.0000  1248.7802     0.1832 
 7682.5000  1912.8088     0.1977 
 7683.0000  1824.4438     0.1960 
 7683.5000  1196.1918     0.1824 
 7684.0000   848.0449     0.1702 
 7684.5000   970.2817     0.1703 
 7685.0000  1593.6539     0.1847 
 7685.5000  2369.4490     0.1967 
 7686.0000  2569.5632     0.1956 
 7686.5000  1959.9653     0.1867 
 7687.0000  1327.3934     0.1732 
 7687.5000  1233.2230     0.1691 
 7688.0000  1479.0928     0.1757 
 7688.5000  2475.9475     0.1924 
 7689.0000  3426.8953     0.2023 
 7689.5000  3504.8291     0.2040 
 7690.0000  2829.6233     0.1962 
 7690.5000  2319.0273     0.1917 
 7691.0000  2073.9734     0.1906 
 7691.5000  2197.5930     0.1927 
 7692.0000  2326.1123     0.1930 
 7692.5000  2287.0500     0.1899 
 7693.0000  2437.3699     0.1926 
 7693.5000  2595.4075     0.1956 
 7694.0000  2668.7930     0.1980 
 7694.5000  2301.3220     0.1949 
 7695.0000  1715.4187     0.1874 
 7695.5000  1121.2400     0.1768 
 7696.0000   871.5621     0.1704 
 7696.5000   812.5573     0.1705 
 7697.0000  1044.3994     0.1779 
 7697.5000  1461.9122     0.1897 
 7698.0000  1854.5671     0.1971 
 7698.5000  2065.7583     0.2006 
 7699.0000  1677.2778     0.1933 
 7699.5000  1555.6836     0.1923 
 7700.0000  2159.2527     0.1988 
 7700.5000  3377.0110     0.2122 
 7701.0000  4014.9563     0.2198 
 7701.5000  2702.2053     0.2054 
 7702.0000  1139.7291     0.1751 
 7702.5000   336.0043     0.1349 
 7703.0000   103.6077     0.1038 
 7703.5000    39.0607     0.0838 
 7704.0000    27.4757     0.0798 
 7704.5000    30.7817     0.0848 
 7705.0000    39.1375     0.0922 
 7705.5000    38.2111     0.0944 
 7706.0000    26.6899     0.0884 
 7706.5000     5.9954     0.0166 
 7707.0000     1.7240     0.0114 
 7707.5000    86.1117     0.0341 
 7708.0000   507.0031     0.1746 
 7708.5000   823.7857     0.1794 
 7709.0000  1336.8783     0.1880 
 7709.5000  2281.6853     0.1976 
 7710.0000  2913.8860     0.2026 
 7710.5000  2602.2383     0.1968 
 7711.0000  2053.5037     0.1893 
 7711.5000  1562.2214     0.1816 
 7712.0000  1342.5397     0.1792 
 7712.5000  1355.8140     0.1812 
 7713.0000  1205.4972     0.1804 
 7713.5000  1076.9526     0.1777 
 7714.0000  1303.4691     0.1825 
 7714.5000  2294.9961     0.1962 
 7715.0000  3848.2661     0.2107 
 7715.5000  5066.0010     0.2166 
 7716.0000  5476.8350     0.2173 
 7716.5000  6170.9033     0.2202 
 7717.0000  6120.6675     0.2213 
 7717.5000  4613.8564     0.2108 
 7718.0000  3090.0146     0.1981 
 7718.5000  2077.6348     0.1879 
 7719.0000  2210.0090     0.1898 
 7719.5000  2512.3350     0.1944 
 7720.0000  3642.6931     0.2050 
 7720.5000  5106.8423     0.2161 
 7721.0000  5759.3091     0.2196 
 7721.5000  5262.0557     0.2169 
 7722.0000  3450.8987     0.2047 
 7722.5000  1926.8641     0.1899 
 7723.0000  1136.4391     0.1756 
 7723.5000   923.2441     0.1728 
 7724.0000  1129.7191     0.1818 
 7724.5000  1447.6929     0.1901 
 7725.0000  1775.4181     0.1967 
 7725.5000  2149.5957     0.2005 
 7726.0000  2848.2483     0.2081 
 7726.5000  3473.1343     0.2106 
 7727.0000  4429.2866     0.2194 
 7727.5000  5547.7329     0.2292 
 7728.0000  6962.9756     0.2372 
 7728.5000  7156.1743     0.2349 
 7729.0000  7330.9565     0.2304 
 7729.5000  8020.6782     0.2323 
 7730.0000  7695.3379     0.2305 
 7730.5000  5545.5708     0.2225 
 7731.0000  4162.2627     0.2167 
 7731.5000  4460.0381     0.2186 
 7732.0000  5537.2769     0.2239 
 7732.5000  6159.8555     0.2254 
 7733.0000  6139.9863     0.2255 
 7733.5000  6007.0640     0.2260 
 7734.0000  5795.2441     0.2236 
 7734.5000  7611.6538     0.2301 
 7735.0000 12830.7969     0.2482 
 7735.5000 18527.2500     0.2674 
 7736.0000 15900.1611     0.2690 
 7736.5000  8168.5508     0.2469 
 7737.0000  5306.1675     0.2295 
 7737.5000  5100.0371     0.2260 
 7738.0000  6277.1128     0.2330 
 7738.5000  6802.6196     0.2328 
 7739.0000  5451.0210     0.2225 
 7739.5000  4744.6890     0.2155 
 7740.0000  4747.2324     0.2135 
 7740.5000  4895.4609     0.2137 
 7741.0000  5190.5332     0.2159 
 7741.5000  4975.8452     0.2171 
 7742.0000  4432.4102     0.2196 
 7742.5000  3331.4773     0.2133 
 7743.0000  2803.9302     0.2069 
 7743.5000  2865.8613     0.2059 
 7744.0000  3733.4119     0.2128 
 7744.5000  5013.6577     0.2227 
 7745.0000  5430.5146     0.2220 
 7745.5000  5246.5859     0.2183 
 7746.0000  4629.4102     0.2113 
 7746.5000  4387.0220     0.2094 
 7747.0000  4176.8457     0.2077 
 7747.5000  4694.4116     0.2100 
 7748.0000  6357.7554     0.2238 
 7748.5000  7395.2627     0.2331 
 7749.0000  7690.3311     0.2379 
 7749.5000  6148.7905     0.2289 
 7750.0000  5757.2290     0.2268 
 7750.5000  4304.1377     0.2208 
 7751.0000  2710.3467     0.2085 
 7751.5000  1961.7351     0.1964 
 7752.0000  1851.4111     0.1914 
 7752.5000  2294.6755     0.1938 
 7753.0000  2840.0964     0.1993 
 7753.5000  3137.7080     0.2007 
 7754.0000  3368.0173     0.2036 
 7754.5000  3145.5090     0.2008 
 7755.0000  2847.6172     0.1976 
 7755.5000  2866.5286     0.1996 
 7756.0000  2983.7908     0.2031 
 7756.5000  3233.7493     0.2090 
 7757.0000  3340.3723     0.2108 
 7757.5000  3046.0605     0.2057 
 7758.0000  2767.0098     0.1995 
 7758.5000  2604.8567     0.1951 
 7759.0000  3252.2725     0.2020 
 7759.5000  3856.4832     0.2067 
 7760.0000  3652.2886     0.2047 
 7760.5000  3260.7632     0.2004 
 7761.0000  3266.8157     0.1995 
 7761.5000  3547.6021     0.2031 
 7762.0000  3767.1509     0.2045 
 7762.5000  3850.9990     0.2045 
 7763.0000  3736.1987     0.2032 
 7763.5000  3629.9514     0.2021 
 7764.0000  3857.7422     0.2051 
 7764.5000  4243.9380     0.2093 
 7765.0000  4233.1411     0.2100 
 7765.5000  3570.6653     0.2044 
 7766.0000  2960.6565     0.1998 
 7766.5000  2699.5254     0.1993 
 7767.0000  2559.7529     0.1995 
 7767.5000  2353.7085     0.1972 
