~Version Information
 VERS.                  2.0:   CWLS log ASCII Standard -VERSION 2.0
 WRAP.                   NO:   One line per depth step
~Well Information Block
#MNEM.UNIT       Data Type    Information
#---------     -----------    ---------------------------
 STRT.F              7267.0000:
 STOP.F              8234.0000:
 STEP.F                 0.5000:
 NULL.               -999.2500:
 UWI .                CASN0087:  UWI
 API .                CASN0087:  UWI
 WELL.                 CASN-87:  COMMON WELL NAME
 COMP.               ECOPETROL:  WELL OPERATOR
 FLD .                CASTILLA:  FIELD
 LIC .                 UNKNOWN:  AUTHORIZATION NO
 LOC .                     LLA:  BASIN
 CTRY.                COLOMBIA:  COUNTRY
 STAT.                    META:  STATE
 CNTY.                 UNKNOWN:  COUNTY
 PROV.                    META:  STATE
 SRVC.                 UNKNOWN:  COMPANY
 DATE.                 UNKNOWN:  LOG RUN DATE
 LONG.           -73.612780838:  LONGITUDE
 LATI.             3.904697520:  LATITUDE
 XCOORD.          1051614.5000:  X COORDINATE
 YCOORD.           923547.6250:  Y COORDINATE
 ELEV.FT             1354.7550:  ELEVATION
 TD  .FT             8220.0000:  TOTAL DEPTH
~Parameter Information Block
#MNEM.UNIT       Value        Description
#---------     -----------    ---------------------------
~Curve Information Block
#MNEM.UNIT                 API CODE     Curve Description
#---------               -----------    ---------------------------
 DEPTH.F                00 000 000 000:  Index Curve
 2019_pPerm_ANS.MD          00 000 000 000:  
 2019_pPhieE_D_ANS.V/V         00 000 000 000:  
~A DEPTH     2019_pPerm_ANS 2019_pPhieE_D_ANS
 7267.0000     1.4246     0.0494 
 7267.5000     1.8199     0.0529 
 7268.0000     1.1470     0.0417 
 7268.5000     0.1280     0.0143 
 7269.0000     0.0022     0.0001 
 7269.5000     0.0000     0.0001 
 7270.0000     0.0000     0.0001 
 7270.5000     0.0000     0.0001 
 7271.0000     0.0000     0.0001 
 7271.5000     0.0000     0.0001 
 7272.0000     0.0000     0.0001 
 7272.5000     0.0000     0.0001 
 7273.0000     0.0000     0.0001 
 7273.5000     0.0000     0.0001 
 7274.0000     0.0000     0.0001 
 7274.5000     0.0000     0.0001 
 7275.0000     0.0000     0.0001 
 7275.5000     0.0000     0.0001 
 7276.0000     0.0000     0.0001 
 7276.5000     0.0000     0.0001 
 7277.0000     0.0000     0.0001 
 7277.5000     0.0000     0.0001 
 7278.0000     0.0000     0.0001 
 7278.5000     0.0000     0.0001 
 7279.0000     0.0000     0.0001 
 7279.5000     0.0000     0.0001 
 7280.0000     0.0000     0.0001 
 7280.5000     0.0000     0.0001 
 7281.0000     0.0000     0.0001 
 7281.5000     0.0000     0.0001 
 7282.0000     0.0000     0.0001 
 7282.5000     0.0000     0.0001 
 7283.0000     0.0000     0.0001 
 7283.5000     0.0000     0.0001 
 7284.0000     0.0000     0.0001 
 7284.5000     0.0000     0.0001 
 7285.0000     0.0000     0.0001 
 7285.5000     0.0000     0.0001 
 7286.0000     0.0000     0.0001 
 7286.5000     0.0000     0.0001 
 7287.0000     0.0000     0.0001 
 7287.5000     0.0000     0.0001 
 7288.0000     0.0000     0.0001 
 7288.5000     0.0000     0.0001 
 7289.0000     0.0000     0.0001 
 7289.5000     0.0000     0.0001 
 7290.0000     0.0000     0.0001 
 7290.5000     0.0000     0.0001 
 7291.0000     0.0000     0.0001 
 7291.5000     0.0000     0.0001 
 7292.0000     0.0000     0.0001 
 7292.5000     0.0000     0.0001 
 7293.0000     0.0000     0.0001 
 7293.5000     0.0000     0.0001 
 7294.0000     0.0000     0.0001 
 7294.5000     0.0000     0.0001 
 7295.0000     0.0000     0.0001 
 7295.5000     0.0000     0.0001 
 7296.0000     0.0000     0.0001 
 7296.5000     0.0000     0.0001 
 7297.0000     0.0000     0.0001 
 7297.5000     0.0000     0.0001 
 7298.0000     0.0000     0.0001 
 7298.5000     0.0000     0.0001 
 7299.0000     0.0000     0.0001 
 7299.5000     0.0000     0.0001 
 7300.0000     0.0000     0.0001 
 7300.5000     0.0000     0.0001 
 7301.0000     0.0000     0.0001 
 7301.5000     0.0000     0.0001 
 7302.0000     0.0000     0.0001 
 7302.5000     0.0000     0.0001 
 7303.0000     0.0000     0.0001 
 7303.5000     0.0000     0.0001 
 7304.0000     0.0000     0.0001 
 7304.5000     0.0564     0.0105 
 7305.0000     0.2280     0.0263 
 7305.5000     0.2032     0.0238 
 7306.0000     0.0513     0.0152 
 7306.5000     0.3937     0.0200 
 7307.0000    36.9899     0.0721 
 7307.5000  3228.1011     0.1679 
 7308.0000 10514.4346     0.2271 
 7308.5000 14954.3311     0.2375 
 7309.0000  9034.6670     0.2189 
 7309.5000  1569.5778     0.1647 
 7310.0000    90.6231     0.0967 
 7310.5000     1.8969     0.0437 
 7311.0000     0.1130     0.0170 
 7311.5000     0.0126     0.0074 
 7312.0000     0.0978     0.0151 
 7312.5000     0.4648     0.0332 
 7313.0000     0.4276     0.0308 
 7313.5000     0.0582     0.0143 
 7314.0000     0.0025     0.0049 
 7314.5000     0.0000     0.0011 
 7315.0000     0.0000     0.0001 
 7315.5000     0.0000     0.0000 
 7316.0000     0.0000     0.0000 
 7316.5000     0.0000     0.0000 
 7317.0000     0.0000     0.0000 
 7317.5000     0.0000     0.0000 
 7318.0000     0.0000     0.0000 
 7318.5000     0.0000     0.0000 
 7319.0000     0.0000     0.0000 
 7319.5000     0.0000     0.0006 
 7320.0000     2.9216     0.0362 
 7320.5000   129.1662     0.1076 
 7321.0000   280.7245     0.1466 
 7321.5000   336.1593     0.1507 
 7322.0000   330.7115     0.1504 
 7322.5000   230.3544     0.1417 
 7323.0000   117.5795     0.1272 
 7323.5000    63.3897     0.1154 
 7324.0000    53.0552     0.1123 
 7324.5000    67.7804     0.1169 
 7325.0000   101.4314     0.1249 
 7325.5000   146.6008     0.1328 
 7326.0000   183.0230     0.1377 
 7326.5000   203.6737     0.1400 
 7327.0000   203.2633     0.1400 
 7327.5000   173.2584     0.1364 
 7328.0000   140.6353     0.1321 
 7328.5000   142.0860     0.1323 
 7329.0000   183.3613     0.1375 
 7329.5000   211.3400     0.1408 
 7330.0000   184.8932     0.1378 
 7330.5000   136.6232     0.1314 
 7331.0000    95.9524     0.1240 
 7331.5000    67.9973     0.1172 
 7332.0000    54.0646     0.1127 
 7332.5000    51.6159     0.1119 
 7333.0000    55.0780     0.1131 
 7333.5000    61.7675     0.1153 
 7334.0000    78.3073     0.1200 
 7334.5000   114.0167     0.1275 
 7335.0000   176.8385     0.1366 
 7335.5000   258.8201     0.1449 
 7336.0000   279.7546     0.1468 
 7336.5000   183.7809     0.1360 
 7337.0000    70.7131     0.1149 
 7337.5000    22.4191     0.0936 
 7338.0000     9.2716     0.0790 
 7338.5000     5.5576     0.0707 
 7339.0000     4.3451     0.0668 
 7339.5000     4.5112     0.0674 
 7340.0000     4.9724     0.0690 
 7340.5000     4.4973     0.0674 
 7341.0000     3.9972     0.0654 
 7341.5000     7.4877     0.0740 
 7342.0000    39.1403     0.0998 
 7342.5000   232.9156     0.1358 
 7343.0000   745.3671     0.1657 
 7343.5000  1059.0492     0.1762 
 7344.0000   727.7834     0.1658 
 7344.5000   313.6724     0.1477 
 7345.0000   208.8514     0.1406 
 7345.5000   439.0706     0.1535 
 7346.0000  1350.8341     0.1781 
 7346.5000  3081.5076     0.1995 
 7347.0000  4277.1196     0.2083 
 7347.5000  3739.0415     0.2048 
 7348.0000  2481.5886     0.1951 
 7348.5000  1863.0682     0.1891 
 7349.0000  2025.6306     0.1909 
 7349.5000  2467.2922     0.1954 
 7350.0000  2933.7393     0.1994 
 7350.5000  3007.6079     0.2000 
 7351.0000  2365.1519     0.1941 
 7351.5000  1677.1528     0.1864 
 7352.0000  1922.4893     0.1889 
 7352.5000  4381.6548     0.2061 
 7353.0000  9716.9883     0.2261 
 7353.5000 14821.7285     0.2375 
 7354.0000 17889.8438     0.2421 
 7354.5000 17481.6426     0.2415 
 7355.0000 10773.9482     0.2270 
 7355.5000  3298.7830     0.1939 
 7356.0000   648.4649     0.1620 
 7356.5000   565.7866     0.1601 
 7357.0000  2301.1064     0.1872 
 7357.5000  6737.5576     0.2163 
 7358.0000 10481.7490     0.2292 
 7358.5000 12592.5049     0.2336 
 7359.0000 17723.9004     0.2414 
 7359.5000 20000.0000     0.2499 
 7360.0000 20000.0000     0.2520 
 7360.5000 20000.0000     0.2450 
 7361.0000 12207.7939     0.2320 
 7361.5000  6801.2397     0.2181 
 7362.0000  3785.7190     0.2044 
 7362.5000  2147.3130     0.1912 
 7363.0000  1308.6384     0.1803 
 7363.5000   944.9988     0.1732 
 7364.0000   906.2117     0.1724 
 7364.5000  1586.0181     0.1834 
 7365.0000  5669.5952     0.2094 
 7365.5000 20000.0000     0.2420 
 7366.0000 20000.0000     0.2647 
 7366.5000 20000.0000     0.2699 
 7367.0000 20000.0000     0.2647 
 7367.5000 20000.0000     0.2582 
 7368.0000 20000.0000     0.2549 
 7368.5000 20000.0000     0.2526 
 7369.0000 20000.0000     0.2472 
 7369.5000 14380.2764     0.2359 
 7370.0000  8617.9805     0.2244 
 7370.5000  8003.6367     0.2227 
 7371.0000 11702.7480     0.2312 
 7371.5000 16746.1094     0.2404 
 7372.0000 15813.4316     0.2388 
 7372.5000  9312.1895     0.2247 
 7373.0000  4550.1963     0.2085 
 7373.5000  3092.2769     0.2007 
 7374.0000  4136.3550     0.2065 
 7374.5000  8115.7739     0.2218 
 7375.0000 13790.3301     0.2354 
 7375.5000 16723.2695     0.2404 
 7376.0000 12319.6768     0.2312 
 7376.5000  3932.2136     0.1713 
 7377.0000    41.8502     0.0710 
 7377.5000     0.0587     0.0132 
 7378.0000     0.0001     0.0030 
 7378.5000     0.0000     0.0005 
 7379.0000     0.0000     0.0000 
 7379.5000     0.0000     0.0000 
 7380.0000     0.0000     0.0000 
 7380.5000     0.0000     0.0000 
 7381.0000     0.0000     0.0000 
 7381.5000     0.0000     0.0000 
 7382.0000     0.0000     0.0000 
 7382.5000     0.0000     0.0000 
 7383.0000     0.0000     0.0000 
 7383.5000     0.0000     0.0000 
 7384.0000     0.0000     0.0000 
 7384.5000     0.0000     0.0000 
