~Version Information
 VERS.                  2.0:   CWLS log ASCII Standard -VERSION 2.0
 WRAP.                   NO:   One line per depth step
~Well Information Block
#MNEM.UNIT       Data Type    Information
#---------     -----------    ---------------------------
 STRT.F              7375.0000:
 STOP.F              8337.5000:
 STEP.F                 0.5000:
 NULL.               -999.2500:
 UWI .                CASN0038:  UWI
 API .                CASN0038:  UWI
 WELL.                 CASN-38:  COMMON WELL NAME
 COMP.               ECOPETROL:  WELL OPERATOR
 FLD .                CASTILLA:  FIELD
 LIC .                 UNKNOWN:  AUTHORIZATION NO
 LOC .                     LLA:  BASIN
 CTRY.                COLOMBIA:  COUNTRY
 STAT.                    META:  STATE
 CNTY.       CASTILLA_LA_NUEVA:  COUNTY
 PROV.                    META:  STATE
 SRVC.                 UNKNOWN:  COMPANY
 DATE.                 UNKNOWN:  LOG RUN DATE
 LONG.           -73.615687866:  LONGITUDE
 LATI.             3.887258472:  LATITUDE
 XCOORD.          1051292.6250:  X COORDINATE
 YCOORD.           921618.9375:  Y COORDINATE
 ELEV.FT             1369.0000:  ELEVATION
 TD  .FT             8358.0000:  TOTAL DEPTH
~Parameter Information Block
#MNEM.UNIT       Value        Description
#---------     -----------    ---------------------------
~Curve Information Block
#MNEM.UNIT                 API CODE     Curve Description
#---------               -----------    ---------------------------
 DEPTH.F                00 000 000 000:  Index Curve
 2019_pPerm_ANS.MD          00 000 000 000:  
 2019_pPhieE_D_ANS.V/V         00 000 000 000:  
~A DEPTH     2019_pPerm_ANS 2019_pPhieE_D_ANS
# ...
 7729.0000     0.0009     0.0025 
 7729.5000     0.0001     0.0004 
 7730.0000     0.0000     0.0003 
 7730.5000     0.0000     0.0000 
 7731.0000     0.0000     0.0000 
 7731.5000     0.0000     0.0000 
 7732.0000     0.0000     0.0000 
 7732.5000     0.0000     0.0000 
 7733.0000     0.0000     0.0000 
 7733.5000     0.0000     0.0001 
 7734.0000     0.0000     0.0003 
 7734.5000     0.0001     0.0006 
 7735.0000     0.0004     0.0014 
 7735.5000     0.0016     0.0028 
 7736.0000     0.0051     0.0070 
 7736.5000     0.0036     0.0053 
 7737.0000     0.0006     0.0004 
 7737.5000     0.0004     0.0016 
 7738.0000     0.0008     0.0027 
 7738.5000     0.0000     0.0001 
 7739.0000     0.0000     0.0003 
 7739.5000     0.0000     0.0003 
 7740.0000     0.0000     0.0001 
 7740.5000     0.0000     0.0003 
 7741.0000     0.0001     0.0006 
 7741.5000     0.0001     0.0005 
 7742.0000     0.0001     0.0006 
 7742.5000     0.0000     0.0002 
 7743.0000     0.0000     0.0001 
 7743.5000     0.0000     0.0001 
 7744.0000     0.0001     0.0002 
 7744.5000     0.0009     0.0027 
 7745.0000     0.0015     0.0035 
 7745.5000     0.0008     0.0021 
 7746.0000     0.0008     0.0022 
 7746.5000     0.0013     0.0032 
 7747.0000     0.0009     0.0023 
 7747.5000     0.0015     0.0014 
 7748.0000     0.0065     0.0077 
 7748.5000     0.0012     0.0001 
 7749.0000     0.0000     0.0000 
 7749.5000     0.0000     0.0001 
 7750.0000     0.0000     0.0001 
 7750.5000     0.0002     0.0014 
 7751.0000     0.0001     0.0003 
 7751.5000     0.0018     0.0038 
 7752.0000     0.0023     0.0041 
 7752.5000     0.0015     0.0034 
 7753.0000     0.0003     0.0011 
 7753.5000     0.0001     0.0005 
 7754.0000     0.0000     0.0001 
 7754.5000     0.0000     0.0000 
 7755.0000     0.0001     0.0008 
 7755.5000     0.0000     0.0001 
 7756.0000     0.0000     0.0000 
 7756.5000     0.0000     0.0000 
 7757.0000     0.0000     0.0001 
 7757.5000     0.0000     0.0001 
 7758.0000     0.0000     0.0001 
 7758.5000     0.0000     0.0000 
 7759.0000     0.0001     0.0006 
 7759.5000     0.0000     0.0001 
 7760.0000     0.0011     0.0014 
 7760.5000     0.0057     0.0067 
 7761.0000     0.0223     0.0129 
 7761.5000     0.0441     0.0187 
 7762.0000     0.0416     0.0185 
 7762.5000     0.0293     0.0148 
 7763.0000     0.0399     0.0183 
 7763.5000     0.0385     0.0173 
 7764.0000     0.0313     0.0169 
 7764.5000     0.0038     0.0001 
 7765.0000     0.0001     0.0006 
 7765.5000     0.0000     0.0004 
 7766.0000     0.0005     0.0001 
 7766.5000     0.0065     0.0056 
 7767.0000     0.0331     0.0144 
 7767.5000     0.1891     0.0287 
 7768.0000     0.5881     0.0547 
 7768.5000     0.1405     0.0135 
 7769.0000     0.1175     0.0286 
 7769.5000     0.1425     0.0337 
 7770.0000     0.0125     0.0082 
 7770.5000     0.0018     0.0018 
 7771.0000     0.0005     0.0017 
 7771.5000     0.0124     0.0032 
 7772.0000     0.0896     0.0226 
 7772.5000     0.5189     0.0564 
 7773.0000     0.0476     0.0035 
 7773.5000     0.0003     0.0001 
 7774.0000     0.0000     0.0001 
 7774.5000     0.0000     0.0000 
 7775.0000     0.0000     0.0000 
 7775.5000     0.0000     0.0000 
 7776.0000     0.0000     0.0000 
 7776.5000     0.0000     0.0000 
 7777.0000     0.0000     0.0000 
 7777.5000     0.0000     0.0000 
 7778.0000     0.0000     0.0000 
 7778.5000     0.0000     0.0000 
 7779.0000     0.0000     0.0000 
 7779.5000     0.0000     0.0000 
 7780.0000     0.0000     0.0000 
 7780.5000     0.0000     0.0000 
 7781.0000     0.0008     0.0014 
 7781.5000     0.0106     0.0061 
 7782.0000     0.6706     0.0637 
 7782.5000     0.5229     0.0533 
 7783.0000     0.6453     0.0596 
 7783.5000     0.5117     0.0544 
 7784.0000     0.0877     0.0063 
 7784.5000     0.0232     0.0148 
 7785.0000     0.0469     0.0233 
 7785.5000     0.0182     0.0125 
 7786.0000     0.0031     0.0036 
 7786.5000     0.0010     0.0030 
 7787.0000     0.0005     0.0010 
 7787.5000     0.0072     0.0046 
 7788.0000    12.3761     0.0198 
 7788.5000    99.4186     0.1633 
 7789.0000    65.3105     0.1403 
 7789.5000   129.9332     0.1610 
 7790.0000   239.0205     0.1779 
 7790.5000   398.9172     0.1946 
 7791.0000   368.8073     0.1899 
 7791.5000   221.8573     0.1803 
 7792.0000     5.1198     0.0680 
 7792.5000   118.5153     0.1660 
 7793.0000   131.6228     0.1628 
 7793.5000   133.7668     0.1651 
 7794.0000   107.4491     0.1615 
 7794.5000    34.0816     0.0743 
 7795.0000    92.9496     0.1600 
 7795.5000    80.5411     0.1510 
 7796.0000    74.5996     0.1470 
 7796.5000   120.3544     0.1581 
 7797.0000   232.7622     0.1803 
 7797.5000   250.7808     0.1845 
 7798.0000   133.2064     0.1620 
 7798.5000    40.9613     0.1336 
 7799.0000    14.8569     0.1125 
 7799.5000     3.8923     0.0395 
 7800.0000    31.5192     0.1346 
 7800.5000    34.4337     0.1313 
 7801.0000    25.2634     0.1290 
 7801.5000     0.7619     0.0389 
 7802.0000     0.0618     0.0200 
 7802.5000     0.0009     0.0014 
 7803.0000     0.0000     0.0000 
 7803.5000     0.0000     0.0002 
 7804.0000     0.0000     0.0005 
 7804.5000     0.0000     0.0001 
 7805.0000     0.0000     0.0000 
 7805.5000     0.0000     0.0000 
 7806.0000     0.0000     0.0000 
 7806.5000     0.0000     0.0001 
 7807.0000     0.0000     0.0000 
 7807.5000     0.0000     0.0000 
 7808.0000     0.0000     0.0001 
 7808.5000     0.0000     0.0001 
 7809.0000     0.0000     0.0003 
 7809.5000     0.0001     0.0009 
 7810.0000     0.0001     0.0006 
 7810.5000     0.0000     0.0001 
 7811.0000     0.0000     0.0001 
 7811.5000     0.0064     0.0018 
 7812.0000     0.0563     0.0192 
 7812.5000     0.9972     0.0712 
 7813.0000     0.8584     0.0634 
 7813.5000     0.2439     0.0348 
 7814.0000     0.0072     0.0019 
 7814.5000     0.0001     0.0009 
 7815.0000     0.0000     0.0004 
 7815.5000     0.0001     0.0006 
 7816.0000     0.0001     0.0005 
 7816.5000     0.0021     0.0021 
 7817.0000     0.0287     0.0114 
 7817.5000     0.1686     0.0361 
 7818.0000     0.3328     0.0456 
 7818.5000     4.2572     0.0560 
 7819.0000    25.8801     0.1319 
 7819.5000     9.8801     0.1037 
 7820.0000     1.8880     0.0612 
 7820.5000     0.5893     0.0454 
 7821.0000     2.0127     0.0846 
 7821.5000     0.3244     0.0404 
 7822.0000     0.0489     0.0128 
 7822.5000     0.0076     0.0088 
 7823.0000     0.0029     0.0011 
 7823.5000     0.0091     0.0098 
 7824.0000     0.0143     0.0083 
 7824.5000     0.0533     0.0220 
 7825.0000     0.1291     0.0339 
 7825.5000     0.1395     0.0336 
 7826.0000     0.1226     0.0311 
 7826.5000     0.1426     0.0332 
 7827.0000     0.2321     0.0400 
 7827.5000     0.3288     0.0436 
 7828.0000     0.1064     0.0196 
 7828.5000     0.3053     0.0194 
 7829.0000     3.0570     0.0749 
 7829.5000    16.7166     0.1116 
 7830.0000    53.7024     0.1329 
 7830.5000   159.7817     0.1654 
 7831.0000   140.8520     0.1546 
 7831.5000    70.5677     0.0815 
 7832.0000   261.3264     0.1801 
 7832.5000    61.6235     0.1246 
 7833.0000     1.4335     0.0706 
 7833.5000     0.2166     0.0139 
 7834.0000     0.0138     0.0119 
 7834.5000     0.0090     0.0100 
 7835.0000     0.0116     0.0043 
 7835.5000     0.1406     0.0381 
 7836.0000     0.1403     0.0182 
 7836.5000     2.3462     0.0677 
 7837.0000     9.2654     0.1074 
 7837.5000    11.4964     0.1106 
 7838.0000    11.0741     0.1105 
 7838.5000     6.6066     0.0973 
 7839.0000     4.3069     0.0886 
 7839.5000     4.3227     0.0860 
 7840.0000     8.4687     0.0989 
 7840.5000     9.8093     0.1055 
 7841.0000     3.1703     0.0800 
 7841.5000     0.5469     0.0520 
 7842.0000     0.1367     0.0277 
 7842.5000     0.0198     0.0135 
 7843.0000     0.0050     0.0021 
 7843.5000     0.1047     0.0105 
 7844.0000    13.6163     0.1110 
 7844.5000    34.9721     0.1248 
 7845.0000    87.3478     0.1470 
 7845.5000   142.8975     0.1629 
 7846.0000    96.3668     0.1596 
 7846.5000     8.1209     0.0320 
