~Version Information
 VERS.                  2.0:   CWLS log ASCII Standard -VERSION 2.0
 WRAP.                   NO:   One line per depth step
~Well Information Block
#MNEM.UNIT       Data Type    Information
#---------     -----------    ---------------------------
 STRT.F              7159.5000:
 STOP.F              8265.0000:
 STEP.F                 0.5000:
 NULL.               -999.2500:
 UWI .                CASN0033:  UWI
 API .                CASN0033:  UWI
 WELL.                 CASN-33:  COMMON WELL NAME
 COMP.               ECOPETROL:  WELL OPERATOR
 FLD .                CASTILLA:  FIELD
 LIC .                 UNKNOWN:  AUTHORIZATION NO
 LOC .                     LLA:  BASIN
 CTRY.                COLOMBIA:  COUNTRY
 STAT.                    META:  STATE
 CNTY.       CASTILLA_LA_NUEVA:  COUNTY
 PROV.                    META:  STATE
 SRVC.                 UNKNOWN:  COMPANY
 DATE.                 UNKNOWN:  LOG RUN DATE
 LONG.           -73.616507528:  LONGITUDE
 LATI.             3.893623539:  LATITUDE
 XCOORD.          1051201.2500:  X COORDINATE
 YCOORD.           922322.7500:  Y COORDINATE
 ELEV.FT             1376.0000:  ELEVATION
 TD  .FT             8280.0000:  TOTAL DEPTH
~Parameter Information Block
#MNEM.UNIT       Value        Description
#---------     -----------    ---------------------------
~Curve Information Block
#MNEM.UNIT                 API CODE     Curve Description
#---------               -----------    ---------------------------
 DEPTH.F                00 000 000 000:  Index Curve
 2019_pPerm_ANS.MD          00 000 000 000:  
 2019_pPhieE_D_ANS.V/V         00 000 000 000:  
~A DEPTH     2019_pPerm_ANS 2019_pPhieE_D_ANS
# ...
 7631.5000     0.0000     0.0000 
 7632.0000     0.0000     0.0000 
 7632.5000     0.0000     0.0000 
 7633.0000     0.0000     0.0000 
 7633.5000     0.0000     0.0000 
 7634.0000     0.0000     0.0000 
 7634.5000     0.0000     0.0000 
 7635.0000     0.0000     0.0000 
 7635.5000     0.0000     0.0003 
 7636.0000     0.0180     0.0097 
 7636.5000     0.0625     0.0201 
 7637.0000     0.2524     0.0378 
 7637.5000     0.4291     0.0454 
 7638.0000     0.5573     0.0540 
 7638.5000     0.1140     0.0215 
 7639.0000     0.0155     0.0069 
 7639.5000     0.0075     0.0073 
 7640.0000     0.0083     0.0078 
 7640.5000     0.0080     0.0076 
 7641.0000     0.0070     0.0074 
 7641.5000     0.0028     0.0038 
 7642.0000     0.0032     0.0019 
 7642.5000     0.1480     0.0137 
 7643.0000     0.7786     0.0586 
 7643.5000     0.4251     0.0438 
 7644.0000     0.1888     0.0316 
 7644.5000     0.4845     0.0454 
 7645.0000     2.4718     0.0624 
 7645.5000    62.1863     0.1385 
 7646.0000   138.3414     0.1553 
 7646.5000   175.5328     0.1603 
 7647.0000   212.2534     0.1653 
 7647.5000    97.5586     0.1437 
 7648.0000    33.0703     0.1222 
 7648.5000    16.1310     0.1092 
 7649.0000     7.0518     0.0962 
 7649.5000     1.2119     0.0402 
 7650.0000     0.0492     0.0122 
 7650.5000     0.0161     0.0108 
 7651.0000     0.0258     0.0096 
 7651.5000     0.2147     0.0275 
 7652.0000    11.2262     0.0625 
 7652.5000    69.7940     0.1453 
 7653.0000    91.9732     0.1454 
 7653.5000   141.1523     0.1564 
 7654.0000   268.9600     0.1674 
 7654.5000   634.4792     0.1893 
 7655.0000  1335.9003     0.2113 
 7655.5000  1070.2279     0.2002 
 7656.0000   705.2321     0.1891 
 7656.5000   304.2589     0.1690 
 7657.0000   133.7184     0.1488 
 7657.5000    15.7007     0.1041 
 7658.0000     2.1300     0.0411 
 7658.5000     0.0237     0.0051 
 7659.0000     0.0006     0.0003 
 7659.5000     0.0003     0.0010 
 7660.0000     0.0461     0.0032 
 7660.5000    40.4619     0.0405 
 7661.0000   384.6871     0.1825 
 7661.5000   833.5364     0.1982 
 7662.0000  1465.3715     0.2139 
 7662.5000  1524.0300     0.2306 
 7663.0000  2376.7578     0.2472 
 7663.5000  3612.6965     0.2654 
 7664.0000  5042.0928     0.2836 
 7664.5000  4919.1499     0.2810 
 7665.0000  4639.0156     0.2785 
 7665.5000  3846.6121     0.2720 
 7666.0000  2898.8813     0.2656 
 7666.5000  2658.1577     0.2646 
 7667.0000  2449.2434     0.2636 
 7667.5000  2575.6987     0.2644 
 7668.0000  2724.0969     0.2652 
 7668.5000  3225.1868     0.2706 
 7669.0000  3712.5920     0.2760 
 7669.5000  3055.3896     0.2661 
 7670.0000  2453.2610     0.2562 
 7670.5000  2067.2883     0.2264 
 7671.0000   786.2047     0.1967 
 7671.5000   206.2574     0.1613 
 7672.0000    54.3780     0.1259 
 7672.5000   101.5284     0.1462 
 7673.0000   335.0583     0.1665 
 7673.5000  1028.8484     0.2017 
 7674.0000  1691.8192     0.2370 
 7674.5000  2352.7100     0.2472 
 7675.0000  2837.9939     0.2573 
 7675.5000  2752.6033     0.2539 
 7676.0000  2552.7207     0.2506 
 7676.5000  2370.7302     0.2474 
 7677.0000  2355.9993     0.2443 
 7677.5000  2941.9507     0.2255 
 7678.0000  1514.1627     0.2067 
 7678.5000   324.4317     0.1686 
 7679.0000    80.2011     0.1306 
 7679.5000    13.0335     0.1044 
 7680.0000     1.8551     0.0332 
 7680.5000     0.0989     0.0251 
 7681.0000     0.0635     0.0187 
 7681.5000     0.1134     0.0263 
 7682.0000     0.1929     0.0362 
 7682.5000     0.0703     0.0194 
 7683.0000     0.0245     0.0096 
 7683.5000     0.1335     0.0233 
 7684.0000     0.4993     0.0493 
 7684.5000     0.6406     0.0524 
 7685.0000     1.0278     0.0557 
 7685.5000     4.3326     0.0889 
 7686.0000     6.3761     0.0942 
 7686.5000     3.1209     0.0814 
 7687.0000     1.4111     0.0437 
 7687.5000   121.9834     0.1420 
 7688.0000   485.0906     0.1885 
 7688.5000  1169.6426     0.2063 
 7689.0000  2239.6213     0.2240 
 7689.5000  2234.3367     0.2231 
 7690.0000  2144.4509     0.2222 
 7690.5000  1932.0864     0.2418 
 7691.0000  2698.5442     0.2614 
 7691.5000  2271.0986     0.2540 
 7692.0000  1785.7402     0.2466 
 7692.5000  1444.9534     0.2399 
 7693.0000  1382.2738     0.2332 
 7693.5000  2398.7424     0.2279 
 7694.0000  2211.6011     0.2226 
 7694.5000  1897.8856     0.2177 
 7695.0000  1690.9697     0.2128 
 7695.5000  1841.5222     0.2351 
 7696.0000  2770.1055     0.2573 
 7696.5000  2907.6868     0.2564 
 7697.0000  2748.7659     0.2554 
 7697.5000  2187.1101     0.2439 
 7698.0000  1739.3541     0.2324 
 7698.5000  1629.6521     0.2317 
 7699.0000  1601.2476     0.2310 
 7699.5000  1563.0524     0.2326 
 7700.0000  1572.8872     0.2341 
 7700.5000  2370.0149     0.2526 
 7701.0000  3733.1492     0.2712 
 7701.5000  4757.2314     0.2795 
 7702.0000  5529.8418     0.2878 
 7702.5000  5749.5400     0.2888 
 7703.0000  5900.6704     0.2898 
 7703.5000  6142.6860     0.2931 
 7704.0000  5543.9307     0.2964 
 7704.5000  3441.7559     0.2766 
 7705.0000  1933.1031     0.2567 
 7705.5000  1444.6411     0.2388 
 7706.0000  1901.6929     0.2210 
 7706.5000  1978.4482     0.2225 
 7707.0000  2024.2278     0.2240 
 7707.5000  2109.4224     0.2274 
 7708.0000  1116.4664     0.2308 
 7708.5000  2033.2230     0.2504 
 7709.0000  3343.8118     0.2699 
 7709.5000  3472.1265     0.2668 
 7710.0000  3373.2749     0.2636 
 7710.5000  2607.1914     0.2511 
 7711.0000  1961.1465     0.2386 
 7711.5000  1761.3151     0.2349 
 7712.0000  1639.0753     0.2311 
 7712.5000  1810.2562     0.2360 
 7713.0000  1903.1348     0.2408 
 7713.5000  1128.2634     0.1991 
 7714.0000   310.0401     0.1575 
 7714.5000    80.6553     0.1352 
 7715.0000    27.3614     0.1129 
 7715.5000     7.5184     0.0936 
 7716.0000     1.2875     0.0440 
 7716.5000     0.0295     0.0068 
 7717.0000     0.0011     0.0005 
 7717.5000     0.0000     0.0003 
 7718.0000     0.0000     0.0002 
 7718.5000     0.0001     0.0006 
 7719.0000     0.0050     0.0018 
 7719.5000     0.0506     0.0143 
 7720.0000    18.8902     0.0635 
 7720.5000   116.2518     0.1516 
 7721.0000   321.2693     0.1707 
 7721.5000   605.5890     0.1861 
 7722.0000  1170.3977     0.2015 
 7722.5000  1929.2139     0.2202 
 7723.0000  1637.4254     0.2389 
 7723.5000  2289.4478     0.2516 
 7724.0000  3296.5317     0.2643 
 7724.5000  3357.7585     0.2642 
 7725.0000  3229.9744     0.2642 
 7725.5000  2900.4175     0.2696 
 7726.0000  2443.4795     0.2750 
 7726.5000  1002.0377     0.2324 
 7727.0000   466.8267     0.1897 
 7727.5000   130.5759     0.1459 
 7728.0000    12.4662     0.1021 
 7728.5000    18.2037     0.1127 
 7729.0000    29.7762     0.1233 
 7729.5000    27.8970     0.1216 
 7730.0000    25.7490     0.1199 
 7730.5000    13.7027     0.1085 
 7731.0000     2.1382     0.0689 
 7731.5000     1.5162     0.0693 
 7732.0000     2.1200     0.0696 
 7732.5000     8.3362     0.1007 
 7733.0000    13.5554     0.1041 
 7733.5000    37.5285     0.1268 
 7734.0000    70.1907     0.1496 
 7734.5000    11.8484     0.0721 
 7735.0000     0.9131     0.0595 
 7735.5000     0.1097     0.0115 
 7736.0000     0.0028     0.0012 
 7736.5000     0.0000     0.0000 
 7737.0000     0.0000     0.0000 
 7737.5000     0.0000     0.0000 
 7738.0000     0.0000     0.0000 
 7738.5000     0.0000     0.0000 
 7739.0000     0.0000     0.0000 
 7739.5000     0.0000     0.0000 
 7740.0000     0.0000     0.0000 
 7740.5000     0.0009     0.0003 
 7741.0000    64.1027     0.0156 
 7741.5000   410.7998     0.1862 
 7742.0000   919.0908     0.2045 
 7742.5000   989.4681     0.2015 
 7743.0000   919.5512     0.1985 
 7743.5000   672.0963     0.1897 
 7744.0000   472.0706     0.1810 
 7744.5000   367.9873     0.1795 
 7745.0000   267.3072     0.1779 
 7745.5000    40.2144     0.0695 
 7746.0000     0.2859     0.0319 
 7746.5000     0.0270     0.0055 
 7747.0000     0.0004     0.0006 
 7747.5000     0.0001     0.0005 
 7748.0000     0.0004     0.0005 
 7748.5000     0.0359     0.0054 
 7749.0000     0.2490     0.0348 
