~Version Information
 VERS.                  2.0:   CWLS log ASCII Standard -VERSION 2.0
 WRAP.                   NO:   One line per depth step
~Well Information Block
#MNEM.UNIT       Data Type    Information
#---------     -----------    ---------------------------
 STRT.F              7159.5000:
 STOP.F              8265.0000:
 STEP.F                 0.5000:
 NULL.               -999.2500:
 UWI .                CASN0033:  UWI
 API .                CASN0033:  UWI
 WELL.                 CASN-33:  COMMON WELL NAME
 COMP.               ECOPETROL:  WELL OPERATOR
 FLD .                CASTILLA:  FIELD
 LIC .                 UNKNOWN:  AUTHORIZATION NO
 LOC .                     LLA:  BASIN
 CTRY.                COLOMBIA:  COUNTRY
 STAT.                    META:  STATE
 CNTY.       CASTILLA_LA_NUEVA:  COUNTY
 PROV.                    META:  STATE
 SRVC.                 UNKNOWN:  COMPANY
 DATE.                 UNKNOWN:  LOG RUN DATE
 LONG.           -73.616507528:  LONGITUDE
 LATI.             3.893623539:  LATITUDE
 XCOORD.          1051201.2500:  X COORDINATE
 YCOORD.           922322.7500:  Y COORDINATE
 ELEV.FT             1376.0000:  ELEVATION
 TD  .FT             8280.0000:  TOTAL DEPTH
~Parameter Information Block
#MNEM.UNIT       Value        Description
#---------     -----------    ---------------------------
~Curve Information Block
#MNEM.UNIT                 API CODE     Curve Description
#---------               -----------    ---------------------------
 DEPTH.F                00 000 000 000:  Index Curve
 2019_pPerm_ANS.MD          00 000 000 000:  
 2019_pPhieE_D_ANS.V/V         00 000 000 000:  
~A DEPTH     2019_pPerm_ANS 2019_pPhieE_D_ANS
# ...
 7867.5000  7601.6973     0.2391 
 7868.0000  8660.2490     0.2452 
 7868.5000  7379.6914     0.2409 
 7869.0000  5703.1689     0.2366 
 7869.5000  3201.1082     0.2199 
 7870.0000  1789.1008     0.2032 
 7870.5000  1962.5944     0.2082 
 7871.0000  2486.3386     0.2131 
 7871.5000  3547.8184     0.2254 
 7872.0000  4781.1270     0.2377 
 7872.5000  3945.9341     0.2305 
 7873.0000  3141.5789     0.2234 
 7873.5000  3660.3574     0.2275 
 7874.0000  4413.6143     0.2316 
 7874.5000  8017.0308     0.2468 
 7875.0000 13373.9307     0.2619 
 7875.5000 17695.7559     0.2695 
 7876.0000 20000.0000     0.2770 
 7876.5000 12724.5898     0.2628 
 7877.0000  6134.0933     0.2486 
 7877.5000   972.0635     0.0832 
 7878.0000    66.7751     0.0305 
 7878.5000   768.6697     0.1875 
 7879.0000  1680.2285     0.2046 
 7879.5000  3475.0269     0.2176 
 7880.0000  6451.2729     0.2307 
 7880.5000  8756.9219     0.2370 
 7881.0000 10729.8672     0.2433 
 7881.5000  9160.3359     0.2370 
 7882.0000  7310.1001     0.2306 
 7882.5000  5670.2485     0.2232 
 7883.0000  4605.5952     0.2159 
 7883.5000  4610.5283     0.2197 
 7884.0000  5210.1538     0.2235 
 7884.5000  7305.9092     0.2334 
 7885.0000  9991.2119     0.2434 
 7885.5000  9109.0156     0.2368 
 7886.0000  7787.7451     0.2303 
 7886.5000  7124.8179     0.2276 
 7887.0000  7080.6562     0.2249 
 7887.5000  8897.8213     0.2339 
 7888.0000 10876.5947     0.2428 
 7888.5000  8895.4424     0.2335 
 7889.0000  6973.6440     0.2241 
 7889.5000  6825.4604     0.2246 
 7890.0000  7281.5337     0.2250 
 7890.5000  9198.3223     0.2327 
 7891.0000 11049.7617     0.2403 
 7891.5000  7998.3613     0.2279 
 7892.0000  5488.1787     0.2154 
 7892.5000  5906.2510     0.2200 
 7893.0000  6609.6875     0.2245 
 7893.5000  6008.5513     0.2219 
 7894.0000  5335.0435     0.2192 
 7894.5000  4586.0840     0.2174 
 7895.0000  3894.0547     0.2157 
 7895.5000  2783.1855     0.2062 
 7896.0000  1913.2013     0.1967 
 7896.5000  3193.0339     0.2112 
 7897.0000  4933.8271     0.2257 
 7897.5000  5664.6104     0.2273 
 7898.0000  6350.4272     0.2288 
 7898.5000  6118.9331     0.2254 
 7899.0000  5757.8613     0.2220 
 7899.5000  4704.7842     0.2155 
 7900.0000  3818.4175     0.2090 
 7900.5000  3538.3643     0.2080 
 7901.0000  3325.6218     0.2070 
 7901.5000  3019.8601     0.2040 
 7902.0000  2743.8398     0.2010 
 7902.5000  2585.6338     0.1984 
 7903.0000  2401.9978     0.1958 
 7903.5000  1978.0779     0.1880 
 7904.0000  1595.7749     0.1803 
 7904.5000  1279.4625     0.1766 
 7905.0000  1088.3881     0.1730 
 7905.5000  1150.8580     0.1812 
 7906.0000  1281.8741     0.1894 
 7906.5000  1394.9065     0.1926 
 7907.0000  1499.0885     0.1959 
 7907.5000  1547.1595     0.1937 
 7908.0000  1540.4890     0.1915 
 7908.5000  1355.6624     0.1854 
 7909.0000  1068.1511     0.1793 
 7909.5000   414.8950     0.1442 
 7910.0000   158.0240     0.1091 
 7910.5000   154.6214     0.1160 
 7911.0000   263.8984     0.1228 
 7911.5000   909.0476     0.1615 
 7912.0000  2436.1821     0.2001 
 7912.5000  2522.1753     0.1970 
 7913.0000  2370.1829     0.1938 
 7913.5000  2186.4424     0.1920 
 7914.0000  2008.5469     0.1901 
 7914.5000  1829.9602     0.1865 
 7915.0000  1706.1599     0.1830 
 7915.5000  2455.2800     0.1946 
 7916.0000  3399.7744     0.2061 
 7916.5000  1369.7646     0.1702 
 7917.0000   355.9780     0.1343 
 7917.5000    81.7539     0.0654 
 7918.0000     6.8891     0.0001 
 7918.5000   145.1586     0.0825 
 7919.0000   733.8306     0.1686 
 7919.5000  2231.1790     0.1952 
 7920.0000  4921.6172     0.2218 
 7920.5000  5020.5034     0.2181 
 7921.0000  4854.9438     0.2144 
 7921.5000  5002.4380     0.2158 
 7922.0000  4929.9858     0.2171 
 7922.5000  3328.5366     0.2043 
 7923.0000  2079.8164     0.1915 
 7923.5000  1219.2599     0.1794 
 7924.0000   866.0321     0.1674 
 7924.5000  1393.0762     0.1872 
 7925.0000  3007.5288     0.2071 
 7925.5000  6584.8262     0.2296 
 7926.0000 13257.8271     0.2521 
 7926.5000 11523.8301     0.2422 
 7927.0000  8928.8477     0.2324 
 7927.5000  7581.7334     0.2289 
 7928.0000  7336.6802     0.2254 
 7928.5000  9979.0459     0.2372 
 7929.0000 13380.8936     0.2490 
 7929.5000 10926.0146     0.2391 
 7930.0000  8090.3574     0.2291 
 7930.5000  5886.9863     0.2207 
 7931.0000  4363.8662     0.2122 
 7931.5000  3399.4846     0.2048 
 7932.0000  2432.1638     0.1974 
 7932.5000   384.4521     0.0779 
 7933.0000    11.9615     0.0001 
 7933.5000    10.2147     0.0089 
 7934.0000    60.6662     0.0592 
 7934.5000   887.6647     0.1380 
 7935.0000  3747.5393     0.2169 
 7935.5000  2029.6581     0.1924 
 7936.0000   816.6908     0.1680 
 7936.5000   381.7142     0.1454 
 7937.0000   150.7740     0.1228 
 7937.5000   274.4402     0.1447 
 7938.0000   463.1667     0.1666 
 7938.5000   695.1716     0.1729 
 7939.0000   972.2626     0.1793 
 7939.5000   793.4778     0.1706 
 7940.0000   626.3165     0.1620 
 7940.5000   521.2909     0.1591 
 7941.0000   474.1845     0.1561 
 7941.5000   846.8452     0.1749 
 7942.0000  1513.3693     0.1936 
 7942.5000  2464.1721     0.2026 
 7943.0000  3725.9543     0.2116 
 7943.5000  4353.4160     0.2135 
 7944.0000  4222.5562     0.2155 
 7944.5000   956.7203     0.1509 
 7945.0000   151.2140     0.0863 
 7945.5000    27.8081     0.0522 
 7946.0000    37.2261     0.0181 
 7946.5000   312.7942     0.1143 
 7947.0000  3321.7698     0.2106 
 7947.5000  5140.7339     0.2187 
 7948.0000  6824.0854     0.2267 
 7948.5000  6889.4014     0.2263 
 7949.0000  6671.1772     0.2259 
 7949.5000  6872.5977     0.2292 
 7950.0000  7016.1914     0.2325 
 7950.5000  6421.9790     0.2291 
 7951.0000  5864.0723     0.2257 
 7951.5000  5950.4302     0.2261 
 7952.0000  6341.2866     0.2264 
 7952.5000  7604.0454     0.2308 
 7953.0000  8894.9365     0.2352 
 7953.5000  7990.0845     0.2300 
 7954.0000  7120.1558     0.2249 
 7954.5000  8292.8174     0.2308 
 7955.0000  9741.8428     0.2368 
 7955.5000  9288.9941     0.2340 
 7956.0000  8498.4287     0.2313 
 7956.5000  5742.9077     0.2187 
 7957.0000  3647.7878     0.2060 
 7957.5000  3292.3894     0.2052 
 7958.0000  3022.7463     0.2044 
 7958.5000  3046.2917     0.2038 
 7959.0000  3057.8342     0.2033 
 7959.5000  2346.4631     0.1947 
 7960.0000  1699.7439     0.1861 
 7960.5000   416.2474     0.1184 
 7961.0000    40.0678     0.0507 
 7961.5000    84.0305     0.0870 
 7962.0000   245.1764     0.1232 
 7962.5000   882.7603     0.1623 
 7963.0000  2079.1353     0.2015 
 7963.5000  1137.5692     0.1803 
 7964.0000   478.9251     0.1592 
 7964.5000   146.9209     0.1228 
 7965.0000    51.4920     0.0863 
 7965.5000    62.8268     0.1118 
 7966.0000    86.4010     0.0742 
 7966.5000   422.5655     0.1666 
 7967.0000  1074.6992     0.1961 
 7967.5000  1647.2245     0.2011 
 7968.0000  2405.9619     0.2061 
 7968.5000  3032.0161     0.2095 
 7969.0000  3626.1338     0.2129 
 7969.5000  3659.6790     0.2102 
 7970.0000  3462.3689     0.2075 
 7970.5000  2865.8132     0.2010 
 7971.0000  2450.6028     0.1945 
 7971.5000  2724.9629     0.1999 
 7972.0000  3152.0596     0.2054 
 7972.5000  3260.3916     0.2079 
 7973.0000  3270.0667     0.2103 
 7973.5000  3115.5203     0.2100 
 7974.0000  3070.8147     0.2097 
 7974.5000  3887.3406     0.2164 
 7975.0000  5018.3633     0.2232 
 7975.5000  5994.0977     0.2258 
 7976.0000  6822.0366     0.2283 
 7976.5000  5423.8701     0.2198 
 7977.0000  4290.2896     0.2113 
 7977.5000  6540.7168     0.2263 
 7978.0000  9660.9717     0.2412 
 7978.5000  7551.4043     0.2329 
 7979.0000  5629.0605     0.2245 
 7979.5000  3799.4792     0.2131 
 7980.0000  2449.6394     0.2018 
 7980.5000  2467.0186     0.2023 
 7981.0000  2554.0156     0.2029 
 7981.5000  3289.7351     0.2087 
 7982.0000  4108.6943     0.2145 
 7982.5000  3840.2622     0.2105 
 7983.0000  3562.5305     0.2065 
 7983.5000  3847.2512     0.2078 
 7984.0000  4229.6885     0.2091 
 7984.5000  4647.6479     0.2121 
 7985.0000  4997.4512     0.2151 
