~Version Information
 VERS.                  2.0:   CWLS log ASCII Standard -VERSION 2.0
 WRAP.                   NO:   One line per depth step
~Well Information Block
#MNEM.UNIT       Data Type    Information
#---------     -----------    ---------------------------
 STRT.F              7159.5000:
 STOP.F              8265.0000:
 STEP.F                 0.5000:
 NULL.               -999.2500:
 UWI .                CASN0033:  UWI
 API .                CASN0033:  UWI
 WELL.                 CASN-33:  COMMON WELL NAME
 COMP.               ECOPETROL:  WELL OPERATOR
 FLD .                CASTILLA:  FIELD
 LIC .                 UNKNOWN:  AUTHORIZATION NO
 LOC .                     LLA:  BASIN
 CTRY.                COLOMBIA:  COUNTRY
 STAT.                    META:  STATE
 CNTY.       CASTILLA_LA_NUEVA:  COUNTY
 PROV.                    META:  STATE
 SRVC.                 UNKNOWN:  COMPANY
 DATE.                 UNKNOWN:  LOG RUN DATE
 LONG.           -73.616507528:  LONGITUDE
 LATI.             3.893623539:  LATITUDE
 XCOORD.          1051201.2500:  X COORDINATE
 YCOORD.           922322.7500:  Y COORDINATE
 ELEV.FT             1376.0000:  ELEVATION
 TD  .FT             8280.0000:  TOTAL DEPTH
~Parameter Information Block
#MNEM.UNIT       Value        Description
#---------     -----------    ---------------------------
~Curve Information Block
#MNEM.UNIT                 API CODE     Curve Description
#---------               -----------    ---------------------------
 DEPTH.F                00 000 000 000:  Index Curve
 2019_pPerm_ANS.MD          00 000 000 000:  
 2019_pPhieE_D_ANS.V/V         00 000 000 000:  
~A DEPTH     2019_pPerm_ANS 2019_pPhieE_D_ANS
 7159.5000     0.0000     0.0000 
 7160.0000     0.0000     0.0000 
 7160.5000     0.0000     0.0000 
 7161.0000     0.0000     0.0000 
 7161.5000     0.0000     0.0000 
 7162.0000     0.0000     0.0000 
 7162.5000     0.0000     0.0001 
 7163.0000     0.0000     0.0005 
 7163.5000     0.0000     0.0009 
 7164.0000     0.0000     0.0016 
 7164.5000     0.0000     0.0019 
 7165.0000     0.0000     0.0023 
 7165.5000     0.0000     0.0031 
 7166.0000     0.0001     0.0042 
 7166.5000     0.0000     0.0037 
 7167.0000     0.0000     0.0034 
 7167.5000     0.0003     0.0077 
 7168.0000     0.1546     0.0162 
 7168.5000    22.8318     0.0648 
 7169.0000   166.5689     0.1298 
 7169.5000  1387.8658     0.1711 
 7170.0000  4643.7988     0.2123 
 7170.5000  4078.5823     0.2069 
 7171.0000  3318.1167     0.2015 
 7171.5000  3416.4148     0.2030 
 7172.0000  3589.1189     0.2045 
 7172.5000  3459.7378     0.2033 
 7173.0000  3056.7000     0.2020 
 7173.5000  1604.7473     0.1843 
 7174.0000   734.6833     0.1667 
 7174.5000   167.5753     0.1315 
 7175.0000    22.4618     0.0484 
 7175.5000     0.1296     0.0248 
 7176.0000     0.4140     0.0113 
 7176.5000     8.8934     0.0576 
 7177.0000   354.2019     0.1513 
 7177.5000   730.8413     0.1674 
 7178.0000  1301.8306     0.1835 
 7178.5000  1136.4073     0.1774 
 7179.0000   933.7701     0.1713 
 7179.5000  1038.2419     0.1755 
 7180.0000  1256.3799     0.1796 
 7180.5000  1578.1553     0.1850 
 7181.0000  1790.5413     0.1904 
 7181.5000  1045.4111     0.1745 
 7182.0000   578.2260     0.1586 
 7182.5000   709.5649     0.1667 
 7183.0000  1045.1224     0.1748 
 7183.5000  1778.4465     0.1871 
 7184.0000  2750.9917     0.1993 
 7184.5000  2485.2153     0.1957 
 7185.0000  2149.1848     0.1920 
 7185.5000  2345.7468     0.1944 
 7186.0000  2606.5398     0.1969 
 7186.5000  2835.4385     0.1988 
 7187.0000  3074.6460     0.2007 
 7187.5000  3282.1460     0.2022 
 7188.0000  3482.5732     0.2037 
 7188.5000  2635.5920     0.1968 
 7189.0000  1911.0051     0.1899 
 7189.5000   986.1265     0.1726 
 7190.0000   419.7002     0.1553 
 7190.5000    81.9328     0.0998 
 7191.0000     3.7895     0.0442 
 7191.5000     3.4360     0.0672 
 7192.0000     0.5736     0.0263 
 7192.5000     0.0119     0.0169 
 7193.0000     0.4464     0.0104 
 7193.5000     3.2621     0.0630 
 7194.0000    11.5090     0.0679 
 7194.5000    85.0910     0.1125 
 7195.0000   484.1529     0.1570 
 7195.5000  1148.5698     0.1769 
 7196.0000  2483.3582     0.1968 
 7196.5000  3357.7954     0.2026 
 7197.0000  4061.7051     0.2084 
 7197.5000  3798.5747     0.2055 
 7198.0000  3177.9749     0.2025 
 7198.5000  1899.1643     0.1893 
 7199.0000  1124.4064     0.1761 
 7199.5000   642.8935     0.1647 
 7200.0000   456.1580     0.1533 
 7200.5000   629.7735     0.1642 
 7201.0000  1019.2236     0.1751 
 7201.5000  1493.6335     0.1837 
 7202.0000  1831.0455     0.1923 
 7202.5000   669.8726     0.1609 
 7203.0000   161.4516     0.1295 
 7203.5000    26.9754     0.0878 
 7204.0000     2.5952     0.0460 
 7204.5000     1.0959     0.0481 
 7205.0000     0.2198     0.0301 
 7205.5000     0.0194     0.0017 
 7206.0000     0.0000     0.0000 
 7206.5000     0.0000     0.0000 
 7207.0000     0.0000     0.0000 
 7207.5000     0.0000     0.0000 
 7208.0000     0.0000     0.0000 
 7208.5000     0.0000     0.0000 
 7209.0000     0.0000     0.0000 
 7209.5000     0.0000     0.0001 
 7210.0000     0.0000     0.0001 
 7210.5000     0.0000     0.0003 
 7211.0000     0.0001     0.0011 
 7211.5000     0.0444     0.0232 
 7212.0000     0.2489     0.0299 
 7212.5000     0.1618     0.0238 
 7213.0000     0.2744     0.0177 
 7213.5000     1.3262     0.0524 
 7214.0000     0.2269     0.0053 
 7214.5000     0.0000     0.0025 
 7215.0000     0.0000     0.0011 
 7215.5000     0.0000     0.0004 
 7216.0000     0.0000     0.0001 
 7216.5000     0.0000     0.0000 
 7217.0000     0.0000     0.0000 
 7217.5000     0.0000     0.0000 
 7218.0000     0.0000     0.0000 
 7218.5000     0.0000     0.0000 
 7219.0000     0.0000     0.0000 
 7219.5000     0.0000     0.0000 
 7220.0000     0.0000     0.0000 
 7220.5000     0.0000     0.0000 
 7221.0000     0.1877     0.0003 
 7221.5000    15.2242     0.0471 
 7222.0000   187.0035     0.1384 
 7222.5000   370.4644     0.1520 
 7223.0000   593.8434     0.1656 
 7223.5000   484.9368     0.1586 
 7224.0000   325.3279     0.1515 
 7224.5000    80.1888     0.1098 
 7225.0000     8.7047     0.0682 
 7225.5000     1.4920     0.0462 
 7226.0000     0.2405     0.0242 
 7226.5000     0.1842     0.0239 
 7227.0000     0.3088     0.0417 
 7227.5000     0.1300     0.0287 
 7228.0000     0.0102     0.0190 
 7228.5000     0.3344     0.0316 
 7229.0000     1.4383     0.0496 
 7229.5000     2.6288     0.0577 
 7230.0000     4.2449     0.0664 
 7230.5000     2.4402     0.0563 
 7231.0000     1.3140     0.0471 
 7231.5000     2.3745     0.0560 
 7232.0000     3.7064     0.0657 
 7232.5000     0.7305     0.0236 
 7233.0000     0.1951     0.0187 
 7233.5000     1.8019     0.0467 
 7234.0000     8.5300     0.0746 
 7234.5000    31.0336     0.0984 
 7235.0000    74.2539     0.1222 
 7235.5000    55.6641     0.1129 
 7236.0000    35.1356     0.1037 
 7236.5000    21.4212     0.0945 
 7237.0000    14.6631     0.0853 
 7237.5000    16.9419     0.0904 
 7238.0000    22.8095     0.0955 
 7238.5000    31.4701     0.1021 
 7239.0000    43.2206     0.1087 
 7239.5000    51.9764     0.1120 
 7240.0000    59.3179     0.1153 
 7240.5000    58.5971     0.1144 
 7241.0000    63.8810     0.1135 
 7241.5000   104.1266     0.1257 
 7242.0000   277.0800     0.1379 
 7242.5000  1041.3669     0.1717 
 7243.0000  3532.7065     0.2054 
 7243.5000  5077.9058     0.2122 
 7244.0000  6244.8579     0.2189 
 7244.5000  5082.0596     0.2122 
 7245.0000  3905.5181     0.2056 
 7245.5000  3474.6116     0.2035 
 7246.0000  3278.4529     0.2015 
 7246.5000  3851.5991     0.2058 
 7247.0000  4646.0044     0.2102 
 7247.5000  5740.4580     0.2151 
 7248.0000  6911.8350     0.2201 
 7248.5000  6038.1895     0.2164 
 7249.0000  5150.7461     0.2126 
 7249.5000  5371.6069     0.2137 
 7250.0000  5651.9951     0.2149 
 7250.5000  5327.3271     0.2135 
 7251.0000  5055.4731     0.2121 
 7251.5000  6075.7847     0.2165 
 7252.0000  7155.4097     0.2208 
 7252.5000  6648.5420     0.2187 
 7253.0000  6245.0220     0.2165 
 7253.5000  7878.7690     0.2225 
 7254.0000  9821.0303     0.2285 
 7254.5000 10046.2861     0.2285 
 7255.0000  9926.2988     0.2285 
 7255.5000  9086.7012     0.2261 
 7256.0000  8636.0283     0.2237 
 7256.5000 10626.8799     0.2297 
 7257.0000 12689.9961     0.2358 
 7257.5000 10359.0762     0.2291 
 7258.0000  7885.5361     0.2225 
 7258.5000  5878.6289     0.2157 
 7259.0000  4632.2729     0.2089 
 7259.5000  4473.4897     0.2094 
 7260.0000  4706.1797     0.2098 
 7260.5000  5581.0864     0.2146 
 7261.0000  6693.8052     0.2194 
 7261.5000  7199.7788     0.2206 
 7262.0000  7440.1147     0.2217 
 7262.5000  7233.6299     0.2207 
 7263.0000  7124.2603     0.2197 
 7263.5000  7887.3926     0.2227 
 7264.0000  9010.7695     0.2258 
 7264.5000 10326.6611     0.2291 
 7265.0000 11504.4600     0.2324 
 7265.5000 10887.4023     0.2304 
 7266.0000 10286.4619     0.2284 
 7266.5000 11616.1172     0.2319 
 7267.0000 13485.9355     0.2354 
 7267.5000 16053.8164     0.2396 
 7268.0000 18720.6465     0.2438 
 7268.5000 18043.2969     0.2425 
 7269.0000 16833.5020     0.2413 
 7269.5000 10891.5293     0.2295 
 7270.0000  6393.8174     0.2177 
 7270.5000  3245.4292     0.1997 
 7271.0000  1344.1174     0.1816 
 7271.5000   442.8122     0.1495 
 7272.0000    77.8220     0.1173 
 7272.5000   116.9927     0.1277 
 7273.0000   182.8655     0.1380 
 7273.5000   228.1902     0.1423 
 7274.0000   267.7212     0.1467 
 7274.5000   202.8974     0.1396 
 7275.0000   157.2891     0.1324 
 7275.5000   237.3638     0.1426 
 7276.0000   442.5650     0.1528 
 7276.5000  1243.8243     0.1768 
 7277.0000  3096.7690     0.2008 
