~Version Information
 VERS.                  2.0:   CWLS log ASCII Standard -VERSION 2.0
 WRAP.                   NO:   One line per depth step
~Well Information Block
#MNEM.UNIT       Data Type    Information
#---------     -----------    ---------------------------
 STRT.F              7958.5000:
 STOP.F              9186.0000:
 STEP.F                 0.5000:
 NULL.               -999.2500:
 UWI .                CASN0032:  UWI
 API .                CASN0032:  UWI
 WELL.                 CASN-32:  COMMON WELL NAME
 COMP.               ECOPETROL:  WELL OPERATOR
 FLD .                CASTILLA:  FIELD
 LIC .                 UNKNOWN:  AUTHORIZATION NO
 LOC .                     LLA:  BASIN
 CTRY.                COLOMBIA:  COUNTRY
 STAT.                    META:  STATE
 CNTY.       CASTILLA_LA_NUEVA:  COUNTY
 PROV.                    META:  STATE
 SRVC.                 UNKNOWN:  COMPANY
 DATE.                 UNKNOWN:  LOG RUN DATE
 LONG.           -73.616332248:  LONGITUDE
 LATI.             3.893579824:  LATITUDE
 XCOORD.          1051220.7500:  X COORDINATE
 YCOORD.           922317.9375:  Y COORDINATE
 ELEV.FT             1376.0000:  ELEVATION
 TD  .FT             9217.0000:  TOTAL DEPTH
~Parameter Information Block
#MNEM.UNIT       Value        Description
#---------     -----------    ---------------------------
~Curve Information Block
#MNEM.UNIT                 API CODE     Curve Description
#---------               -----------    ---------------------------
 DEPTH.F                00 000 000 000:  Index Curve
 2019_pPerm_ANS.MD          00 000 000 000:  
 2019_pPhieE_D_ANS.V/V         00 000 000 000:  
~A DEPTH     2019_pPerm_ANS 2019_pPhieE_D_ANS
# ...
 8784.5000  1139.5410     0.1910 
 8785.0000  1407.5112     0.1973 
 8785.5000  1182.0909     0.1914 
 8786.0000   925.4025     0.1799 
 8786.5000  1575.7942     0.1985 
 8787.0000  2444.3596     0.2109 
 8787.5000  2921.4028     0.2170 
 8788.0000  2633.9336     0.2106 
 8788.5000  3562.5300     0.2224 
 8789.0000  3708.3909     0.2225 
 8789.5000  3105.8042     0.2161 
 8790.0000  2864.9465     0.2155 
 8790.5000  1666.6022     0.1960 
 8791.0000  1400.3687     0.1958 
 8791.5000   940.6694     0.1837 
 8792.0000   693.9243     0.1775 
 8792.5000   394.4917     0.1595 
 8793.0000   332.0772     0.1594 
 8793.5000   241.1463     0.1529 
 8794.0000    95.3295     0.1277 
 8794.5000    71.2991     0.1275 
 8795.0000     8.0645     0.0383 
 8795.5000     0.1390     0.0098 
 8796.0000     0.0056     0.0013 
 8796.5000     0.0002     0.0001 
 8797.0000     0.0000     0.0001 
 8797.5000     0.0000     0.0000 
 8798.0000     0.0000     0.0000 
 8798.5000     0.0000     0.0000 
 8799.0000     0.0000     0.0000 
 8799.5000     0.0000     0.0000 
 8800.0000     0.0000     0.0001 
 8800.5000     0.0000     0.0001 
 8801.0000     0.0000     0.0001 
 8801.5000     0.0000     0.0001 
 8802.0000     0.0000     0.0000 
 8802.5000     0.0000     0.0000 
 8803.0000     0.0000     0.0000 
 8803.5000     0.0000     0.0001 
 8804.0000     0.0179     0.0007 
 8804.5000     3.3462     0.0161 
 8805.0000    51.8200     0.1159 
 8805.5000  -999.2500  -999.2500 
 8806.0000   831.8400     0.1485 
 8806.5000  1141.4596     0.1549 
 8807.0000  2202.8904     0.1791 
 8807.5000  3374.9548     0.1920 
 8808.0000  4869.5991     0.2046 
 8808.5000  7262.7002     0.2113 
 8809.0000 14851.6904     0.2417 
 8809.5000 15719.5479     0.2417 
 8810.0000 15452.7363     0.2415 
 8810.5000 13676.5469     0.2351 
 8811.0000 15437.5684     0.2413 
 8811.5000 16806.9531     0.2415 
 8812.0000 20000.0000     0.2536 
 8812.5000 20000.0000     0.2599 
 8813.0000 20000.0000     0.2602 
 8813.5000 20000.0000     0.2724 
 8814.0000 20000.0000     0.2663 
 8814.5000 20000.0000     0.2602 
 8815.0000 20000.0000     0.2542 
 8815.5000 20000.0000     0.2664 
 8816.0000 20000.0000     0.2666 
 8816.5000 20000.0000     0.2787 
 8817.0000 20000.0000     0.2727 
 8817.5000 20000.0000     0.2726 
 8818.0000 20000.0000     0.2725 
 8818.5000 20000.0000     0.2726 
 8819.0000 20000.0000     0.2726 
 8819.5000 20000.0000     0.2667 
 8820.0000 20000.0000     0.2664 
 8820.5000 20000.0000     0.2538 
 8821.0000 16877.5449     0.2416 
 8821.5000 15804.3037     0.2418 
 8822.0000 18981.9375     0.2423 
 8822.5000 20000.0000     0.2667 
 8823.0000 20000.0000     0.2727 
 8823.5000 20000.0000     0.2667 
 8824.0000 20000.0000     0.2667 
 8824.5000 20000.0000     0.2664 
 8825.0000 20000.0000     0.2477 
 8825.5000 11311.6436     0.2294 
 8826.0000 10692.7412     0.2293 
 8826.5000 10514.0215     0.2293 
 8827.0000  8445.4785     0.2233 
 8827.5000  4502.1875     0.1989 
 8828.0000  3962.3828     0.1869 
 8828.5000  9661.8555     0.2292 
 8829.0000 10719.1787     0.2294 
 8829.5000 10775.0117     0.2295 
 8830.0000 11325.4619     0.2300 
 8830.5000 15069.0791     0.2418 
 8831.0000 15803.0332     0.2418 
 8831.5000 16233.2520     0.2416 
 8832.0000 18647.4824     0.2475 
 8832.5000 15660.1650     0.2413 
 8833.0000 12864.3447     0.2351 
 8833.5000 14903.2119     0.2409 
 8834.0000 15127.3945     0.2405 
 8834.5000 13025.1758     0.2335 
 8835.0000 14327.9814     0.2389 
 8835.5000 14048.8750     0.2389 
 8836.0000 12232.5225     0.2332 
 8836.5000 11468.9512     0.2330 
 8837.0000  8860.8379     0.2215 
 8837.5000  9840.9219     0.2274 
 8838.0000 10145.4082     0.2277 
 8838.5000 10245.7617     0.2280 
 8839.0000 10569.4717     0.2281 
 8839.5000 12256.1133     0.2342 
 8840.0000 12334.7002     0.2348 
 8840.5000 10659.5889     0.2287 
 8841.0000 10471.8125     0.2286 
 8841.5000 10732.7871     0.2291 
 8842.0000 12548.9355     0.2353 
 8842.5000 13028.6836     0.2359 
 8843.0000 11482.7246     0.2295 
 8843.5000 12952.4775     0.2354 
 8844.0000 17250.1680     0.2472 
 8844.5000 15684.4268     0.2413 
 8845.0000 17663.5684     0.2472 
 8845.5000 15139.1182     0.2408 
 8846.0000  9367.3789     0.2222 
 8846.5000  7266.8276     0.2161 
 8847.0000  8272.3525     0.2220 
 8847.5000  8474.5117     0.2219 
 8848.0000  8581.6279     0.2224 
 8848.5000  8594.5986     0.2224 
 8849.0000  8608.3643     0.2224 
 8849.5000  8430.0557     0.2225 
 8850.0000  7415.6270     0.2163 
 8850.5000  8152.6582     0.2223 
 8851.0000  7339.6372     0.2162 
 8851.5000  8383.5986     0.2225 
 8852.0000  8584.1074     0.2223 
 8852.5000  8554.5781     0.2222 
 8853.0000  8709.9619     0.2223 
 8853.5000 11523.9199     0.2344 
 8854.0000 10345.6113     0.2282 
 8854.5000 11578.7529     0.2338 
 8855.0000  9831.4297     0.2268 
 8855.5000  5839.4482     0.2123 
 8856.0000   363.3004     0.0490 
 8856.5000    16.8735     0.0172 
 8857.0000    10.5724     0.0078 
 8857.5000    10.9179     0.0095 
 8858.0000    11.9483     0.0132 
 8858.5000    12.2802     0.0115 
 8859.0000    16.1772     0.0230 
 8859.5000    17.6734     0.0268 
 8860.0000    13.9111     0.0152 
 8860.5000    21.7096     0.0191 
 8861.0000    68.9268     0.0753 
 8861.5000    50.6741     0.0537 
 8862.0000    80.7483     0.0776 
 8862.5000   240.0212     0.0686 
 8863.0000  2493.3982     0.1882 
 8863.5000  3031.9507     0.1890 
 8864.0000  3515.9568     0.1947 
 8864.5000  3623.5171     0.1949 
 8865.0000  3620.5869     0.1948 
 8865.5000  3688.1013     0.1947 
 8866.0000  5557.4023     0.2126 
 8866.5000  4376.9302     0.2000 
 8867.0000  4448.9087     0.2003 
 8867.5000  5417.8833     0.2069 
 8868.0000  7529.3672     0.2196 
 8868.5000  8419.6416     0.2202 
 8869.0000 11206.4541     0.2330 
 8869.5000 10315.8086     0.2275 
 8870.0000  9895.0234     0.2276 
 8870.5000  8289.5361     0.2210 
 8871.0000  6940.9580     0.2149 
 8871.5000  6815.8457     0.2150 
 8872.0000  6855.9141     0.2152 
 8872.5000  7116.4238     0.2154 
 8873.0000  8137.4814     0.2213 
 8873.5000  6803.8911     0.2147 
 8874.0000  5527.9526     0.2081 
 8874.5000  5429.7295     0.2077 
 8875.0000  5412.3872     0.2076 
 8875.5000  5618.8350     0.2077 
 8876.0000  6631.2827     0.2141 
 8876.5000  7588.5005     0.2202 
 8877.0000  6691.5830     0.2143 
 8877.5000  5951.6021     0.2085 
 8878.0000  6998.3892     0.2157 
 8878.5000  8682.0850     0.2227 
 8879.0000 10049.6309     0.2285 
 8879.5000  9128.8945     0.2225 
 8880.0000 10352.0938     0.2290 
 8880.5000 11288.2812     0.2294 
 8881.0000 16033.7188     0.2416 
 8881.5000 20000.0000     0.2540 
 8882.0000 20000.0000     0.2724 
 8882.5000 20000.0000     0.2783 
 8883.0000 20000.0000     0.2779 
 8883.5000 20000.0000     0.2771 
 8884.0000 20000.0000     0.2890 
 8884.5000 20000.0000     0.3008 
 8885.0000 20000.0000     0.3014 
 8885.5000 20000.0000     0.2832 
 8886.0000 20000.0000     0.2768 
 8886.5000 20000.0000     0.2705 
 8887.0000 20000.0000     0.2888 
 8887.5000 20000.0000     0.2649 
 8888.0000 12365.7979     0.2225 
 8888.5000 11471.2793     0.2233 
 8889.0000 20000.0000     0.2718 
 8889.5000 20000.0000     0.2658 
 8890.0000 20000.0000     0.2905 
 8890.5000 20000.0000     0.2847 
 8891.0000 20000.0000     0.2848 
 8891.5000 20000.0000     0.2848 
 8892.0000 20000.0000     0.2726 
 8892.5000 20000.0000     0.2604 
 8893.0000 20000.0000     0.2598 
 8893.5000 20000.0000     0.2539 
 8894.0000 19391.6055     0.2480 
 8894.5000 19926.1172     0.2482 
 8895.0000 20000.0000     0.2541 
 8895.5000 20000.0000     0.2602 
 8896.0000 20000.0000     0.2785 
 8896.5000 20000.0000     0.2783 
 8897.0000 20000.0000     0.2717 
 8897.5000 20000.0000     0.2591 
 8898.0000 20000.0000     0.2651 
 8898.5000 20000.0000     0.2656 
 8899.0000 20000.0000     0.2659 
 8899.5000 20000.0000     0.2542 
 8900.0000 20000.0000     0.2603 
 8900.5000 20000.0000     0.2604 
 8901.0000 20000.0000     0.2603 
 8901.5000 20000.0000     0.2726 
 8902.0000 20000.0000     0.2727 
