~Version Information
 VERS.                  2.0:   CWLS log ASCII Standard -VERSION 2.0
 WRAP.                   NO:   One line per depth step
~Well Information Block
#MNEM.UNIT       Data Type    Information
#---------     -----------    ---------------------------
 STRT.F              7125.0000:
 STOP.F              8192.5000:
 STEP.F                 0.5000:
 NULL.               -999.2500:
 UWI .                CASN0029:  UWI
 API .                CASN0029:  UWI
 WELL.                 CASN-29:  COMMON WELL NAME
 COMP.               ECOPETROL:  WELL OPERATOR
 FLD .                CASTILLA:  FIELD
 LIC .                 UNKNOWN:  AUTHORIZATION NO
 LOC .                     LLA:  BASIN
 CTRY.                COLOMBIA:  COUNTRY
 STAT.                    META:  STATE
 CNTY.       CASTILLA_LA_NUEVA:  COUNTY
 PROV.                    META:  STATE
 SRVC.                 UNKNOWN:  COMPANY
 DATE.                 UNKNOWN:  LOG RUN DATE
 LONG.           -73.616655939:  LONGITUDE
 LATI.             3.893399628:  LATITUDE
 XCOORD.          1051184.7500:  X COORDINATE
 YCOORD.           922298.0000:  Y COORDINATE
 ELEV.FT             1376.0000:  ELEVATION
 TD  .FT             8225.0000:  TOTAL DEPTH
~Parameter Information Block
#MNEM.UNIT       Value        Description
#---------     -----------    ---------------------------
~Curve Information Block
#MNEM.UNIT                 API CODE     Curve Description
#---------               -----------    ---------------------------
 DEPTH.F                00 000 000 000:  Index Curve
 2019_pPerm_ANS.MD          00 000 000 000:  
 2019_pPhieE_D_ANS.V/V         00 000 000 000:  
~A DEPTH     2019_pPerm_ANS 2019_pPhieE_D_ANS
# ...
 7951.0000  2213.2952     0.1920 
 7951.5000  2776.2043     0.2074 
 7952.0000  3183.4792     0.2076 
 7952.5000  3433.1055     0.2051 
 7953.0000  4537.2080     0.2151 
 7953.5000  5962.3726     0.2232 
 7954.0000  6214.0977     0.2207 
 7954.5000  5703.1675     0.2169 
 7955.0000  5155.4604     0.2149 
 7955.5000  4373.9033     0.2104 
 7956.0000  3934.9451     0.2092 
 7956.5000  3952.8171     0.2100 
 7957.0000  3831.6738     0.2076 
 7957.5000  4454.2549     0.2119 
 7958.0000  5225.5464     0.2174 
 7958.5000  4856.6821     0.2145 
 7959.0000  4967.8130     0.2156 
 7959.5000  5563.1704     0.2177 
 7960.0000  6198.2891     0.2215 
 7960.5000  7015.4038     0.2294 
 7961.0000  4722.3130     0.2177 
 7961.5000  2667.6638     0.2017 
 7962.0000  1414.2595     0.1853 
 7962.5000  1282.7872     0.1807 
 7963.0000  1633.3040     0.1880 
 7963.5000  1454.1130     0.1808 
 7964.0000  1205.1907     0.1725 
 7964.5000  1470.5349     0.1813 
 7965.0000  1719.2739     0.1864 
 7965.5000  2269.8164     0.1943 
 7966.0000  2753.2192     0.1973 
 7966.5000  3875.3799     0.2114 
 7967.0000  4749.2944     0.2174 
 7967.5000  4724.5552     0.2159 
 7968.0000  3615.4961     0.2048 
 7968.5000  3127.3369     0.2025 
 7969.0000  4814.2188     0.2132 
 7969.5000  7525.1367     0.2284 
 7970.0000  7003.5508     0.2242 
 7970.5000  6769.5283     0.2249 
 7971.0000  4633.2734     0.2097 
 7971.5000  4523.4482     0.2109 
 7972.0000  5135.2715     0.2196 
 7972.5000  3823.3542     0.2087 
 7973.0000  2469.4897     0.1979 
 7973.5000  1612.6215     0.1794 
 7974.0000  2440.2583     0.1989 
 7974.5000  3434.9966     0.2121 
 7975.0000  3067.8213     0.2010 
 7975.5000  3531.9028     0.2048 
 7976.0000  4059.5171     0.2072 
 7976.5000  4855.4082     0.2125 
 7977.0000  6159.5264     0.2210 
 7977.5000  5769.0796     0.2189 
 7978.0000  5044.0762     0.2145 
 7978.5000  4724.6772     0.2127 
 7979.0000  4947.2251     0.2150 
 7979.5000  5243.6226     0.2165 
 7980.0000  5655.8584     0.2188 
 7980.5000  4944.2490     0.2139 
 7981.0000  3666.5637     0.2037 
 7981.5000  3036.8821     0.1990 
 7982.0000  2347.2292     0.1941 
 7982.5000  2432.2725     0.1941 
 7983.0000  3164.5771     0.2052 
 7983.5000  3803.6426     0.2079 
 7984.0000  5002.5776     0.2190 
 7984.5000  5150.9331     0.2156 
 7985.0000  6257.8145     0.2232 
 7985.5000  5111.8706     0.2152 
 7986.0000  4570.5435     0.2107 
 7986.5000  4969.1245     0.2151 
 7987.0000  3953.1895     0.2050 
 7987.5000  3718.4412     0.2067 
 7988.0000  2841.8142     0.2031 
 7988.5000  1536.5685     0.1907 
 7989.0000   432.1538     0.1500 
 7989.5000     2.5079     0.0001 
 7990.0000    93.7220     0.0001 
 7990.5000   572.0400     0.1655 
 7991.0000  1551.3583     0.1943 
 7991.5000  2748.9014     0.2145 
 7992.0000  2806.3342     0.2143 
 7992.5000  2736.4001     0.2058 
 7993.0000  3384.9790     0.2074 
 7993.5000  3683.1653     0.2058 
 7994.0000  3994.0945     0.2056 
 7994.5000  5851.2075     0.2232 
 7995.0000  7062.1392     0.2289 
 7995.5000  8197.3096     0.2324 
 7996.0000 10105.2793     0.2391 
 7996.5000 13702.3828     0.2501 
 7997.0000 12679.8105     0.2435 
 7997.5000 12766.7148     0.2439 
 7998.0000 10023.8350     0.2348 
 7998.5000  9764.0205     0.2305 
 7999.0000 15844.4561     0.2503 
 7999.5000 11455.0410     0.2387 
 8000.0000  9313.9463     0.2345 
 8000.5000  9608.0391     0.2372 
 8001.0000  8297.9961     0.2317 
 8001.5000 11124.8994     0.2399 
 8002.0000 15198.7490     0.2500 
 8002.5000 11655.5791     0.2407 
 8003.0000  8697.1797     0.2323 
 8003.5000  5360.7241     0.2174 
 8004.0000  2695.8069     0.1980 
 8004.5000  1754.1085     0.1856 
 8005.0000  1925.0492     0.1977 
 8005.5000  2451.1697     0.2051 
 8006.0000  2387.2773     0.2002 
 8006.5000  2349.9700     0.1984 
 8007.0000  2927.1414     0.2004 
 8007.5000  4428.1084     0.2129 
 8008.0000  5288.4194     0.2222 
 8008.5000  4771.9180     0.2195 
 8009.0000  1912.3843     0.1823 
 8009.5000   628.5510     0.1536 
 8010.0000   470.1752     0.1449 
 8010.5000   353.7283     0.1378 
 8011.0000   226.3555     0.1259 
 8011.5000   131.6315     0.1186 
 8012.0000    23.9131     0.0274 
 8012.5000     0.8466     0.0000 
 8013.0000     0.4618     0.0000 
 8013.5000     0.6597     0.0000 
 8014.0000    84.8952     0.0136 
 8014.5000   732.3232     0.1710 
 8015.0000  2665.8201     0.2063 
 8015.5000  4522.9209     0.2158 
 8016.0000  4823.2148     0.2131 
 8016.5000  5506.7373     0.2173 
 8017.0000  6602.6919     0.2232 
 8017.5000  6086.8003     0.2188 
 8018.0000  6083.8833     0.2194 
 8018.5000  5408.3950     0.2137 
 8019.0000  5707.3906     0.2182 
 8019.5000  5960.6553     0.2224 
 8020.0000  4187.9399     0.2106 
 8020.5000  2011.8665     0.1849 
 8021.0000  1002.3409     0.1717 
 8021.5000  1329.9972     0.1743 
 8022.0000  3410.0625     0.2083 
 8022.5000  6725.6934     0.2327 
 8023.0000  5955.3286     0.2251 
 8023.5000  3762.4739     0.2043 
 8024.0000  4121.9639     0.2147 
 8024.5000  4619.6460     0.2172 
 8025.0000  4815.8203     0.2167 
 8025.5000  4974.1401     0.2181 
 8026.0000  4597.9038     0.2156 
 8026.5000  4541.0645     0.2160 
 8027.0000  5411.9194     0.2188 
 8027.5000  8302.9453     0.2318 
 8028.0000  7670.5884     0.2310 
 8028.5000  5820.2798     0.2230 
 8029.0000  4068.4675     0.2113 
 8029.5000  2689.3335     0.2005 
 8030.0000  2497.0234     0.1964 
 8030.5000  3227.1367     0.2054 
 8031.0000  6181.0166     0.2260 
 8031.5000  8700.7881     0.2352 
 8032.0000  9622.8994     0.2387 
 8032.5000  7867.2158     0.2300 
 8033.0000  6400.7905     0.2226 
 8033.5000  5843.0444     0.2229 
 8034.0000  6291.6289     0.2250 
 8034.5000  6344.8232     0.2251 
 8035.0000  5061.6167     0.2160 
 8035.5000  4073.0293     0.2109 
 8036.0000  2912.7800     0.2020 
 8036.5000  2761.8018     0.2008 
 8037.0000  3009.0071     0.2044 
 8037.5000  2932.0867     0.2054 
 8038.0000  3075.2195     0.2100 
 8038.5000  3435.5347     0.2107 
 8039.0000  4407.9507     0.2178 
 8039.5000  4143.5146     0.2141 
 8040.0000  4417.0449     0.2154 
 8040.5000  3960.5583     0.2070 
 8041.0000  3986.0159     0.2097 
 8041.5000  3478.9961     0.2073 
 8042.0000  2458.5945     0.1946 
 8042.5000  2250.1831     0.1914 
 8043.0000  1928.8220     0.1882 
 8043.5000  1777.3848     0.1924 
 8044.0000  1575.5740     0.1899 
 8044.5000  2383.1643     0.2039 
 8045.0000  2833.9434     0.2064 
 8045.5000  3691.0898     0.2137 
 8046.0000  4473.0146     0.2168 
 8046.5000  5143.3301     0.2204 
 8047.0000  5353.4321     0.2206 
 8047.5000  5051.2334     0.2173 
 8048.0000  4704.9014     0.2154 
 8048.5000  4054.9399     0.2106 
 8049.0000  2995.1213     0.2008 
 8049.5000  2596.2261     0.1972 
 8050.0000  3158.6755     0.2034 
 8050.5000  3583.4517     0.2081 
 8051.0000  3200.0852     0.2003 
 8051.5000  3566.1079     0.2056 
 8052.0000  4413.4604     0.2141 
 8052.5000  4670.1938     0.2163 
 8053.0000  4950.8511     0.2167 
 8053.5000  3625.1514     0.2038 
 8054.0000  2503.4749     0.1907 
 8054.5000  2405.6926     0.1927 
 8055.0000  2570.7239     0.1988 
 8055.5000  2392.8960     0.1933 
 8056.0000  2128.4038     0.1871 
 8056.5000  2957.3645     0.1968 
 8057.0000  4765.7920     0.2146 
 8057.5000  4257.3311     0.2089 
 8058.0000  3839.0251     0.2063 
 8058.5000  4666.2729     0.2132 
 8059.0000  5781.3354     0.2201 
 8059.5000  6779.3628     0.2253 
 8060.0000  5885.2041     0.2195 
 8060.5000  4065.8567     0.2079 
 8061.0000  3374.4294     0.2072 
 8061.5000  3895.3188     0.2117 
 8062.0000  4791.7417     0.2152 
 8062.5000  4443.1978     0.2136 
 8063.0000  3370.1155     0.2021 
 8063.5000  2598.9792     0.1925 
 8064.0000  2420.1282     0.1909 
 8064.5000  2552.2883     0.1944 
 8065.0000  2756.5757     0.1964 
 8065.5000  2823.2542     0.1980 
 8066.0000  2831.7317     0.1973 
 8066.5000  3189.8076     0.2012 
 8067.0000  3014.1633     0.1979 
 8067.5000  2292.8708     0.1896 
 8068.0000  2562.9270     0.1919 
 8068.5000  3057.3203     0.1996 
