~Version Information
 VERS.                  2.0:   CWLS log ASCII Standard -VERSION 2.0
 WRAP.                   NO:   One line per depth step
~Well Information Block
#MNEM.UNIT       Data Type    Information
#---------     -----------    ---------------------------
 STRT.F              7267.0000:
 STOP.F              8234.0000:
 STEP.F                 0.5000:
 NULL.               -999.2500:
 UWI .                CASN0087:  UWI
 API .                CASN0087:  UWI
 WELL.                 CASN-87:  COMMON WELL NAME
 COMP.               ECOPETROL:  WELL OPERATOR
 FLD .                CASTILLA:  FIELD
 LIC .                 UNKNOWN:  AUTHORIZATION NO
 LOC .                     LLA:  BASIN
 CTRY.                COLOMBIA:  COUNTRY
 STAT.                    META:  STATE
 CNTY.                 UNKNOWN:  COUNTY
 PROV.                    META:  STATE
 SRVC.                 UNKNOWN:  COMPANY
 DATE.                 UNKNOWN:  LOG RUN DATE
 LONG.           -73.612780838:  LONGITUDE
 LATI.             3.904697520:  LATITUDE
 XCOORD.          1051614.5000:  X COORDINATE
 YCOORD.           923547.6250:  Y COORDINATE
 ELEV.FT             1354.7550:  ELEVATION
 TD  .FT             8220.0000:  TOTAL DEPTH
~Parameter Information Block
#MNEM.UNIT       Value        Description
#---------     -----------    ---------------------------
~Curve Information Block
#MNEM.UNIT                 API CODE     Curve Description
#---------               -----------    ---------------------------
 DEPTH.F                00 000 000 000:  Index Curve
 2019_pPerm_ANS.MD          00 000 000 000:  
 2019_pPhieE_D_ANS.V/V         00 000 000 000:  
~A DEPTH     2019_pPerm_ANS 2019_pPhieE_D_ANS
# ...
 7621.0000     0.0000     0.0000 
 7621.5000     0.0000     0.0000 
 7622.0000     0.0000     0.0000 
 7622.5000     0.0000     0.0000 
 7623.0000     0.0000     0.0000 
 7623.5000     0.0000     0.0000 
 7624.0000     0.0000     0.0000 
 7624.5000     0.0000     0.0000 
 7625.0000     0.0006     0.0010 
 7625.5000     9.7492     0.0339 
 7626.0000   104.8546     0.1079 
 7626.5000   397.2100     0.1663 
 7627.0000   831.2155     0.1894 
 7627.5000  1174.7620     0.1982 
 7628.0000  1317.3519     0.2004 
 7628.5000  1255.6329     0.1984 
 7629.0000  1016.5701     0.1923 
 7629.5000   816.5183     0.1869 
 7630.0000   796.1916     0.1862 
 7630.5000   891.7777     0.1890 
 7631.0000   990.5363     0.1919 
 7631.5000  1009.7112     0.1928 
 7632.0000   884.1867     0.1892 
 7632.5000   621.3824     0.1801 
 7633.0000   393.9284     0.1698 
 7633.5000   295.3762     0.1639 
 7634.0000   261.2603     0.1613 
 7634.5000   232.0461     0.1584 
 7635.0000   216.8851     0.1567 
 7635.5000   257.1727     0.1600 
 7636.0000   377.6400     0.1682 
 7636.5000   575.3188     0.1780 
 7637.0000   801.8394     0.1863 
 7637.5000   962.0677     0.1910 
 7638.0000   956.9207     0.1909 
 7638.5000   757.0416     0.1846 
 7639.0000   491.3590     0.1741 
 7639.5000   305.7255     0.1638 
 7640.0000   219.2593     0.1570 
 7640.5000   207.3019     0.1558 
 7641.0000   286.3202     0.1616 
 7641.5000   493.4167     0.1734 
 7642.0000   755.4169     0.1848 
 7642.5000   868.6832     0.1887 
 7643.0000   794.5961     0.1863 
 7643.5000   690.4329     0.1827 
 7644.0000   607.8231     0.1795 
 7644.5000   539.6203     0.1767 
 7645.0000   504.0414     0.1751 
 7645.5000   485.7569     0.1741 
 7646.0000   448.0526     0.1721 
 7646.5000   437.1326     0.1719 
 7647.0000   516.8818     0.1772 
 7647.5000   528.5202     0.1796 
 7648.0000   308.8988     0.1395 
 7648.5000    70.5903     0.0589 
 7649.0000     0.0543     0.0086 
 7649.5000     0.0002     0.0009 
 7650.0000     0.0009     0.0020 
 7650.5000     0.0029     0.0038 
 7651.0000     0.0072     0.0063 
 7651.5000     0.0145     0.0093 
 7652.0000     0.0595     0.0162 
 7652.5000     6.3058     0.0483 
 7653.0000    12.5486     0.0817 
 7653.5000     6.6714     0.0713 
 7654.0000     0.7371     0.0520 
 7654.5000     0.5726     0.0476 
 7655.0000    10.2794     0.0659 
 7655.5000    38.9003     0.1109 
 7656.0000    80.0724     0.1418 
 7656.5000   122.0351     0.1519 
 7657.0000   147.7301     0.1566 
 7657.5000   154.5644     0.1573 
 7658.0000   160.1716     0.1574 
 7658.5000   175.8181     0.1585 
 7659.0000   178.2435     0.1574 
 7659.5000   132.3204     0.1469 
 7660.0000    64.0756     0.1259 
 7660.5000    21.5917     0.1023 
 7661.0000     7.3537     0.0860 
 7661.5000     4.2156     0.0795 
 7662.0000     3.1805     0.0762 
 7662.5000     1.8543     0.0583 
 7663.0000     0.5220     0.0253 
 7663.5000     0.0088     0.0047 
 7664.0000     0.0004     0.0008 
 7664.5000     0.0000     0.0004 
 7665.0000     0.0001     0.0005 
 7665.5000     0.0001     0.0004 
 7666.0000     0.0000     0.0003 
 7666.5000     0.0000     0.0001 
 7667.0000     0.0000     0.0000 
 7667.5000     0.0000     0.0000 
 7668.0000     0.0000     0.0000 
 7668.5000     0.0000     0.0000 
 7669.0000     0.0000     0.0000 
 7669.5000     0.0000     0.0000 
 7670.0000     0.0000     0.0002 
 7670.5000     0.0020     0.0021 
 7671.0000     0.4641     0.0189 
 7671.5000    21.7694     0.0677 
 7672.0000    73.6114     0.1232 
 7672.5000   101.3968     0.1430 
 7673.0000    75.6524     0.1333 
 7673.5000    44.3862     0.1225 
 7674.0000    56.1097     0.1268 
 7674.5000   121.9123     0.1438 
 7675.0000   183.4646     0.1563 
 7675.5000   192.3338     0.1580 
 7676.0000   198.0880     0.1583 
 7676.5000   242.7207     0.1626 
 7677.0000   282.0226     0.1666 
 7677.5000   225.4721     0.1588 
 7678.0000    96.1411     0.1247 
 7678.5000    16.3059     0.0659 
 7679.0000     0.4134     0.0163 
 7679.5000     0.1220     0.0095 
 7680.0000     1.3375     0.0395 
 7680.5000     2.6291     0.0644 
 7681.0000     1.8550     0.0610 
 7681.5000     0.6105     0.0396 
 7682.0000     0.1649     0.0138 
 7682.5000     0.0004     0.0012 
 7683.0000     0.0010     0.0017 
 7683.5000     0.0219     0.0079 
 7684.0000     0.0687     0.0184 
 7684.5000     0.1111     0.0251 
 7685.0000     0.1494     0.0283 
 7685.5000     0.2034     0.0322 
 7686.0000     0.2218     0.0334 
 7686.5000     0.1623     0.0289 
 7687.0000     0.1305     0.0262 
 7687.5000     0.2626     0.0336 
 7688.0000     4.9258     0.0602 
 7688.5000    14.2052     0.0969 
 7689.0000    19.2709     0.1137 
 7689.5000    19.1678     0.1134 
 7690.0000    16.9781     0.1108 
 7690.5000    12.9205     0.1052 
 7691.0000     7.4470     0.0842 
 7691.5000     2.2161     0.0461 
 7692.0000     0.0863     0.0181 
 7692.5000     0.0125     0.0072 
 7693.0000     0.0020     0.0030 
 7693.5000     0.0011     0.0025 
 7694.0000     0.0020     0.0033 
 7694.5000     0.0041     0.0047 
 7695.0000     0.0109     0.0077 
 7695.5000     0.0352     0.0136 
 7696.0000     0.0715     0.0202 
 7696.5000     0.0976     0.0238 
 7697.0000     0.1869     0.0294 
 7697.5000     0.7263     0.0459 
 7698.0000     1.0859     0.0512 
 7698.5000     0.5124     0.0273 
 7699.0000     0.0125     0.0058 
 7699.5000     0.0004     0.0010 
 7700.0000     0.0000     0.0002 
 7700.5000     0.0000     0.0000 
 7701.0000     0.0000     0.0000 
 7701.5000     0.0000     0.0000 
 7702.0000     0.0000     0.0002 
 7702.5000     1.6994     0.0088 
 7703.0000   333.8707     0.0699 
 7703.5000  1424.3165     0.1712 
 7704.0000  2543.6018     0.2231 
 7704.5000  2715.4233     0.2243 
 7705.0000  2099.8198     0.2174 
 7705.5000  1203.4958     0.2014 
 7706.0000   471.1700     0.1773 
 7706.5000   183.1300     0.1614 
 7707.0000   297.7424     0.1680 
 7707.5000   886.8597     0.1922 
 7708.0000  1774.3452     0.2141 
 7708.5000  2224.1509     0.2219 
 7709.0000  2027.5204     0.2197 
 7709.5000  1724.6752     0.2161 
 7710.0000  1528.2559     0.2136 
 7710.5000  1193.5988     0.2068 
 7711.0000   676.8815     0.1869 
 7711.5000   229.0794     0.1508 
 7712.0000    36.2587     0.1069 
 7712.5000     5.4263     0.0786 
 7713.0000    17.9672     0.0907 
 7713.5000   130.2719     0.1334 
 7714.0000   256.0898     0.1644 
 7714.5000   185.6944     0.1489 
 7715.0000    46.5549     0.1001 
 7715.5000     2.7871     0.0615 
 7716.0000     0.4324     0.0365 
 7716.5000     0.1136     0.0121 
 7717.0000     0.0003     0.0008 
 7717.5000     0.0753     0.0102 
 7718.0000    16.3450     0.0532 
 7718.5000   207.5402     0.1247 
 7719.0000  1084.2128     0.1848 
 7719.5000  2030.5308     0.2180 
 7720.0000  2249.7959     0.2289 
 7720.5000  1820.2595     0.2062 
 7721.0000   741.2838     0.1332 
 7721.5000    26.1744     0.0484 
 7722.0000     0.0287     0.0086 
 7722.5000     0.0016     0.0016 
 7723.0000     0.0000     0.0000 
 7723.5000     0.0000     0.0000 
 7724.0000     0.0000     0.0000 
 7724.5000     0.0000     0.0000 
 7725.0000     0.0002     0.0005 
 7725.5000     0.1511     0.0132 
 7726.0000   311.9422     0.0835 
 7726.5000  1166.9406     0.1906 
 7727.0000  2143.4341     0.2374 
 7727.5000  2254.1855     0.2235 
 7728.0000  1314.6167     0.2005 
 7728.5000   510.5904     0.1806 
 7729.0000   208.9353     0.1328 
 7729.5000    48.4398     0.0529 
 7730.0000     0.0241     0.0064 
 7730.5000     0.0000     0.0003 
 7731.0000     1.2945     0.0008 
 7731.5000    77.3617     0.0460 
 7732.0000   452.2220     0.1483 
 7732.5000  1313.3409     0.2264 
 7733.0000  2095.3350     0.2503 
 7733.5000  1928.9894     0.2472 
 7734.0000  1169.8253     0.2259 
 7734.5000   540.2466     0.1613 
 7735.0000   139.6997     0.0636 
 7735.5000     1.6142     0.0082 
 7736.0000     0.0001     0.0003 
 7736.5000     0.0000     0.0000 
 7737.0000     0.0010     0.0012 
 7737.5000    79.5541     0.0470 
 7738.0000   470.0578     0.1489 
 7738.5000  1668.4658     0.2290 
