~Version Information
 VERS.                  2.0:   CWLS log ASCII Standard -VERSION 2.0
 WRAP.                   NO:   One line per depth step
~Well Information Block
#MNEM.UNIT       Data Type    Information
#---------     -----------    ---------------------------
 STRT.F              8011.0000:
 STOP.F              9260.0000:
 STEP.F                 0.5000:
 NULL.               -999.2500:
 UWI .                CASN0030:  UWI
 API .                CASN0030:  UWI
 WELL.                 CASN-30:  COMMON WELL NAME
 COMP.               ECOPETROL:  WELL OPERATOR
 FLD .                CASTILLA:  FIELD
 LIC .                 UNKNOWN:  AUTHORIZATION NO
 LOC .                     LLA:  BASIN
 CTRY.                COLOMBIA:  COUNTRY
 STAT.                    META:  STATE
 CNTY.       CASTILLA_LA_NUEVA:  COUNTY
 PROV.                    META:  STATE
 SRVC.                 UNKNOWN:  COMPANY
 DATE.                 UNKNOWN:  LOG RUN DATE
 LONG.           -73.616480936:  LONGITUDE
 LATI.             3.893355943:  LATITUDE
 XCOORD.          1051204.2500:  X COORDINATE
 YCOORD.           922293.1875:  Y COORDINATE
 ELEV.FT             1376.0000:  ELEVATION
 TD  .FT             9235.0000:  TOTAL DEPTH
~Parameter Information Block
#MNEM.UNIT       Value        Description
#---------     -----------    ---------------------------
~Curve Information Block
#MNEM.UNIT                 API CODE     Curve Description
#---------               -----------    ---------------------------
 DEPTH.F                00 000 000 000:  Index Curve
 2019_pPerm_ANS.MD          00 000 000 000:  
 2019_pPhieE_D_ANS.V/V         00 000 000 000:  
~A DEPTH     2019_pPerm_ANS 2019_pPhieE_D_ANS
# ...
 9191.0000  7764.8955     0.2316 
 9191.5000  7923.2095     0.2312 
 9192.0000  7626.8984     0.2292 
 9192.5000  7480.2690     0.2271 
 9193.0000  8313.6836     0.2312 
 9193.5000  9802.6943     0.2369 
 9194.0000 11333.1445     0.2427 
 9194.5000 11415.2588     0.2416 
 9195.0000 11274.0107     0.2405 
 9195.5000 11513.2188     0.2412 
 9196.0000 11952.1865     0.2430 
 9196.5000 12380.8467     0.2445 
 9197.0000 11368.1348     0.2430 
 9197.5000  9455.1768     0.2364 
 9198.0000  8641.9805     0.2321 
 9198.5000  9751.1318     0.2368 
 9199.0000 15550.0625     0.2508 
 9199.5000 20000.0000     0.2640 
 9200.0000 20000.0000     0.2664 
 9200.5000 20000.0000     0.2622 
 9201.0000 17838.4863     0.2564 
 9201.5000 15849.3887     0.2528 
 9202.0000 14619.0879     0.2500 
 9202.5000 14161.5889     0.2483 
 9203.0000 16165.0654     0.2527 
 9203.5000 19165.3164     0.2595 
 9204.0000 19750.6074     0.2609 
 9204.5000 17178.9824     0.2564 
 9205.0000 13421.1514     0.2471 
 9205.5000 11673.5898     0.2433 
 9206.0000  8601.3350     0.2321 
 9206.5000  5456.9810     0.2153 
 9207.0000  3854.9624     0.2061 
 9207.5000  5404.9927     0.2141 
 9208.0000  9923.8018     0.2387 
 9208.5000 17687.6777     0.2582 
 9209.0000 20000.0000     0.2642 
 9209.5000 20000.0000     0.2633 
 9210.0000 19575.1641     0.2593 
 9210.5000 18314.0723     0.2578 
 9211.0000 17011.6250     0.2553 
 9211.5000 15751.9482     0.2527 
 9212.0000 14432.6279     0.2501 
 9212.5000 12867.1660     0.2455 
 9213.0000 12126.4873     0.2469 
 9213.5000  6953.0146     0.2218 
 9214.0000  6737.2588     0.2268 
 9214.5000  6652.1069     0.2252 
 9215.0000  6314.3594     0.2259 
 9215.5000  6059.5952     0.2261 
 9216.0000  6063.1265     0.2285 
 9216.5000  6206.7988     0.2293 
 9217.0000  6647.9624     0.2319 
 9217.5000  6849.2827     0.2325 
 9218.0000  6859.7988     0.2330 
 9218.5000  6471.9033     0.2307 
 9219.0000  6164.9595     0.2288 
 9219.5000  6129.9644     0.2290 
 9220.0000  6430.3608     0.2304 
 9220.5000  6811.1948     0.2324 
 9221.0000  6948.4927     0.2331 
 9221.5000  6980.3032     0.2332 
 9222.0000  6919.3677     0.2331 
 9222.5000  6620.5610     0.2315 
 9223.0000  6303.1968     0.2298 
 9223.5000  6142.8389     0.2290 
 9224.0000  6134.1006     0.2290 
 9224.5000  5328.6689     0.2290 
 9225.0000   643.2966     0.0001 
 9225.5000     4.6654     0.0001 
 9226.0000     4.6654     0.0001 
 9226.5000     4.6654     0.0001 
 9227.0000     4.6654     0.0001 
 9227.5000     4.6654     0.0001 
 9228.0000     4.6654     0.0001 
 9228.5000     4.6654     0.0001 
 9229.0000     4.6654     0.0001 
 9229.5000     4.6654     0.0001 
 9230.0000     4.6654     0.0001 
 9230.5000     4.6654     0.0001 
 9231.0000     4.6654     0.0001 
 9231.5000     4.6654     0.0001 
 9232.0000     4.6654     0.0001 
 9232.5000     4.6654     0.0001 
 9233.0000     4.6654     0.0001 
 9233.5000     4.6654     0.0001 
 9234.0000     4.6654     0.0001 
 9234.5000     4.6654     0.0001 
 9235.0000     4.6654     0.0001 
 9235.5000     4.6654     0.0001 
 9236.0000     4.6635     0.0001 
 9236.5000     4.6534     0.0000 
 9237.0000     4.6523     0.0000 
 9237.5000     4.6523     0.0000 
 9238.0000     4.6523     0.0000 
 9238.5000     4.6523     0.0000 
 9239.0000     4.6523     0.0000 
 9239.5000     4.6523     0.0000 
 9240.0000     4.6523     0.0000 
 9240.5000     4.6523     0.0000 
 9241.0000     4.6523     0.0000 
 9241.5000     4.6523     0.0000 
 9242.0000     4.6523     0.0000 
 9242.5000     4.6523     0.0000 
 9243.0000     4.6523     0.0000 
 9243.5000     4.6523     0.0000 
 9244.0000     4.6523     0.0000 
 9244.5000     4.6523     0.0000 
 9245.0000     4.6523     0.0000 
 9245.5000     4.6523     0.0000 
 9246.0000     4.6523     0.0000 
 9246.5000     4.6523     0.0000 
 9247.0000     4.6523     0.0000 
 9247.5000     4.6523     0.0000 
 9248.0000     4.6523     0.0000 
 9248.5000     4.6523     0.0000 
 9249.0000     4.6523     0.0000 
 9249.5000     4.6523     0.0000 
 9250.0000     4.6523     0.0000 
 9250.5000     4.6523     0.0000 
 9251.0000     4.6523     0.0000 
 9251.5000     4.6523     0.0000 
 9252.0000     4.6523     0.0000 
 9252.5000     4.6523     0.0000 
 9253.0000     4.6523     0.0000 
 9253.5000     4.6523     0.0000 
 9254.0000     4.6523     0.0000 
 9254.5000     4.6523     0.0000 
 9255.0000     4.6523     0.0000 
 9255.5000     4.6523     0.0000 
 9256.0000     4.6523     0.0000 
 9256.5000     4.6523     0.0000 
 9257.0000     4.6523     0.0000 
 9257.5000     4.6523     0.0000 
 9258.0000     4.6523     0.0000 
 9258.5000     4.6523     0.0000 
 9259.0000     4.6523     0.0000 
 9259.5000     4.6523     0.0000 
 9260.0000     4.6523     0.0000 
