~Version Information
 VERS.                  2.0:   CWLS log ASCII Standard -VERSION 2.0
 WRAP.                   NO:   One line per depth step
~Well Information Block
#MNEM.UNIT       Data Type    Information
#---------     -----------    ---------------------------
 STRT.F              7375.0000:
 STOP.F              8337.5000:
 STEP.F                 0.5000:
 NULL.               -999.2500:
 UWI .                CASN0038:  UWI
 API .                CASN0038:  UWI
 WELL.                 CASN-38:  COMMON WELL NAME
 COMP.               ECOPETROL:  WELL OPERATOR
 FLD .                CASTILLA:  FIELD
 LIC .                 UNKNOWN:  AUTHORIZATION NO
 LOC .                     LLA:  BASIN
 CTRY.                COLOMBIA:  COUNTRY
 STAT.                    META:  STATE
 CNTY.       CASTILLA_LA_NUEVA:  COUNTY
 PROV.                    META:  STATE
 SRVC.                 UNKNOWN:  COMPANY
 DATE.                 UNKNOWN:  LOG RUN DATE
 LONG.           -73.615687866:  LONGITUDE
 LATI.             3.887258472:  LATITUDE
 XCOORD.          1051292.6250:  X COORDINATE
 YCOORD.           921618.9375:  Y COORDINATE
 ELEV.FT             1369.0000:  ELEVATION
 TD  .FT             8358.0000:  TOTAL DEPTH
~Parameter Information Block
#MNEM.UNIT       Value        Description
#---------     -----------    ---------------------------
~Curve Information Block
#MNEM.UNIT                 API CODE     Curve Description
#---------               -----------    ---------------------------
 DEPTH.F                00 000 000 000:  Index Curve
 2019_pPerm_ANS.MD          00 000 000 000:  
 2019_pPhieE_D_ANS.V/V         00 000 000 000:  
~A DEPTH     2019_pPerm_ANS 2019_pPhieE_D_ANS
# ...
 7611.0000     0.0000     0.0001 
 7611.5000     0.0000     0.0000 
 7612.0000     0.0000     0.0000 
 7612.5000     0.0000     0.0000 
 7613.0000     0.0000     0.0001 
 7613.5000     0.0000     0.0000 
 7614.0000     0.0000     0.0001 
 7614.5000     0.0000     0.0001 
 7615.0000     0.0000     0.0006 
 7615.5000     0.0000     0.0001 
 7616.0000     0.0000     0.0001 
 7616.5000     0.0000     0.0001 
 7617.0000     0.0000     0.0003 
 7617.5000     0.0000     0.0001 
 7618.0000     0.0001     0.0042 
 7618.5000     0.0003     0.0096 
 7619.0000     0.0004     0.0122 
 7619.5000     0.0001     0.0011 
 7620.0000     0.0005     0.0143 
 7620.5000     0.0002     0.0052 
 7621.0000     0.4592     0.0028 
 7621.5000     4.6380     0.0668 
 7622.0000    10.3321     0.0805 
 7622.5000    24.1894     0.0931 
 7623.0000    55.4987     0.1141 
 7623.5000    71.1120     0.1096 
 7624.0000   183.5645     0.1383 
 7624.5000   189.0785     0.1341 
 7625.0000   332.2043     0.1505 
 7625.5000  1157.8708     0.1841 
 7626.0000   600.0664     0.1615 
 7626.5000  1564.9412     0.1809 
 7627.0000  3406.4231     0.2040 
 7627.5000  1653.2574     0.1847 
 7628.0000   127.5427     0.0372 
 7628.5000     0.0345     0.0018 
 7629.0000     0.0000     0.0005 
 7629.5000     0.0000     0.0002 
 7630.0000     0.0000     0.0000 
 7630.5000     0.0000     0.0000 
 7631.0000     0.0000     0.0001 
 7631.5000     0.0000     0.0000 
 7632.0000     0.0000     0.0006 
 7632.5000     0.0000     0.0015 
 7633.0000     0.0000     0.0021 
 7633.5000     0.0000     0.0005 
 7634.0000     0.0000     0.0001 
 7634.5000     0.0000     0.0002 
 7635.0000     0.0000     0.0001 
 7635.5000     0.0000     0.0000 
 7636.0000     0.0000     0.0001 
 7636.5000     0.0000     0.0007 
 7637.0000     0.0000     0.0018 
 7637.5000     0.0000     0.0014 
 7638.0000     0.0000     0.0001 
 7638.5000     0.0000     0.0001 
 7639.0000     0.0000     0.0000 
 7639.5000     0.0000     0.0000 
 7640.0000     0.0000     0.0000 
 7640.5000     0.0000     0.0002 
 7641.0000     0.0000     0.0004 
 7641.5000     0.0002     0.0010 
 7642.0000     0.0002     0.0009 
 7642.5000     0.0000     0.0000 
 7643.0000     0.0000     0.0000 
 7643.5000     0.0000     0.0000 
 7644.0000     0.0000     0.0003 
 7644.5000     0.0003     0.0014 
 7645.0000     0.0000     0.0003 
 7645.5000     0.0000     0.0000 
 7646.0000     0.0000     0.0001 
 7646.5000     0.0000     0.0001 
 7647.0000     0.0000     0.0001 
 7647.5000     0.0001     0.0001 
 7648.0000     0.0005     0.0017 
 7648.5000     0.0012     0.0027 
 7649.0000     0.0025     0.0041 
 7649.5000     0.0267     0.0069 
 7650.0000     0.1593     0.0316 
 7650.5000     0.2877     0.0439 
 7651.0000     0.1850     0.0106 
 7651.5000     1.1753     0.0607 
 7652.0000     2.5430     0.0824 
 7652.5000     1.1102     0.0616 
 7653.0000     1.7342     0.0302 
 7653.5000     8.6330     0.1042 
 7654.0000     2.0901     0.0545 
 7654.5000     0.3780     0.0425 
 7655.0000     0.7686     0.0599 
 7655.5000     0.6419     0.0539 
 7656.0000     0.1070     0.0008 
 7656.5000     0.0000     0.0000 
 7657.0000     0.0000     0.0000 
 7657.5000     0.0000     0.0000 
 7658.0000     0.0000     0.0000 
 7658.5000     0.0000     0.0000 
 7659.0000     0.0000     0.0000 
 7659.5000     0.0000     0.0000 
 7660.0000     0.0000     0.0000 
 7660.5000     0.0000     0.0000 
 7661.0000     0.0000     0.0000 
 7661.5000     0.0000     0.0000 
 7662.0000     0.0000     0.0000 
 7662.5000     0.0000     0.0000 
 7663.0000     0.0000     0.0000 
 7663.5000     0.0000     0.0000 
 7664.0000     0.0000     0.0000 
 7664.5000     0.0000     0.0000 
 7665.0000     0.0000     0.0000 
 7665.5000     0.0000     0.0000 
 7666.0000     0.0001     0.0001 
 7666.5000     0.0023     0.0049 
 7667.0000     0.0007     0.0020 
 7667.5000     0.0001     0.0004 
 7668.0000     0.0000     0.0001 
 7668.5000     0.0000     0.0002 
 7669.0000     0.0000     0.0001 
 7669.5000     0.0000     0.0001 
 7670.0000     0.0000     0.0000 
 7670.5000     0.0000     0.0000 
 7671.0000     0.0000     0.0002 
 7671.5000     0.0000     0.0001 
 7672.0000     0.0000     0.0001 
 7672.5000     0.0002     0.0003 
 7673.0000     0.0012     0.0035 
 7673.5000     0.0002     0.0000 
 7674.0000     0.0000     0.0000 
 7674.5000     0.0000     0.0000 
 7675.0000     0.0000     0.0000 
 7675.5000     0.0000     0.0000 
 7676.0000     0.0000     0.0001 
 7676.5000     0.0000     0.0000 
 7677.0000     0.0000     0.0000 
 7677.5000     0.0000     0.0000 
 7678.0000     0.0000     0.0000 
 7678.5000     0.0000     0.0000 
 7679.0000     0.0000     0.0000 
 7679.5000     0.0000     0.0000 
 7680.0000     0.0000     0.0000 
 7680.5000     0.0001     0.0005 
 7681.0000     0.0001     0.0007 
 7681.5000     0.0000     0.0001 
 7682.0000     0.0000     0.0000 
 7682.5000     0.0000     0.0000 
 7683.0000     0.0000     0.0000 
 7683.5000     0.0000     0.0000 
 7684.0000     0.0000     0.0000 
 7684.5000     0.0000     0.0000 
 7685.0000     0.0000     0.0000 
 7685.5000     0.0000     0.0001 
 7686.0000     0.0000     0.0000 
 7686.5000     0.0000     0.0000 
 7687.0000     0.0000     0.0001 
 7687.5000     0.0000     0.0001 
 7688.0000     0.0000     0.0000 
 7688.5000     0.0002     0.0000 
 7689.0000     0.0027     0.0031 
 7689.5000     0.0306     0.0164 
 7690.0000     0.0441     0.0188 
 7690.5000     0.0347     0.0166 
 7691.0000     0.0226     0.0134 
 7691.5000     0.0137     0.0104 
 7692.0000     0.0069     0.0072 
 7692.5000     0.0032     0.0044 
 7693.0000     0.0038     0.0049 
 7693.5000     0.0364     0.0082 
 7694.0000     0.1955     0.0394 
 7694.5000     0.0325     0.0089 
 7695.0000     0.0018     0.0015 
 7695.5000     0.0002     0.0010 
 7696.0000     0.0005     0.0013 
 7696.5000     0.0036     0.0032 
 7697.0000     0.0358     0.0199 
 7697.5000     0.0037     0.0048 
 7698.0000     0.0005     0.0003 
 7698.5000     0.0000     0.0002 
 7699.0000     0.0001     0.0002 
 7699.5000     0.0004     0.0016 
 7700.0000     0.0005     0.0019 
 7700.5000     0.0004     0.0016 
 7701.0000     0.0036     0.0027 
 7701.5000     0.0274     0.0123 
 7702.0000     0.1139     0.0295 
 7702.5000     0.2638     0.0299 
 7703.0000     1.7072     0.0671 
 7703.5000     4.8173     0.0923 
 7704.0000     3.4248     0.0818 
 7704.5000     2.3810     0.0767 
 7705.0000     1.5733     0.0629 
 7705.5000     4.4155     0.0819 
 7706.0000    10.5586     0.1018 
 7706.5000     3.4663     0.0754 
 7707.0000     1.8158     0.0721 
 7707.5000     2.2338     0.0757 
 7708.0000     2.4887     0.0761 
 7708.5000     4.3072     0.0838 
 7709.0000     6.8552     0.0927 
 7709.5000    13.0575     0.0958 
 7710.0000    37.3447     0.1304 
 7710.5000     6.4573     0.0202 
 7711.0000     0.0178     0.0110 
 7711.5000     0.0130     0.0110 
 7712.0000     0.0067     0.0037 
 7712.5000     0.1239     0.0176 
 7713.0000     0.5383     0.0549 
 7713.5000     0.0899     0.0064 
 7714.0000     0.0047     0.0061 
 7714.5000     0.0037     0.0055 
 7715.0000     0.0006     0.0007 
 7715.5000     0.0001     0.0007 
 7716.0000     0.0002     0.0010 
 7716.5000     0.0002     0.0009 
 7717.0000     0.0002     0.0008 
 7717.5000     0.0008     0.0022 
 7718.0000     0.0027     0.0049 
 7718.5000     0.0030     0.0048 
 7719.0000     0.0016     0.0030 
 7719.5000     0.0012     0.0029 
 7720.0000     0.0002     0.0001 
 7720.5000     0.0000     0.0003 
 7721.0000     0.0001     0.0006 
 7721.5000     0.0001     0.0005 
 7722.0000     0.0005     0.0011 
 7722.5000     0.0016     0.0037 
 7723.0000     0.0010     0.0024 
 7723.5000     0.0009     0.0024 
 7724.0000     0.0007     0.0022 
 7724.5000     0.0004     0.0015 
 7725.0000     0.0002     0.0009 
 7725.5000     0.0001     0.0005 
 7726.0000     0.0004     0.0005 
 7726.5000     0.0021     0.0044 
 7727.0000     0.0025     0.0036 
 7727.5000     0.0082     0.0097 
 7728.0000     0.0008     0.0012 
 7728.5000     0.0030     0.0057 
