~Version Information
 VERS.                  2.0:   CWLS log ASCII Standard -VERSION 2.0
 WRAP.                   NO:   One line per depth step
~Well Information Block
#MNEM.UNIT       Data Type    Information
#---------     -----------    ---------------------------
 STRT.F              7958.5000:
 STOP.F              9186.0000:
 STEP.F                 0.5000:
 NULL.               -999.2500:
 UWI .                CASN0032:  UWI
 API .                CASN0032:  UWI
 WELL.                 CASN-32:  COMMON WELL NAME
 COMP.               ECOPETROL:  WELL OPERATOR
 FLD .                CASTILLA:  FIELD
 LIC .                 UNKNOWN:  AUTHORIZATION NO
 LOC .                     LLA:  BASIN
 CTRY.                COLOMBIA:  COUNTRY
 STAT.                    META:  STATE
 CNTY.       CASTILLA_LA_NUEVA:  COUNTY
 PROV.                    META:  STATE
 SRVC.                 UNKNOWN:  COMPANY
 DATE.                 UNKNOWN:  LOG RUN DATE
 LONG.           -73.616332248:  LONGITUDE
 LATI.             3.893579824:  LATITUDE
 XCOORD.          1051220.7500:  X COORDINATE
 YCOORD.           922317.9375:  Y COORDINATE
 ELEV.FT             1376.0000:  ELEVATION
 TD  .FT             9217.0000:  TOTAL DEPTH
~Parameter Information Block
#MNEM.UNIT       Value        Description
#---------     -----------    ---------------------------
~Curve Information Block
#MNEM.UNIT                 API CODE     Curve Description
#---------               -----------    ---------------------------
 DEPTH.F                00 000 000 000:  Index Curve
 2019_pPerm_ANS.MD          00 000 000 000:  
 2019_pPhieE_D_ANS.V/V         00 000 000 000:  
~A DEPTH     2019_pPerm_ANS 2019_pPhieE_D_ANS
# ...
 9020.5000  7548.3145     0.2172 
 9021.0000  8918.7236     0.2235 
 9021.5000 12286.4551     0.2354 
 9022.0000 13056.0527     0.2355 
 9022.5000 14815.8242     0.2415 
 9023.0000 13072.8867     0.2357 
 9023.5000 10638.6309     0.2298 
 9024.0000  7672.9082     0.2175 
 9024.5000  7185.5811     0.2175 
 9025.0000  6351.4106     0.2114 
 9025.5000  6983.1392     0.2172 
 9026.0000  6533.4131     0.2111 
 9026.5000  8779.5693     0.2235 
 9027.0000 10290.9434     0.2297 
 9027.5000  9103.0537     0.2235 
 9028.0000  8952.2686     0.2237 
 9028.5000  8972.3203     0.2238 
 9029.0000  9236.9395     0.2236 
 9029.5000 10674.0557     0.2299 
 9030.0000  9182.3232     0.2233 
 9030.5000  8957.9834     0.2236 
 9031.0000 10484.5684     0.2296 
 9031.5000 10815.9551     0.2298 
 9032.0000  9245.4863     0.2236 
 9032.5000  8924.3516     0.2236 
 9033.0000  8714.7686     0.2237 
 9033.5000  7372.8169     0.2177 
 9034.0000  5410.6553     0.2054 
 9034.5000  5125.7314     0.2053 
 9035.0000  6134.9614     0.2115 
 9035.5000  7424.4102     0.2176 
 9036.0000  8396.2861     0.2238 
 9036.5000  6459.4165     0.2115 
 9037.0000  5973.9692     0.2114 
 9037.5000  5538.3638     0.2056 
 9038.0000  7346.6030     0.2177 
 9038.5000  8496.1309     0.2237 
 9039.0000  7516.1396     0.2176 
 9039.5000  7213.5981     0.2177 
 9040.0000  6170.1108     0.2118 
 9040.5000  5844.7930     0.2053 
 9041.0000  8875.5059     0.2235 
 9041.5000 10459.5596     0.2296 
 9042.0000 10789.3398     0.2296 
 9042.5000 13161.9238     0.2358 
 9043.0000 15901.6270     0.2419 
 9043.5000 18740.5703     0.2481 
 9044.0000 19097.5176     0.2482 
 9044.5000 16474.5703     0.2422 
 9045.0000 15606.9951     0.2419 
 9045.5000 13432.6836     0.2356 
 9046.0000 13409.0029     0.2358 
 9046.5000 15616.0312     0.2422 
 9047.0000 15880.4863     0.2419 
 9047.5000 15952.8896     0.2421 
 9048.0000 15683.2070     0.2424 
 9048.5000 13510.6182     0.2362 
 9049.0000 13557.3809     0.2360 
 9049.5000 15333.0742     0.2417 
 9050.0000 12190.6084     0.2346 
 9050.5000  7150.2803     0.2153 
 9051.0000  6561.7319     0.2154 
 9051.5000  4829.5986     0.2038 
 9052.0000  4178.4858     0.1984 
 9052.5000  4128.2612     0.1988 
 9053.0000  6514.4438     0.2112 
 9053.5000 10706.7305     0.2297 
 9054.0000 13734.0537     0.2359 
 9054.5000 18788.4492     0.2480 
 9055.0000 19971.1367     0.2483 
 9055.5000 20000.0000     0.2544 
 9056.0000 20000.0000     0.2545 
 9056.5000 19908.7461     0.2484 
 9057.0000 19467.0547     0.2485 
 9057.5000 18999.3730     0.2484 
 9058.0000 16358.4795     0.2421 
 9058.5000 15952.1143     0.2422 
 9059.0000 15509.1895     0.2417 
 9059.5000 13117.6475     0.2350 
 9060.0000 11752.0557     0.2332 
 9060.5000  7251.5781     0.2146 
 9061.0000  4891.4722     0.2031 
 9061.5000  6494.5718     0.2161 
 9062.0000  6007.5273     0.2106 
 9062.5000  9477.6670     0.2231 
 9063.0000 15630.2822     0.2417 
 9063.5000 13497.1777     0.2356 
 9064.0000 13190.5693     0.2361 
 9064.5000 12278.0693     0.2360 
 9065.0000  7649.5957     0.2177 
 9065.5000  5227.4775     0.2051 
 9066.0000  4181.8872     0.1987 
 9066.5000  4254.8379     0.1991 
 9067.0000  4841.5381     0.2054 
 9067.5000  4276.3994     0.1993 
 9068.0000  4187.4419     0.1996 
 9068.5000  4143.4038     0.1991 
 9069.0000  3910.5095     0.1987 
 9069.5000  2919.1079     0.1866 
 9070.0000  2838.5518     0.1871 
 9070.5000  2896.7476     0.1873 
 9071.0000  3975.9473     0.1932 
 9071.5000  7286.4512     0.2175 
 9072.0000  9907.4834     0.2240 
 9072.5000 15927.4180     0.2422 
 9073.0000 16038.5967     0.2423 
 9073.5000 15936.8018     0.2422 
 9074.0000 13304.0742     0.2362 
 9074.5000 10909.8232     0.2299 
 9075.0000  9007.6943     0.2236 
 9075.5000  7618.9766     0.2176 
 9076.0000  8972.6123     0.2236 
 9076.5000 10626.6328     0.2297 
 9077.0000 10566.1621     0.2297 
 9077.5000  9385.8096     0.2238 
 9078.0000 10845.8613     0.2296 
 9078.5000 12505.7871     0.2358 
 9079.0000 11345.0762     0.2298 
 9079.5000 12240.3730     0.2360 
 9080.0000  9097.5967     0.2238 
 9080.5000  6138.6187     0.2115 
 9081.0000  3608.0405     0.1931 
 9081.5000  3529.7307     0.1929 
 9082.0000  4135.6201     0.1990 
 9082.5000  5275.8062     0.2054 
 9083.0000  7397.6162     0.2176 
 9083.5000  8233.8721     0.2237 
 9084.0000  6139.5308     0.2114 
 9084.5000  5938.2588     0.2116 
 9085.0000  5055.5957     0.2051 
 9085.5000  5917.8530     0.2052 
 9086.0000 11278.7402     0.2296 
 9086.5000 20000.0000     0.2543 
 9087.0000 20000.0000     0.2667 
 9087.5000 20000.0000     0.2727 
 9088.0000 20000.0000     0.2788 
 9088.5000 20000.0000     0.2667 
 9089.0000 20000.0000     0.2606 
 9089.5000 20000.0000     0.2543 
 9090.0000 18845.6543     0.2479 
 9090.5000 13123.0508     0.2354 
 9091.0000  9041.1318     0.2233 
 9091.5000  6223.3452     0.2112 
 9092.0000  5919.4019     0.2115 
 9092.5000  5154.1206     0.2053 
 9093.0000  6991.4292     0.2175 
 9093.5000  7400.5117     0.2176 
 9094.0000  7610.7144     0.2174 
 9094.5000  8887.7549     0.2236 
 9095.0000  8996.8096     0.2239 
 9095.5000  9240.3770     0.2240 
 9096.0000 11945.8896     0.2362 
 9096.5000  9672.6836     0.2240 
 9097.0000 13546.2168     0.2362 
 9097.5000 18822.2422     0.2483 
 9098.0000 19449.4336     0.2485 
 9098.5000 18999.5508     0.2483 
 9099.0000 16874.0293     0.2423 
 9099.5000 18462.7910     0.2482 
 9100.0000 16802.8418     0.2424 
 9100.5000 19590.6250     0.2485 
 9101.0000 20000.0000     0.2545 
 9101.5000 20000.0000     0.2545 
 9102.0000 19684.1289     0.2484 
 9102.5000 19445.1855     0.2484 
 9103.0000 19554.0508     0.2483 
 9103.5000 20000.0000     0.2545 
 9104.0000 20000.0000     0.2544 
 9104.5000 20000.0000     0.2542 
 9105.0000 18871.5645     0.2479 
 9105.5000  7460.2568     0.2109 
 9106.0000  2074.6123     0.1745 
 9106.5000  1115.4647     0.1502 
 9107.0000  1318.3680     0.1623 
 9107.5000  2139.6133     0.1743 
 9108.0000  4221.5391     0.1990 
 9108.5000  7350.1318     0.2172 
 9109.0000 10681.2969     0.2298 
 9109.5000 12535.0088     0.2357 
 9110.0000 11190.1387     0.2300 
 9110.5000 11139.5557     0.2300 
 9111.0000 12703.1748     0.2356 
 9111.5000 13269.3047     0.2357 
 9112.0000 15035.8447     0.2420 
 9112.5000 13668.1270     0.2359 
 9113.0000 18232.5508     0.2480 
 9113.5000 19158.0684     0.2479 
 9114.0000 16868.9629     0.2476 
 9114.5000  6039.0781     0.2109 
 9115.0000  1968.7130     0.1627 
 9115.5000   625.8677     0.1380 
 9116.0000   534.8539     0.1318 
 9116.5000   611.7084     0.1377 
 9117.0000   903.2518     0.1489 
 9117.5000  1248.0648     0.1645 
 9118.0000   216.7864     0.0215 
 9118.5000     9.4275     0.0025 
 9119.0000    11.9521     0.0042 
 9119.5000   228.0036     0.0426 
 9120.0000  1701.9706     0.1712 
 9120.5000  3548.9182     0.1911 
 9121.0000  7327.8335     0.2165 
 9121.5000 12408.3008     0.2351 
 9122.0000 16012.2930     0.2415 
 9122.5000 20000.0000     0.2538 
 9123.0000 20000.0000     0.2602 
 9123.5000 20000.0000     0.2663 
 9124.0000 20000.0000     0.2605 
 9124.5000 20000.0000     0.2606 
 9125.0000 20000.0000     0.2666 
 9125.5000 20000.0000     0.2666 
 9126.0000 20000.0000     0.2724 
 9126.5000 20000.0000     0.2659 
 9127.0000 19702.2012     0.2475 
 9127.5000 18154.4629     0.2470 
 9128.0000 15391.6406     0.2408 
 9128.5000 13515.3232     0.2349 
 9129.0000 15909.2920     0.2410 
 9129.5000 20000.0000     0.2535 
 9130.0000 19483.6777     0.2477 
 9130.5000 19097.2559     0.2478 
 9131.0000 19147.5488     0.2479 
 9131.5000 19172.3906     0.2480 
 9132.0000 19188.7637     0.2480 
 9132.5000 18870.4609     0.2479 
 9133.0000 15914.3428     0.2419 
 9133.5000 13299.9912     0.2356 
 9134.0000 14833.6406     0.2416 
 9134.5000 12934.9951     0.2354 
 9135.0000 11382.5420     0.2292 
 9135.5000 12935.0967     0.2354 
 9136.0000 15870.8613     0.2417 
 9136.5000 19214.5879     0.2480 
 9137.0000 20000.0000     0.2540 
 9137.5000 20000.0000     0.2539 
 9138.0000 20000.0000     0.2603 
