~Version Information
 VERS.                  2.0:   CWLS log ASCII Standard -VERSION 2.0
 WRAP.                   NO:   One line per depth step
~Well Information Block
#MNEM.UNIT       Data Type    Information
#---------     -----------    ---------------------------
 STRT.F              7125.0000:
 STOP.F              8192.5000:
 STEP.F                 0.5000:
 NULL.               -999.2500:
 UWI .                CASN0029:  UWI
 API .                CASN0029:  UWI
 WELL.                 CASN-29:  COMMON WELL NAME
 COMP.               ECOPETROL:  WELL OPERATOR
 FLD .                CASTILLA:  FIELD
 LIC .                 UNKNOWN:  AUTHORIZATION NO
 LOC .                     LLA:  BASIN
 CTRY.                COLOMBIA:  COUNTRY
 STAT.                    META:  STATE
 CNTY.       CASTILLA_LA_NUEVA:  COUNTY
 PROV.                    META:  STATE
 SRVC.                 UNKNOWN:  COMPANY
 DATE.                 UNKNOWN:  LOG RUN DATE
 LONG.           -73.616655939:  LONGITUDE
 LATI.             3.893399628:  LATITUDE
 XCOORD.          1051184.7500:  X COORDINATE
 YCOORD.           922298.0000:  Y COORDINATE
 ELEV.FT             1376.0000:  ELEVATION
 TD  .FT             8225.0000:  TOTAL DEPTH
~Parameter Information Block
#MNEM.UNIT       Value        Description
#---------     -----------    ---------------------------
~Curve Information Block
#MNEM.UNIT                 API CODE     Curve Description
#---------               -----------    ---------------------------
 DEPTH.F                00 000 000 000:  Index Curve
 2019_pPerm_ANS.MD          00 000 000 000:  
 2019_pPhieE_D_ANS.V/V         00 000 000 000:  
~A DEPTH     2019_pPerm_ANS 2019_pPhieE_D_ANS
# ...
 7715.0000     0.1557     0.0059 
 7715.5000     0.0006     0.0011 
 7716.0000     0.0007     0.0011 
 7716.5000     0.0037     0.0050 
 7717.0000     0.0068     0.0080 
 7717.5000     0.0029     0.0044 
 7718.0000     0.0005     0.0003 
 7718.5000     0.0000     0.0000 
 7719.0000     0.0001     0.0001 
 7719.5000     0.0012     0.0016 
 7720.0000     0.0235     0.0162 
 7720.5000     0.0017     0.0001 
 7721.0000     0.0000     0.0001 
 7721.5000     0.0541     0.0001 
 7722.0000     0.5345     0.0555 
 7722.5000     0.2464     0.0324 
 7723.0000     0.6613     0.0461 
 7723.5000     1.9327     0.0785 
 7724.0000     0.4218     0.0321 
 7724.5000     0.0220     0.0020 
 7725.0000     0.0008     0.0010 
 7725.5000     0.0732     0.0064 
 7726.0000     1.2150     0.0483 
 7726.5000     8.8115     0.1003 
 7727.0000    15.6705     0.1051 
 7727.5000    49.7587     0.1283 
 7728.0000    95.3155     0.1449 
 7728.5000    82.0031     0.1440 
 7729.0000    22.2676     0.1138 
 7729.5000     4.0721     0.0550 
 7730.0000     0.0175     0.0006 
 7730.5000     0.0000     0.0000 
 7731.0000     0.0000     0.0000 
 7731.5000     0.0000     0.0000 
 7732.0000     0.0004     0.0005 
 7732.5000     0.0074     0.0051 
 7733.0000     0.0298     0.0158 
 7733.5000     0.0265     0.0150 
 7734.0000     0.0070     0.0049 
 7734.5000     0.0288     0.0076 
 7735.0000     0.2379     0.0339 
 7735.5000     0.6188     0.0562 
 7736.0000     0.1300     0.0152 
 7736.5000     0.0027     0.0011 
 7737.0000     0.0030     0.0006 
 7737.5000     0.0563     0.0120 
 7738.0000     0.6217     0.0541 
 7738.5000     1.3876     0.0617 
 7739.0000    11.3508     0.1089 
 7739.5000    13.7941     0.1091 
 7740.0000     7.9682     0.0999 
 7740.5000     0.2694     0.0168 
 7741.0000     0.0111     0.0072 
 7741.5000     0.0029     0.0044 
 7742.0000     0.0014     0.0032 
 7742.5000     0.0002     0.0006 
 7743.0000     0.0000     0.0002 
 7743.5000    350.5732     0.1784 
 7744.0000   350.5732     0.1784 
 7744.5000  1089.0153     0.2052 
 7745.0000  1630.9231     0.2101 
 7745.5000  2036.3362     0.2153 
 7746.0000  2531.2141     0.2214 
 7746.5000  2774.3372     0.2249 
 7747.0000  1849.4474     0.2333 
 7747.5000  2241.4456     0.2454 
 7748.0000  2640.5288     0.2529 
 7748.5000  2372.4380     0.2465 
 7749.0000  2282.2336     0.2456 
 7749.5000  2462.8660     0.2491 
 7750.0000  2643.7109     0.2522 
 7750.5000  2262.3945     0.2432 
 7751.0000  2325.3721     0.2468 
 7751.5000  2066.7180     0.2412 
 7752.0000  1936.8884     0.2372 
 7752.5000  2443.3398     0.2226 
 7753.0000   680.5957     0.1786 
 7753.5000   119.5255     0.1324 
 7754.0000    24.9239     0.1149 
 7754.5000    35.7455     0.1253 
 7755.0000    65.4475     0.1409 
 7755.5000    79.4997     0.1462 
 7756.0000    54.3553     0.1394 
 7756.5000    12.2299     0.0683 
 7757.0000    61.6070     0.1353 
 7757.5000   178.7358     0.1595 
 7758.0000   374.3701     0.1786 
 7758.5000   353.7397     0.1722 
 7759.0000   275.3398     0.1659 
 7759.5000   132.2253     0.1466 
 7760.0000   119.6254     0.1447 
 7760.5000   122.3473     0.1465 
 7761.0000   108.6364     0.1343 
 7761.5000   248.4088     0.1639 
 7762.0000   226.5819     0.1656 
 7762.5000    90.2544     0.1398 
 7763.0000   108.8429     0.1499 
 7763.5000   125.4351     0.1596 
 7764.0000    46.8214     0.0749 
 7764.5000   161.2993     0.1636 
 7765.0000   204.6000     0.1657 
 7765.5000   206.0258     0.1644 
 7766.0000   228.0247     0.1676 
 7766.5000   270.9306     0.1692 
 7767.0000   427.4215     0.1798 
 7767.5000   644.9318     0.1901 
 7768.0000   610.4352     0.1850 
 7768.5000   516.4466     0.1782 
 7769.0000   510.5681     0.1800 
 7769.5000   229.2346     0.1569 
 7770.0000    83.8154     0.1404 
 7770.5000    34.6047     0.1188 
 7771.0000    23.1801     0.1181 
 7771.5000    22.4936     0.1186 
 7772.0000    23.0211     0.1191 
 7772.5000    21.8620     0.1171 
 7773.0000    20.0493     0.1160 
 7773.5000    20.8830     0.1179 
 7774.0000    24.9928     0.1220 
 7774.5000    31.9331     0.1267 
 7775.0000    30.5467     0.1229 
 7775.5000    21.5594     0.1136 
 7776.0000    17.0265     0.1094 
 7776.5000    23.6892     0.1194 
 7777.0000    34.2276     0.1276 
 7777.5000    50.9267     0.1370 
 7778.0000    56.6787     0.1402 
 7778.5000     5.8443     0.0561 
 7779.0000     0.1458     0.0169 
 7779.5000     0.0122     0.0086 
 7780.0000     0.0296     0.0149 
 7780.5000     0.0498     0.0192 
 7781.0000     0.0503     0.0190 
 7781.5000     0.0564     0.0203 
 7782.0000     0.0310     0.0141 
 7782.5000     0.0273     0.0141 
 7783.0000     0.0530     0.0208 
 7783.5000     0.0479     0.0192 
 7784.0000     0.0103     0.0051 
 7784.5000     0.0011     0.0023 
 7785.0000     0.0003     0.0012 
 7785.5000     0.0000     0.0003 
 7786.0000     0.0000     0.0000 
 7786.5000     0.0000     0.0001 
 7787.0000     0.0000     0.0002 
 7787.5000     0.0000     0.0000 
 7788.0000     0.0000     0.0000 
 7788.5000     0.0012     0.0000 
 7789.0000     0.1052     0.0076 
 7789.5000    19.1379     0.0664 
 7790.0000   111.0592     0.1533 
 7790.5000   131.1812     0.1525 
 7791.0000  -999.2500  -999.2500 
 7791.5000   262.1073     0.1507 
 7792.0000   207.3219     0.1465 
 7792.5000   194.5076     0.1440 
 7793.0000   224.4280     0.1468 
 7793.5000   235.9191     0.1479 
 7794.0000   264.5423     0.1504 
 7794.5000   281.6128     0.1548 
 7795.0000   248.6910     0.1520 
 7795.5000   195.4249     0.1442 
 7796.0000   181.3397     0.1352 
 7796.5000   389.0885     0.1587 
 7797.0000   588.9109     0.1677 
 7797.5000   590.3550     0.1658 
 7798.0000   452.3497     0.1619 
 7798.5000   391.4794     0.1562 
 7799.0000   691.7446     0.1655 
 7799.5000  1447.0074     0.1892 
 7800.0000  2046.4922     0.1982 
 7800.5000  2584.0415     0.2050 
 7801.0000  1581.0807     0.1971 
 7801.5000   303.7619     0.1573 
 7802.0000    47.8013     0.0117 
 7802.5000     1.4416     0.0076 
 7803.0000     4.6300     0.0276 
 7803.5000    17.2193     0.0682 
 7804.0000   101.2745     0.1297 
 7804.5000   155.4751     0.1350 
 7805.0000   238.1548     0.1441 
 7805.5000   353.9470     0.1588 
 7806.0000   270.8467     0.1546 
 7806.5000   175.2866     0.1486 
 7807.0000    56.1168     0.0463 
 7807.5000   216.9980     0.1520 
 7808.0000   422.3958     0.1672 
 7808.5000   557.4256     0.1758 
 7809.0000   619.0622     0.1772 
 7809.5000   561.1985     0.1774 
 7810.0000   422.9840     0.1764 
 7810.5000   105.2820     0.0570 
 7811.0000   173.3643     0.1480 
 7811.5000   126.7501     0.1391 
 7812.0000    11.4277     0.0279 
 7812.5000   393.4181     0.1711 
 7813.0000   807.5355     0.1889 
 7813.5000   954.1063     0.1845 
 7814.0000   982.6866     0.1810 
 7814.5000   884.9267     0.1724 
 7815.0000  1230.5608     0.1877 
 7815.5000  1159.8298     0.1887 
 7816.0000  1000.6508     0.1849 
 7816.5000  1185.0885     0.1913 
 7817.0000  1814.8280     0.1971 
 7817.5000  2883.3398     0.2073 
 7818.0000  2879.8289     0.2085 
 7818.5000  2754.1885     0.2112 
 7819.0000  2739.3330     0.2120 
 7819.5000  3135.7556     0.2083 
 7820.0000  3665.0527     0.2125 
 7820.5000  3189.5544     0.2101 
 7821.0000  2390.8118     0.2081 
 7821.5000  2108.9307     0.2043 
 7822.0000  2023.4039     0.2033 
 7822.5000  1925.3163     0.2110 
 7823.0000  1308.1116     0.2012 
 7823.5000  1211.6471     0.1971 
 7824.0000  1984.5599     0.2026 
 7824.5000  2606.9900     0.2069 
 7825.0000  2351.1470     0.2094 
 7825.5000   927.6537     0.1796 
 7826.0000   649.7480     0.1693 
 7826.5000   879.2356     0.1795 
 7827.0000   933.1083     0.1788 
 7827.5000   734.8467     0.1720 
 7828.0000   402.3093     0.1463 
 7828.5000   318.7079     0.1424 
 7829.0000   252.7608     0.1408 
 7829.5000   207.7729     0.1420 
 7830.0000   142.7172     0.1396 
 7830.5000    23.4101     0.0002 
 7831.0000     0.5957     0.0000 
 7831.5000     0.5152     0.0000 
 7832.0000     0.3887     0.0000 
 7832.5000     0.4257     0.0000 
