~Version Information
 VERS.                  2.0:   CWLS log ASCII Standard -VERSION 2.0
 WRAP.                   NO:   One line per depth step
~Well Information Block
#MNEM.UNIT       Data Type    Information
#---------     -----------    ---------------------------
 STRT.F              8011.0000:
 STOP.F              9260.0000:
 STEP.F                 0.5000:
 NULL.               -999.2500:
 UWI .                CASN0030:  UWI
 API .                CASN0030:  UWI
 WELL.                 CASN-30:  COMMON WELL NAME
 COMP.               ECOPETROL:  WELL OPERATOR
 FLD .                CASTILLA:  FIELD
 LIC .                 UNKNOWN:  AUTHORIZATION NO
 LOC .                     LLA:  BASIN
 CTRY.                COLOMBIA:  COUNTRY
 STAT.                    META:  STATE
 CNTY.       CASTILLA_LA_NUEVA:  COUNTY
 PROV.                    META:  STATE
 SRVC.                 UNKNOWN:  COMPANY
 DATE.                 UNKNOWN:  LOG RUN DATE
 LONG.           -73.616480936:  LONGITUDE
 LATI.             3.893355943:  LATITUDE
 XCOORD.          1051204.2500:  X COORDINATE
 YCOORD.           922293.1875:  Y COORDINATE
 ELEV.FT             1376.0000:  ELEVATION
 TD  .FT             9235.0000:  TOTAL DEPTH
~Parameter Information Block
#MNEM.UNIT       Value        Description
#---------     -----------    ---------------------------
~Curve Information Block
#MNEM.UNIT                 API CODE     Curve Description
#---------               -----------    ---------------------------
 DEPTH.F                00 000 000 000:  Index Curve
 2019_pPerm_ANS.MD          00 000 000 000:  
 2019_pPhieE_D_ANS.V/V         00 000 000 000:  
~A DEPTH     2019_pPerm_ANS 2019_pPhieE_D_ANS
# ...
 8365.0000     0.0000     0.0001 
 8365.5000     0.0000     0.0001 
 8366.0000     0.0000     0.0002 
 8366.5000     0.0000     0.0003 
 8367.0000     0.0000     0.0003 
 8367.5000     0.0000     0.0001 
 8368.0000     0.0000     0.0001 
 8368.5000     0.0000     0.0001 
 8369.0000     0.0000     0.0000 
 8369.5000     0.0000     0.0000 
 8370.0000     0.0000     0.0000 
 8370.5000     0.0000     0.0000 
 8371.0000     0.0000     0.0001 
 8371.5000     0.0000     0.0000 
 8372.0000     0.0000     0.0001 
 8372.5000     0.0000     0.0001 
 8373.0000     0.0000     0.0001 
 8373.5000     0.0000     0.0000 
 8374.0000     0.0000     0.0001 
 8374.5000     0.0000     0.0001 
 8375.0000     0.0000     0.0002 
 8375.5000     0.0000     0.0001 
 8376.0000     0.0000     0.0002 
 8376.5000     0.0000     0.0001 
 8377.0000     0.0000     0.0002 
 8377.5000     0.0000     0.0003 
 8378.0000     0.0000     0.0001 
 8378.5000     0.0000     0.0001 
 8379.0000     0.0000     0.0000 
 8379.5000     0.0000     0.0000 
 8380.0000     0.0000     0.0000 
 8380.5000     0.0000     0.0000 
 8381.0000     0.0000     0.0000 
 8381.5000     0.0000     0.0001 
 8382.0000     0.0016     0.0004 
 8382.5000     0.0222     0.0082 
 8383.0000     0.2078     0.0311 
 8383.5000     0.5094     0.0483 
 8384.0000     0.1862     0.0274 
 8384.5000     0.0661     0.0204 
 8385.0000     0.0299     0.0124 
 8385.5000     0.0229     0.0124 
 8386.0000     0.0095     0.0071 
 8386.5000     0.0036     0.0046 
 8387.0000     0.0040     0.0049 
 8387.5000     0.0058     0.0060 
 8388.0000     0.0092     0.0083 
 8388.5000     0.0069     0.0068 
 8389.0000     0.0024     0.0031 
 8389.5000     0.0011     0.0022 
 8390.0000     0.0017     0.0030 
 8390.5000     0.0027     0.0042 
 8391.0000     0.0026     0.0042 
 8391.5000     0.0009     0.0016 
 8392.0000     0.0009     0.0023 
 8392.5000     0.0008     0.0015 
 8393.0000     0.0016     0.0032 
 8393.5000     0.0009     0.0021 
 8394.0000     0.0003     0.0012 
 8394.5000     0.0005     0.0015 
 8395.0000     0.0009     0.0021 
 8395.5000     0.0006     0.0018 
 8396.0000     0.0001     0.0007 
 8396.5000     0.0000     0.0002 
 8397.0000     0.0000     0.0001 
 8397.5000     0.0000     0.0000 
 8398.0000     0.0000     0.0001 
 8398.5000     0.0000     0.0001 
 8399.0000     0.0000     0.0002 
 8399.5000     0.0001     0.0003 
 8400.0000     0.0007     0.0012 
 8400.5000     0.0043     0.0051 
 8401.0000     0.0101     0.0080 
 8401.5000     0.0157     0.0108 
 8402.0000     0.0110     0.0079 
 8402.5000     0.0115     0.0090 
 8403.0000     0.0087     0.0066 
 8403.5000     0.0147     0.0098 
 8404.0000     0.0347     0.0128 
 8404.5000     0.0932     0.0247 
 8405.0000     0.0395     0.0142 
 8405.5000     0.0175     0.0108 
 8406.0000     0.0129     0.0082 
 8406.5000     0.0199     0.0116 
 8407.0000     0.0131     0.0091 
 8407.5000     0.0080     0.0072 
 8408.0000     0.0027     0.0028 
 8408.5000     0.0022     0.0037 
 8409.0000     0.0019     0.0028 
 8409.5000     0.0032     0.0047 
 8410.0000     0.0014     0.0023 
 8410.5000     0.0012     0.0025 
 8411.0000     0.0021     0.0025 
 8411.5000     0.0085     0.0071 
 8412.0000     0.1137     0.0117 
 8412.5000     0.7314     0.0559 
 8413.0000     0.8772     0.0521 
 8413.5000     1.2792     0.0593 
 8414.0000     1.4775     0.0615 
 8414.5000     1.9239     0.0694 
 8415.0000     1.9661     0.0693 
 8415.5000     1.7207     0.0655 
 8416.0000     1.5801     0.0641 
 8416.5000     2.4379     0.0752 
 8417.0000     2.6861     0.0762 
 8417.5000     2.2202     0.0717 
 8418.0000     1.9839     0.0676 
 8418.5000     4.3108     0.0783 
 8419.0000    10.2736     0.0961 
 8419.5000    10.3203     0.0955 
 8420.0000     8.3259     0.0925 
 8420.5000     3.6783     0.0770 
 8421.0000     1.8481     0.0670 
 8421.5000     0.9679     0.0542 
 8422.0000     0.8224     0.0568 
 8422.5000     0.8003     0.0427 
 8423.0000     3.2782     0.0826 
 8423.5000     4.9453     0.0871 
 8424.0000     5.7676     0.0914 
 8424.5000     3.4620     0.0805 
 8425.0000     1.6261     0.0635 
 8425.5000     0.8696     0.0532 
 8426.0000     1.3298     0.0598 
 8426.5000     2.4411     0.0759 
 8427.0000     2.9831     0.0804 
 8427.5000     2.4649     0.0776 
 8428.0000     0.8480     0.0503 
 8428.5000     0.1684     0.0295 
 8429.0000     0.0779     0.0201 
 8429.5000     0.0705     0.0205 
 8430.0000     0.1874     0.0275 
 8430.5000     0.6754     0.0490 
 8431.0000     1.7281     0.0742 
 8431.5000     1.0022     0.0553 
 8432.0000     0.6532     0.0482 
 8432.5000     0.5483     0.0458 
 8433.0000     0.5264     0.0496 
 8433.5000     0.1062     0.0134 
 8434.0000     0.0300     0.0129 
 8434.5000     0.1000     0.0225 
 8435.0000     0.2437     0.0367 
 8435.5000     0.1650     0.0305 
 8436.0000     0.0706     0.0202 
 8436.5000     0.1220     0.0255 
 8437.0000     0.2365     0.0352 
 8437.5000     0.3631     0.0422 
 8438.0000     0.4177     0.0439 
 8438.5000     0.1446     0.0254 
 8439.0000     0.0263     0.0123 
 8439.5000     0.0304     0.0116 
 8440.0000     0.0876     0.0226 
 8440.5000     0.1886     0.0347 
 8441.0000     0.1221     0.0260 
 8441.5000     0.0942     0.0244 
 8442.0000     0.0605     0.0193 
 8442.5000     0.0428     0.0166 
 8443.0000     0.0382     0.0144 
 8443.5000     0.0655     0.0219 
 8444.0000     0.0269     0.0119 
 8444.5000     0.0068     0.0062 
 8445.0000     0.0013     0.0015 
 8445.5000     0.0006     0.0017 
 8446.0000     0.0003     0.0011 
 8446.5000     0.0001     0.0006 
 8447.0000     0.0001     0.0007 
 8447.5000     0.0002     0.0008 
 8448.0000     0.0001     0.0009 
 8448.5000     0.0000     0.0003 
 8449.0000     0.0000     0.0002 
 8449.5000     0.0001     0.0005 
 8450.0000     0.0001     0.0005 
 8450.5000     0.0000     0.0004 
 8451.0000     0.0001     0.0006 
 8451.5000     0.0002     0.0008 
 8452.0000     0.0001     0.0006 
 8452.5000     0.0001     0.0005 
 8453.0000     0.0001     0.0007 
 8453.5000     0.0002     0.0008 
 8454.0000     0.0002     0.0008 
 8454.5000     0.0007     0.0014 
 8455.0000     0.0025     0.0037 
 8455.5000     0.0040     0.0055 
 8456.0000     0.0018     0.0031 
 8456.5000     0.0005     0.0011 
 8457.0000     0.0000     0.0004 
 8457.5000     0.0000     0.0004 
 8458.0000     0.0000     0.0003 
 8458.5000     0.0000     0.0002 
 8459.0000     0.0000     0.0002 
 8459.5000     0.0000     0.0003 
 8460.0000     0.0001     0.0005 
 8460.5000     0.0003     0.0009 
 8461.0000     0.0005     0.0016 
 8461.5000     0.0004     0.0014 
 8462.0000     0.0002     0.0008 
 8462.5000     0.0001     0.0005 
 8463.0000     0.0003     0.0011 
 8463.5000     0.0004     0.0013 
 8464.0000     0.0002     0.0005 
 8464.5000     0.0001     0.0008 
 8465.0000     0.0009     0.0011 
 8465.5000     0.0041     0.0052 
 8466.0000     0.0065     0.0058 
 8466.5000     0.0135     0.0097 
 8467.0000     0.0117     0.0094 
 8467.5000     0.0031     0.0041 
 8468.0000     0.0016     0.0023 
 8468.5000     0.0030     0.0042 
 8469.0000     0.0175     0.0094 
 8469.5000     0.0494     0.0179 
 8470.0000     0.1173     0.0245 
 8470.5000     0.2518     0.0368 
 8471.0000     0.1624     0.0310 
 8471.5000     0.0278     0.0106 
 8472.0000     0.0083     0.0070 
 8472.5000     0.0037     0.0045 
 8473.0000     0.0028     0.0043 
 8473.5000     0.0013     0.0024 
 8474.0000     0.0007     0.0017 
 8474.5000     0.0013     0.0026 
 8475.0000     0.0015     0.0029 
 8475.5000     0.0013     0.0028 
 8476.0000     0.0007     0.0017 
 8476.5000     0.0027     0.0020 
 8477.0000     0.0124     0.0094 
 8477.5000     0.0103     0.0088 
 8478.0000     0.0021     0.0032 
 8478.5000     0.0003     0.0002 
 8479.0000     0.0000     0.0003 
 8479.5000     0.0465     0.0045 
 8480.0000     0.2941     0.0371 
 8480.5000     1.1529     0.0660 
 8481.0000     0.8580     0.0564 
 8481.5000     0.1732     0.0187 
 8482.0000     0.0062     0.0037 
 8482.5000     0.0004     0.0005 
