~Version Information
 VERS.                  2.0:   CWLS log ASCII Standard -VERSION 2.0
 WRAP.                   NO:   One line per depth step
~Well Information Block
#MNEM.UNIT       Data Type    Information
#---------     -----------    ---------------------------
 STRT.F              8011.0000:
 STOP.F              9260.0000:
 STEP.F                 0.5000:
 NULL.               -999.2500:
 UWI .                CASN0030:  UWI
 API .                CASN0030:  UWI
 WELL.                 CASN-30:  COMMON WELL NAME
 COMP.               ECOPETROL:  WELL OPERATOR
 FLD .                CASTILLA:  FIELD
 LIC .                 UNKNOWN:  AUTHORIZATION NO
 LOC .                     LLA:  BASIN
 CTRY.                COLOMBIA:  COUNTRY
 STAT.                    META:  STATE
 CNTY.       CASTILLA_LA_NUEVA:  COUNTY
 PROV.                    META:  STATE
 SRVC.                 UNKNOWN:  COMPANY
 DATE.                 UNKNOWN:  LOG RUN DATE
 LONG.           -73.616480936:  LONGITUDE
 LATI.             3.893355943:  LATITUDE
 XCOORD.          1051204.2500:  X COORDINATE
 YCOORD.           922293.1875:  Y COORDINATE
 ELEV.FT             1376.0000:  ELEVATION
 TD  .FT             9235.0000:  TOTAL DEPTH
~Parameter Information Block
#MNEM.UNIT       Value        Description
#---------     -----------    ---------------------------
~Curve Information Block
#MNEM.UNIT                 API CODE     Curve Description
#---------               -----------    ---------------------------
 DEPTH.F                00 000 000 000:  Index Curve
 2019_pPerm_ANS.MD          00 000 000 000:  
 2019_pPhieE_D_ANS.V/V         00 000 000 000:  
~A DEPTH     2019_pPerm_ANS 2019_pPhieE_D_ANS
# ...
 8247.0000     0.0000     0.0001 
 8247.5000     0.0000     0.0002 
 8248.0000     0.0000     0.0002 
 8248.5000     0.0000     0.0005 
 8249.0000     0.0000     0.0008 
 8249.5000     0.0000     0.0005 
 8250.0000     0.0000     0.0004 
 8250.5000     0.0000     0.0006 
 8251.0000     0.0000     0.0027 
 8251.5000     0.0002     0.0087 
 8252.0000     0.0003     0.0106 
 8252.5000     0.0000     0.0033 
 8253.0000     0.0000     0.0013 
 8253.5000     0.0000     0.0008 
 8254.0000     0.0000     0.0006 
 8254.5000     0.0000     0.0004 
 8255.0000     0.0000     0.0002 
 8255.5000     0.0000     0.0002 
 8256.0000     0.0000     0.0001 
 8256.5000     0.0000     0.0003 
 8257.0000     0.0000     0.0010 
 8257.5000     0.0002     0.0056 
 8258.0000     0.0188     0.0153 
 8258.5000     0.1736     0.0292 
 8259.0000     1.5012     0.0478 
 8259.5000     3.7444     0.0645 
 8260.0000     2.0784     0.0549 
 8260.5000     0.2964     0.0399 
 8261.0000     0.0476     0.0088 
 8261.5000     0.0000     0.0011 
 8262.0000     0.0001     0.0015 
 8262.5000     0.0345     0.0134 
 8263.0000     0.4608     0.0379 
 8263.5000     0.3945     0.0319 
 8264.0000     0.5150     0.0392 
 8264.5000     0.0687     0.0233 
 8265.0000     0.0003     0.0054 
 8265.5000     0.0000     0.0004 
 8266.0000     0.0000     0.0002 
 8266.5000     0.0000     0.0002 
 8267.0000     0.0000     0.0004 
 8267.5000     0.0000     0.0007 
 8268.0000     0.0000     0.0018 
 8268.5000     0.0127     0.0058 
 8269.0000     3.7152     0.0254 
 8269.5000    46.3315     0.1167 
 8270.0000     5.3125     0.0644 
 8270.5000     0.6250     0.0009 
 8271.0000     0.0005     0.0001 
 8271.5000     0.0569     0.0258 
 8272.0000     0.0029     0.0036 
 8272.5000     0.0000     0.0006 
 8273.0000     0.0000     0.0006 
 8273.5000     0.0001     0.0016 
 8274.0000     0.1484     0.0101 
 8274.5000     1.2444     0.0524 
 8275.0000     0.1841     0.0001 
 8275.5000     0.0000     0.0001 
 8276.0000     0.3763     0.0001 
 8276.5000     4.1636     0.0613 
 8277.0000    13.6195     0.0888 
 8277.5000    19.3675     0.0872 
 8278.0000   114.6748     0.1168 
 8278.5000   674.2775     0.1570 
 8279.0000  4413.9985     0.2056 
 8279.5000 10459.2773     0.2301 
 8280.0000  8200.5967     0.2255 
 8280.5000  2024.6390     0.1889 
 8281.0000   312.4020     0.0078 
 8281.5000     0.0000     0.0019 
 8282.0000     0.0001     0.0011 
 8282.5000     0.1198     0.0125 
 8283.0000     8.2977     0.0614 
 8283.5000    37.4486     0.1057 
 8284.0000    56.1114     0.1135 
 8284.5000    66.3414     0.1175 
 8285.0000    45.7808     0.1084 
 8285.5000    28.5560     0.1007 
 8286.0000     5.8840     0.0587 
 8286.5000     0.3337     0.0237 
 8287.0000     0.0008     0.0161 
 8287.5000     0.0001     0.0032 
 8288.0000     0.0000     0.0005 
 8288.5000     0.0000     0.0002 
 8289.0000     0.0001     0.0011 
 8289.5000     0.0808     0.0169 
 8290.0000     0.4667     0.0362 
 8290.5000     0.1502     0.0201 
 8291.0000     0.0030     0.0021 
 8291.5000     0.0287     0.0001 
 8292.0000     0.1910     0.0249 
 8292.5000     2.1731     0.0551 
 8293.0000     4.2395     0.0670 
 8293.5000     0.7231     0.0084 
 8294.0000     0.0000     0.0007 
 8294.5000     0.0000     0.0005 
 8295.0000     0.0000     0.0003 
 8295.5000     0.0000     0.0005 
 8296.0000     0.0000     0.0005 
 8296.5000     0.0000     0.0005 
 8297.0000     0.0000     0.0002 
 8297.5000     0.0000     0.0002 
 8298.0000     0.0000     0.0003 
 8298.5000     0.0000     0.0006 
 8299.0000     0.0000     0.0005 
 8299.5000     0.0000     0.0004 
 8300.0000     0.0000     0.0001 
 8300.5000     0.0000     0.0001 
 8301.0000     0.0000     0.0004 
 8301.5000     0.0000     0.0008 
 8302.0000     0.0000     0.0012 
 8302.5000     0.0000     0.0003 
 8303.0000     0.0002     0.0005 
 8303.5000     0.0006     0.0011 
 8304.0000     0.0094     0.0077 
 8304.5000     0.0186     0.0116 
 8305.0000     0.0092     0.0074 
 8305.5000     0.0025     0.0034 
 8306.0000     0.0013     0.0026 
 8306.5000     0.0009     0.0023 
 8307.0000     0.0003     0.0010 
 8307.5000     0.0000     0.0003 
 8308.0000     0.0000     0.0002 
 8308.5000     0.0000     0.0004 
 8309.0000     0.0003     0.0010 
 8309.5000     0.0011     0.0023 
 8310.0000     0.0028     0.0040 
 8310.5000     0.0051     0.0060 
 8311.0000     0.0046     0.0054 
 8311.5000     0.0031     0.0043 
 8312.0000     0.0022     0.0036 
 8312.5000     0.0006     0.0010 
 8313.0000     0.0004     0.0013 
 8313.5000     0.0004     0.0010 
 8314.0000     0.0010     0.0023 
 8314.5000     0.0003     0.0009 
 8315.0000     0.0002     0.0009 
 8315.5000     0.0001     0.0007 
 8316.0000     0.0000     0.0004 
 8316.5000     0.0000     0.0003 
 8317.0000     0.0001     0.0004 
 8317.5000     0.0002     0.0008 
 8318.0000     0.0000     0.0003 
 8318.5000     0.0000     0.0003 
 8319.0000     0.0000     0.0002 
 8319.5000     0.0000     0.0002 
 8320.0000     0.0000     0.0002 
 8320.5000     0.0000     0.0003 
 8321.0000     0.0001     0.0010 
 8321.5000     0.0001     0.0005 
 8322.0000     0.0001     0.0006 
 8322.5000     0.0001     0.0004 
 8323.0000     0.0001     0.0005 
 8323.5000     0.0000     0.0002 
 8324.0000     0.0000     0.0001 
 8324.5000     0.0000     0.0002 
 8325.0000     0.0002     0.0005 
 8325.5000     0.0003     0.0012 
 8326.0000     0.0003     0.0014 
 8326.5000     0.0000     0.0002 
 8327.0000     0.0000     0.0001 
 8327.5000     0.0000     0.0001 
 8328.0000     0.0001     0.0007 
 8328.5000     0.0002     0.0009 
 8329.0000     0.0005     0.0016 
 8329.5000     0.0003     0.0011 
 8330.0000     0.0005     0.0015 
 8330.5000     0.0006     0.0017 
 8331.0000     0.0005     0.0015 
 8331.5000     0.0010     0.0025 
 8332.0000     0.0010     0.0023 
 8332.5000     0.0008     0.0021 
 8333.0000     0.0002     0.0008 
 8333.5000     0.0000     0.0002 
 8334.0000     0.0000     0.0000 
 8334.5000     0.0000     0.0000 
 8335.0000     0.0000     0.0000 
 8335.5000     0.0000     0.0000 
 8336.0000     0.0000     0.0000 
 8336.5000     0.0004     0.0003 
 8337.0000     0.0030     0.0039 
 8337.5000     0.0086     0.0084 
 8338.0000     0.0041     0.0047 
 8338.5000     0.0010     0.0018 
 8339.0000     0.0001     0.0001 
 8339.5000     0.0000     0.0000 
 8340.0000     0.0000     0.0000 
 8340.5000     0.0000     0.0000 
 8341.0000     0.0000     0.0000 
 8341.5000     0.0000     0.0000 
 8342.0000     0.0000     0.0000 
 8342.5000     0.0000     0.0000 
 8343.0000     0.0000     0.0002 
 8343.5000     0.0000     0.0001 
 8344.0000     0.0000     0.0001 
 8344.5000     0.0000     0.0001 
 8345.0000     0.0000     0.0002 
 8345.5000     0.0000     0.0002 
 8346.0000     0.0000     0.0001 
 8346.5000     0.0000     0.0000 
 8347.0000     0.0000     0.0001 
 8347.5000     0.0000     0.0001 
 8348.0000     0.0000     0.0001 
 8348.5000     0.0000     0.0001 
 8349.0000     0.0000     0.0001 
 8349.5000     0.0000     0.0001 
 8350.0000     0.0001     0.0003 
 8350.5000     0.0017     0.0021 
 8351.0000     0.0068     0.0070 
 8351.5000     0.0053     0.0060 
 8352.0000     0.0018     0.0030 
 8352.5000     0.0004     0.0009 
 8353.0000     0.0001     0.0006 
 8353.5000     0.0000     0.0002 
 8354.0000     0.0001     0.0006 
 8354.5000     0.0000     0.0003 
 8355.0000     0.0000     0.0004 
 8355.5000     0.0000     0.0001 
 8356.0000     0.0000     0.0001 
 8356.5000     0.0000     0.0001 
 8357.0000     0.0000     0.0001 
 8357.5000     0.0000     0.0001 
 8358.0000     0.0000     0.0000 
 8358.5000     0.0000     0.0000 
 8359.0000     0.0000     0.0000 
 8359.5000     0.0000     0.0003 
 8360.0000     0.0002     0.0009 
 8360.5000     0.0004     0.0015 
 8361.0000     0.0001     0.0004 
 8361.5000     0.0000     0.0003 
 8362.0000     0.0000     0.0002 
 8362.5000     0.0000     0.0000 
 8363.0000     0.0000     0.0001 
 8363.5000     0.0000     0.0001 
 8364.0000     0.0000     0.0001 
 8364.5000     0.0000     0.0001 
