~Version Information
 VERS.                  2.0:   CWLS log ASCII Standard -VERSION 2.0
 WRAP.                   NO:   One line per depth step
~Well Information Block
#MNEM.UNIT       Data Type    Information
#---------     -----------    ---------------------------
 STRT.F              7159.5000:
 STOP.F              8265.0000:
 STEP.F                 0.5000:
 NULL.               -999.2500:
 UWI .                CASN0033:  UWI
 API .                CASN0033:  UWI
 WELL.                 CASN-33:  COMMON WELL NAME
 COMP.               ECOPETROL:  WELL OPERATOR
 FLD .                CASTILLA:  FIELD
 LIC .                 UNKNOWN:  AUTHORIZATION NO
 LOC .                     LLA:  BASIN
 CTRY.                COLOMBIA:  COUNTRY
 STAT.                    META:  STATE
 CNTY.       CASTILLA_LA_NUEVA:  COUNTY
 PROV.                    META:  STATE
 SRVC.                 UNKNOWN:  COMPANY
 DATE.                 UNKNOWN:  LOG RUN DATE
 LONG.           -73.616507528:  LONGITUDE
 LATI.             3.893623539:  LATITUDE
 XCOORD.          1051201.2500:  X COORDINATE
 YCOORD.           922322.7500:  Y COORDINATE
 ELEV.FT             1376.0000:  ELEVATION
 TD  .FT             8280.0000:  TOTAL DEPTH
~Parameter Information Block
#MNEM.UNIT       Value        Description
#---------     -----------    ---------------------------
~Curve Information Block
#MNEM.UNIT                 API CODE     Curve Description
#---------               -----------    ---------------------------
 DEPTH.F                00 000 000 000:  Index Curve
 2019_pPerm_ANS.MD          00 000 000 000:  
 2019_pPhieE_D_ANS.V/V         00 000 000 000:  
~A DEPTH     2019_pPerm_ANS 2019_pPhieE_D_ANS
# ...
 7277.5000  5130.3589     0.2120 
 7278.0000  7770.7251     0.2233 
 7278.5000  9008.4424     0.2258 
 7279.0000  9306.7520     0.2284 
 7279.5000  6437.3433     0.2176 
 7280.0000  4251.8330     0.2069 
 7280.5000  3054.0505     0.2004 
 7281.0000  2355.3867     0.1940 
 7281.5000  1850.4382     0.1889 
 7282.0000  1606.9171     0.1839 
 7282.5000  1867.3253     0.1890 
 7283.0000  2057.9485     0.1942 
 7283.5000  1077.2197     0.1755 
 7284.0000   527.9212     0.1568 
 7284.5000   398.4390     0.1544 
 7285.0000   466.8041     0.1519 
 7285.5000  1253.6105     0.1770 
 7286.0000  2771.4744     0.2021 
 7286.5000  1615.9360     0.1839 
 7287.0000   758.2307     0.1657 
 7287.5000   609.6515     0.1636 
 7288.0000   741.6899     0.1615 
 7288.5000  3339.6868     0.1953 
 7289.0000 10197.8457     0.2290 
 7289.5000 17475.3711     0.2408 
 7290.0000 20000.0000     0.2525 
 7290.5000 20000.0000     0.2460 
 7291.0000 15928.3818     0.2394 
 7291.5000 10930.0400     0.2296 
 7292.0000  7088.6694     0.2199 
 7292.5000  2017.6311     0.1791 
 7293.0000   225.9794     0.1384 
 7293.5000    41.1969     0.0883 
 7294.0000     1.6041     0.0383 
 7294.5000     1.4519     0.0462 
 7295.0000     3.3631     0.0643 
 7295.5000     1.5844     0.0493 
 7296.0000     0.6500     0.0366 
 7296.5000     2.2485     0.0604 
 7297.0000     1.5930     0.0151 
 7297.5000     7.9579     0.0796 
 7298.0000     6.0246     0.0699 
 7298.5000     5.9573     0.0716 
 7299.0000     6.0148     0.0733 
 7299.5000     3.6227     0.0627 
 7300.0000     3.5407     0.0608 
 7300.5000     6.0502     0.0717 
 7301.0000     9.0851     0.0827 
 7301.5000     3.2078     0.0611 
 7302.0000     0.5774     0.0275 
 7302.5000     0.0018     0.0131 
 7303.0000     0.0001     0.0056 
 7303.5000     0.0001     0.0052 
 7304.0000     0.0002     0.0048 
 7304.5000     0.0079     0.0125 
 7305.0000     1.7636     0.0285 
 7305.5000     9.1301     0.0824 
 7306.0000     1.7481     0.0231 
 7306.5000     0.6139     0.0371 
 7307.0000     1.4375     0.0511 
 7307.5000     1.5433     0.0508 
 7308.0000     1.3688     0.0505 
 7308.5000     0.3262     0.0240 
 7309.0000     0.0153     0.0173 
 7309.5000     0.0002     0.0069 
 7310.0000     0.0000     0.0024 
 7310.5000     0.0000     0.0024 
 7311.0000     0.0000     0.0024 
 7311.5000     0.0000     0.0017 
 7312.0000     0.0000     0.0011 
 7312.5000     0.0000     0.0008 
 7313.0000     0.0000     0.0005 
 7313.5000     0.0000     0.0004 
 7314.0000     0.0000     0.0003 
 7314.5000     0.0000     0.0004 
 7315.0000     0.0000     0.0005 
 7315.5000     0.0000     0.0004 
 7316.0000     0.0000     0.0004 
 7316.5000     0.0000     0.0009 
 7317.0000     0.0000     0.0018 
 7317.5000     0.0000     0.0028 
 7318.0000     0.0001     0.0044 
 7318.5000     0.0000     0.0024 
 7319.0000     0.0000     0.0013 
 7319.5000     0.0000     0.0030 
 7320.0000     0.0001     0.0068 
 7320.5000     0.0000     0.0029 
 7321.0000     0.0000     0.0011 
 7321.5000     0.0000     0.0004 
 7322.0000     0.0000     0.0001 
 7322.5000     0.0000     0.0001 
 7323.0000     0.0000     0.0000 
 7323.5000     0.0000     0.0001 
 7324.0000     0.0000     0.0001 
 7324.5000     0.0000     0.0001 
 7325.0000     0.0000     0.0000 
 7325.5000     0.0000     0.0001 
 7326.0000     0.0000     0.0001 
 7326.5000     0.0000     0.0002 
 7327.0000     0.0000     0.0007 
 7327.5000     0.1220     0.0080 
 7328.0000     2.1804     0.0457 
 7328.5000     8.2487     0.0821 
 7329.0000     1.3862     0.0150 
 7329.5000     1.0520     0.0498 
 7330.0000     0.1283     0.0111 
 7330.5000     0.0001     0.0018 
 7331.0000     0.0000     0.0002 
 7331.5000     0.0000     0.0004 
 7332.0000     0.0000     0.0009 
 7332.5000     0.0000     0.0021 
 7333.0000     0.0001     0.0046 
 7333.5000     0.0001     0.0063 
 7334.0000     0.0054     0.0086 
 7334.5000     1.0256     0.0389 
 7335.0000     4.8021     0.0694 
 7335.5000     2.1184     0.0536 
 7336.0000     0.1415     0.0198 
 7336.5000     0.0002     0.0011 
 7337.0000     0.0000     0.0000 
 7337.5000     0.0000     0.0001 
 7338.0000     0.0000     0.0008 
 7338.5000     0.0000     0.0010 
 7339.0000     0.0000     0.0013 
 7339.5000     0.0000     0.0013 
 7340.0000     0.0000     0.0014 
 7340.5000     0.0000     0.0015 
 7341.0000     0.0000     0.0017 
 7341.5000     0.0000     0.0009 
 7342.0000     0.0000     0.0004 
 7342.5000     0.0000     0.0002 
 7343.0000     0.0000     0.0001 
 7343.5000     0.0000     0.0002 
 7344.0000     0.0000     0.0007 
 7344.5000     0.0000     0.0006 
 7345.0000     0.0000     0.0005 
 7345.5000     0.0000     0.0003 
 7346.0000     0.0000     0.0002 
 7346.5000     0.0000     0.0018 
 7347.0000     0.0003     0.0111 
 7347.5000     0.0004     0.0107 
 7348.0000     0.0003     0.0103 
 7348.5000     0.0004     0.0108 
 7349.0000     0.0005     0.0113 
 7349.5000     0.0105     0.0169 
 7350.0000     0.0596     0.0247 
 7350.5000     0.0119     0.0217 
 7351.0000     0.0010     0.0189 
 7351.5000     0.0005     0.0112 
 7352.0000     0.0001     0.0063 
 7352.5000     0.0000     0.0024 
 7353.0000     0.0000     0.0008 
 7353.5000     0.0000     0.0001 
 7354.0000     0.0000     0.0000 
 7354.5000     0.0000     0.0001 
 7355.0000     0.0000     0.0002 
 7355.5000     0.0000     0.0001 
 7356.0000     0.0000     0.0001 
 7356.5000     0.0000     0.0000 
 7357.0000     0.0000     0.0000 
 7357.5000     0.0000     0.0001 
 7358.0000     0.0276     0.0010 
 7358.5000     0.2021     0.0393 
 7359.0000     0.0325     0.0001 
 7359.5000     0.0000     0.0001 
 7360.0000     0.0000     0.0001 
 7360.5000     0.0072     0.0001 
 7361.0000     0.0501     0.0241 
 7361.5000     0.0059     0.0022 
 7362.0000     0.0000     0.0001 
 7362.5000     0.0000     0.0000 
 7363.0000     0.0000     0.0000 
 7363.5000     0.0000     0.0000 
 7364.0000     0.0000     0.0000 
 7364.5000     0.0000     0.0004 
 7365.0000     2.4791     0.0058 
 7365.5000    15.9111     0.0880 
 7366.0000   114.8910     0.1133 
 7366.5000   593.1628     0.1576 
 7367.0000  2787.7939     0.2019 
 7367.5000  2973.3259     0.1997 
 7368.0000  2565.7944     0.1976 
 7368.5000  1524.5217     0.1835 
 7369.0000   800.8054     0.1694 
 7369.5000   251.2497     0.1394 
 7370.0000    59.4144     0.1095 
 7370.5000     6.2859     0.0263 
 7371.0000     0.0090     0.0005 
 7371.5000     0.0000     0.0002 
 7372.0000     0.0000     0.0000 
 7372.5000     0.0000     0.0003 
 7373.0000     0.0001     0.0014 
 7373.5000     1.3526     0.0183 
 7374.0000     8.5932     0.0776 
 7374.5000    24.6271     0.0948 
 7375.0000    52.7876     0.1121 
 7375.5000   395.5047     0.1460 
 7376.0000  1264.8824     0.1798 
 7376.5000  2996.7188     0.1977 
 7377.0000  5556.0342     0.2155 
 7377.5000  3764.3569     0.2043 
 7378.0000  2262.2651     0.1932 
 7378.5000  1130.4243     0.1755 
 7379.0000   487.4929     0.1579 
 7379.5000   113.6590     0.1172 
 7380.0000     8.2836     0.0155 
 7380.5000     0.0002     0.0064 
 7381.0000     0.0000     0.0023 
 7381.5000     0.0000     0.0021 
 7382.0000     0.0000     0.0020 
 7382.5000     0.0000     0.0017 
 7383.0000     0.0000     0.0015 
 7383.5000     0.0000     0.0008 
 7384.0000     0.0000     0.0004 
 7384.5000     0.0001     0.0006 
 7385.0000     0.0002     0.0008 
 7385.5000     0.0002     0.0009 
 7386.0000     0.0002     0.0011 
 7386.5000     0.0001     0.0005 
 7387.0000     0.0000     0.0002 
 7387.5000     0.0002     0.0008 
 7388.0000     0.0023     0.0025 
 7388.5000     0.0148     0.0083 
 7389.0000     0.0651     0.0231 
 7389.5000     0.0510     0.0187 
 7390.0000     0.0300     0.0151 
 7390.5000     0.0056     0.0039 
 7391.0000     0.0004     0.0008 
 7391.5000     0.0001     0.0008 
 7392.0000     0.0001     0.0007 
 7392.5000     0.0002     0.0008 
 7393.0000     0.0002     0.0009 
 7393.5000     0.0004     0.0014 
 7394.0000     0.0007     0.0020 
 7394.5000     0.0003     0.0011 
 7395.0000     0.0001     0.0006 
