~Version Information
 VERS.                  2.0:   CWLS log ASCII Standard -VERSION 2.0
 WRAP.                   NO:   One line per depth step
~Well Information Block
#MNEM.UNIT       Data Type    Information
#---------     -----------    ---------------------------
 STRT.F              7353.0000:
 STOP.F              8528.5000:
 STEP.F                 0.5000:
 NULL.               -999.2500:
 UWI .                CASN0108:  UWI
 API .                CASN0108:  UWI
 WELL.                CASN-108:  COMMON WELL NAME
 COMP.               ECOPETROL:  WELL OPERATOR
 FLD .                CASTILLA:  FIELD
 LIC .                 UNKNOWN:  AUTHORIZATION NO
 LOC .                     LLA:  BASIN
 CTRY.                COLOMBIA:  COUNTRY
 STAT.                    META:  STATE
 CNTY.                 UNKNOWN:  COUNTY
 PROV.                    META:  STATE
 SRVC.                 UNKNOWN:  COMPANY
 DATE.                 UNKNOWN:  LOG RUN DATE
 LONG.           -73.606511044:  LONGITUDE
 LATI.             3.902261590:  LATITUDE
 XCOORD.          1052311.0000:  X COORDINATE
 YCOORD.           923278.6250:  Y COORDINATE
 ELEV.FT             1333.7070:  ELEVATION
 TD  .FT             8565.0000:  TOTAL DEPTH
~Parameter Information Block
#MNEM.UNIT       Value        Description
#---------     -----------    ---------------------------
~Curve Information Block
#MNEM.UNIT                 API CODE     Curve Description
#---------               -----------    ---------------------------
 DEPTH.F                00 000 000 000:  Index Curve
 2019_pPerm_ANS.MD          00 000 000 000:  
 2019_pPhieE_D_ANS.V/V         00 000 000 000:  
~A DEPTH     2019_pPerm_ANS 2019_pPhieE_D_ANS
# ...
 7471.0000     0.2659     0.0189 
 7471.5000     0.0003     0.0089 
 7472.0000     0.0001     0.0063 
 7472.5000     0.0001     0.0042 
 7473.0000     0.0000     0.0022 
 7473.5000     0.0000     0.0020 
 7474.0000     0.0000     0.0028 
 7474.5000     0.0003     0.0060 
 7475.0000     0.1881     0.0215 
 7475.5000     2.7975     0.0526 
 7476.0000     9.4785     0.0816 
 7476.5000     5.5540     0.0706 
 7477.0000     0.4494     0.0294 
 7477.5000     0.0194     0.0086 
 7478.0000     0.0000     0.0029 
 7478.5000     0.0000     0.0015 
 7479.0000     0.0000     0.0016 
 7479.5000     0.0000     0.0016 
 7480.0000     0.0000     0.0010 
 7480.5000     0.0000     0.0005 
 7481.0000     0.0000     0.0003 
 7481.5000     0.0000     0.0004 
 7482.0000     0.0000     0.0007 
 7482.5000     0.0000     0.0012 
 7483.0000     0.0000     0.0020 
 7483.5000     0.0000     0.0036 
 7484.0000     0.0000     0.0038 
 7484.5000     0.0000     0.0022 
 7485.0000     0.0000     0.0014 
 7485.5000     0.0000     0.0015 
 7486.0000     0.0000     0.0022 
 7486.5000     0.0000     0.0027 
 7487.0000     0.0000     0.0031 
 7487.5000     0.0001     0.0046 
 7488.0000     0.0001     0.0058 
 7488.5000     0.0001     0.0044 
 7489.0000     0.0000     0.0022 
 7489.5000     0.0000     0.0016 
 7490.0000     0.0000     0.0031 
 7490.5000     0.0001     0.0046 
 7491.0000     0.0000     0.0026 
 7491.5000     0.0000     0.0007 
 7492.0000     0.0000     0.0003 
 7492.5000     0.0000     0.0003 
 7493.0000     0.0000     0.0005 
 7493.5000     0.0000     0.0008 
 7494.0000     0.0000     0.0008 
 7494.5000     0.0000     0.0014 
 7495.0000     0.0002     0.0050 
 7495.5000     0.0180     0.0172 
 7496.0000     0.1035     0.0302 
 7496.5000     0.0196     0.0174 
 7497.0000     0.0002     0.0047 
 7497.5000     0.0000     0.0010 
 7498.0000     0.0000     0.0005 
 7498.5000     0.0000     0.0004 
 7499.0000     0.0000     0.0003 
 7499.5000     0.0000     0.0002 
 7500.0000     0.0000     0.0001 
 7500.5000     0.0000     0.0002 
 7501.0000     0.0000     0.0006 
 7501.5000     0.0001     0.0031 
 7502.0000     0.0004     0.0115 
 7502.5000     0.0004     0.0129 
 7503.0000     0.0001     0.0069 
 7503.5000     0.0001     0.0060 
 7504.0000     0.0004     0.0089 
 7504.5000     0.5503     0.0239 
 7505.0000     4.5285     0.0654 
 7505.5000    10.1939     0.0834 
 7506.0000     7.3316     0.0721 
 7506.5000     8.1839     0.0795 
 7507.0000     1.4313     0.0243 
 7507.5000     0.0058     0.0069 
 7508.0000     0.0000     0.0021 
 7508.5000     0.0000     0.0011 
 7509.0000     0.0000     0.0015 
 7509.5000     0.0000     0.0036 
 7510.0000     0.0001     0.0071 
 7510.5000     0.0001     0.0057 
 7511.0000     0.0000     0.0020 
 7511.5000     0.0000     0.0006 
 7512.0000     0.0000     0.0005 
 7512.5000     0.0000     0.0004 
 7513.0000     0.0000     0.0004 
 7513.5000     0.0000     0.0005 
 7514.0000     0.0000     0.0008 
 7514.5000     0.0001     0.0037 
 7515.0000     0.0436     0.0164 
 7515.5000     0.5499     0.0413 
 7516.0000     2.5191     0.0577 
 7516.5000    11.2050     0.0679 
 7517.0000    46.5872     0.1123 
 7517.5000    28.6398     0.0975 
 7518.0000    22.1980     0.0923 
 7518.5000    82.4030     0.1118 
 7519.0000   299.7186     0.1463 
 7519.5000   927.9019     0.1727 
 7520.0000  1596.6127     0.1855 
 7520.5000  1618.1219     0.1864 
 7521.0000  1392.1670     0.1822 
 7521.5000  1071.7117     0.1759 
 7522.0000   814.2415     0.1701 
 7522.5000   438.1964     0.1567 
 7523.0000    27.8740     0.0138 
 7523.5000     0.0001     0.0026 
 7524.0000     0.0001     0.0037 
 7524.5000     0.6635     0.0190 
 7525.0000     3.6520     0.0673 
 7525.5000     0.6680     0.0185 
 7526.0000     0.1705     0.0069 
 7526.5000     0.9699     0.0477 
 7527.0000     0.1738     0.0125 
 7527.5000     0.0001     0.0034 
 7528.0000     0.0000     0.0026 
 7528.5000     0.0001     0.0047 
 7529.0000     0.0002     0.0086 
 7529.5000     0.0002     0.0086 
 7530.0000     0.0001     0.0055 
 7530.5000     0.0001     0.0055 
 7531.0000     0.0002     0.0082 
 7531.5000     0.0003     0.0103 
 7532.0000     0.0001     0.0056 
 7532.5000     0.0000     0.0019 
 7533.0000     0.0000     0.0013 
 7533.5000     0.0000     0.0020 
 7534.0000     0.0001     0.0045 
 7534.5000     0.0002     0.0073 
 7535.0000     0.0002     0.0081 
 7535.5000     0.0002     0.0071 
 7536.0000     0.0004     0.0096 
 7536.5000     0.0008     0.0175 
 7537.0000     0.0009     0.0183 
 7537.5000     0.0003     0.0084 
 7538.0000     0.0000     0.0017 
 7538.5000     0.0000     0.0003 
 7539.0000     0.0000     0.0001 
 7539.5000     0.0000     0.0002 
 7540.0000     0.0000     0.0010 
 7540.5000     0.0142     0.0098 
 7541.0000     0.0830     0.0260 
 7541.5000     0.0147     0.0149 
 7542.0000     0.0000     0.0036 
 7542.5000     0.0000     0.0007 
 7543.0000     0.0000     0.0001 
 7543.5000     0.0000     0.0000 
 7544.0000     0.0000     0.0000 
 7544.5000     0.0000     0.0002 
 7545.0000     0.0005     0.0077 
 7545.5000     0.0027     0.0045 
 7546.0000     0.0180     0.0001 
 7546.5000     1.2186     0.0244 
 7547.0000    18.0729     0.0782 
 7547.5000   116.7530     0.1236 
 7548.0000   464.5058     0.1538 
 7548.5000  1312.9038     0.1794 
 7549.0000  2808.5269     0.1996 
 7549.5000  3420.0789     0.2044 
 7550.0000  1388.7909     0.1777 
 7550.5000   229.9401     0.1387 
 7551.0000    56.5366     0.1039 
 7551.5000     8.8838     0.0777 
 7552.0000     5.1609     0.0658 
 7552.5000     6.0131     0.0712 
 7553.0000    25.6470     0.0948 
 7553.5000    60.5774     0.1149 
 7554.0000    79.8101     0.1211 
 7554.5000    83.4859     0.1211 
 7555.0000    86.5023     0.1217 
 7555.5000    90.2844     0.1234 
 7556.0000    69.2032     0.1176 
 7556.5000    44.4594     0.1077 
 7557.0000    35.7213     0.1030 
 7557.5000    44.2489     0.1075 
 7558.0000    64.8868     0.1167 
 7558.5000    69.8981     0.1182 
 7559.0000    61.7123     0.1149 
 7559.5000    58.4766     0.1134 
 7560.0000    65.6702     0.1161 
 7560.5000    90.4713     0.1223 
 7561.0000   128.8928     0.1301 
 7561.5000   186.9010     0.1377 
 7562.0000   253.9017     0.1446 
 7562.5000   202.2155     0.1405 
 7563.0000   111.6116     0.1269 
 7563.5000    70.8418     0.1165 
 7564.0000    49.2825     0.1105 
 7564.5000    33.1114     0.1032 
 7565.0000    14.5185     0.0862 
 7565.5000     5.6914     0.0692 
 7566.0000     0.5458     0.0260 
 7566.5000     0.0129     0.0174 
 7567.0000     0.0183     0.0220 
 7567.5000     0.2438     0.0322 
 7568.0000     0.9469     0.0446 
 7568.5000     1.3898     0.0492 
 7569.0000     1.5712     0.0517 
 7569.5000     1.1756     0.0472 
 7570.0000     0.6818     0.0404 
 7570.5000     1.6629     0.0535 
 7571.0000     0.3180     0.0098 
 7571.5000     0.1407     0.0124 
 7572.0000     1.7905     0.0585 
 7572.5000     0.0365     0.0092 
 7573.0000     0.0000     0.0009 
 7573.5000     0.0000     0.0001 
 7574.0000     0.0000     0.0000 
 7574.5000     0.0000     0.0001 
 7575.0000     0.0000     0.0004 
 7575.5000     0.0000     0.0014 
 7576.0000     0.0000     0.0010 
 7576.5000     0.0000     0.0004 
 7577.0000     0.0000     0.0002 
 7577.5000     0.0000     0.0004 
 7578.0000     0.0000     0.0007 
 7578.5000     0.0000     0.0008 
 7579.0000     0.0000     0.0006 
 7579.5000     0.0000     0.0004 
 7580.0000     0.0000     0.0002 
 7580.5000     0.0000     0.0002 
 7581.0000     0.0000     0.0004 
 7581.5000     0.0000     0.0009 
 7582.0000     0.0000     0.0013 
 7582.5000     0.0000     0.0010 
 7583.0000     0.0000     0.0008 
 7583.5000     0.0000     0.0012 
 7584.0000     0.0006     0.0017 
 7584.5000     0.0006     0.0020 
 7585.0000     0.0004     0.0015 
 7585.5000     0.0001     0.0007 
 7586.0000     0.0000     0.0003 
 7586.5000     0.0000     0.0001 
 7587.0000     0.0000     0.0001 
 7587.5000     0.0000     0.0001 
 7588.0000     0.0000     0.0004 
 7588.5000     0.0001     0.0006 
