~Version Information
 VERS.                  2.0:   CWLS log ASCII Standard -VERSION 2.0
 WRAP.                   NO:   One line per depth step
~Well Information Block
#MNEM.UNIT       Data Type    Information
#---------     -----------    ---------------------------
 STRT.F              7125.0000:
 STOP.F              8192.5000:
 STEP.F                 0.5000:
 NULL.               -999.2500:
 UWI .                CASN0029:  UWI
 API .                CASN0029:  UWI
 WELL.                 CASN-29:  COMMON WELL NAME
 COMP.               ECOPETROL:  WELL OPERATOR
 FLD .                CASTILLA:  FIELD
 LIC .                 UNKNOWN:  AUTHORIZATION NO
 LOC .                     LLA:  BASIN
 CTRY.                COLOMBIA:  COUNTRY
 STAT.                    META:  STATE
 CNTY.       CASTILLA_LA_NUEVA:  COUNTY
 PROV.                    META:  STATE
 SRVC.                 UNKNOWN:  COMPANY
 DATE.                 UNKNOWN:  LOG RUN DATE
 LONG.           -73.616655939:  LONGITUDE
 LATI.             3.893399628:  LATITUDE
 XCOORD.          1051184.7500:  X COORDINATE
 YCOORD.           922298.0000:  Y COORDINATE
 ELEV.FT             1376.0000:  ELEVATION
 TD  .FT             8225.0000:  TOTAL DEPTH
~Parameter Information Block
#MNEM.UNIT       Value        Description
#---------     -----------    ---------------------------
~Curve Information Block
#MNEM.UNIT                 API CODE     Curve Description
#---------               -----------    ---------------------------
 DEPTH.F                00 000 000 000:  Index Curve
 2019_pPerm_ANS.MD          00 000 000 000:  
 2019_pPhieE_D_ANS.V/V         00 000 000 000:  
~A DEPTH     2019_pPerm_ANS 2019_pPhieE_D_ANS
# ...
 7479.0000     0.0007     0.0019 
 7479.5000     0.0006     0.0020 
 7480.0000     0.0001     0.0007 
 7480.5000     0.0005     0.0017 
 7481.0000     0.0003     0.0012 
 7481.5000     0.0001     0.0007 
 7482.0000     0.0001     0.0006 
 7482.5000     0.0005     0.0011 
 7483.0000     0.0017     0.0034 
 7483.5000     0.0010     0.0020 
 7484.0000     0.0009     0.0024 
 7484.5000     0.0004     0.0012 
 7485.0000     0.0002     0.0006 
 7485.5000     0.0005     0.0017 
 7486.0000     0.0002     0.0005 
 7486.5000     0.0000     0.0004 
 7487.0000     0.0002     0.0011 
 7487.5000     0.0000     0.0003 
 7488.0000     0.0002     0.0012 
 7488.5000     0.0002     0.0010 
 7489.0000     0.0001     0.0007 
 7489.5000     0.0000     0.0003 
 7490.0000     0.0000     0.0004 
 7490.5000     0.0000     0.0003 
 7491.0000     0.0000     0.0003 
 7491.5000     0.0000     0.0002 
 7492.0000     0.0002     0.0009 
 7492.5000     0.0002     0.0009 
 7493.0000     0.0001     0.0006 
 7493.5000     0.0002     0.0008 
 7494.0000     0.0001     0.0006 
 7494.5000     0.0002     0.0004 
 7495.0000     0.0011     0.0028 
 7495.5000     0.0002     0.0007 
 7496.0000     0.0000     0.0003 
 7496.5000     0.0001     0.0006 
 7497.0000     0.0000     0.0000 
 7497.5000     0.0000     0.0000 
 7498.0000     0.0000     0.0000 
 7498.5000     0.0000     0.0000 
 7499.0000     0.0000     0.0002 
 7499.5000     0.0001     0.0003 
 7500.0000     0.0007     0.0018 
 7500.5000     0.0002     0.0008 
 7501.0000     0.0000     0.0001 
 7501.5000     0.0000     0.0000 
 7502.0000     0.0000     0.0000 
 7502.5000     0.0000     0.0000 
 7503.0000     0.0000     0.0000 
 7503.5000     0.0000     0.0001 
 7504.0000     0.0001     0.0005 
 7504.5000     0.0000     0.0001 
 7505.0000     0.0000     0.0000 
 7505.5000     0.0000     0.0001 
 7506.0000     0.0000     0.0000 
 7506.5000     0.0000     0.0000 
 7507.0000     0.0000     0.0000 
 7507.5000     0.0000     0.0001 
 7508.0000     0.0000     0.0001 
 7508.5000     0.0000     0.0002 
 7509.0000     0.0000     0.0002 
 7509.5000     0.0000     0.0002 
 7510.0000     0.0000     0.0002 
 7510.5000     0.0001     0.0006 
 7511.0000     0.0003     0.0013 
 7511.5000     0.0006     0.0017 
 7512.0000     0.0001     0.0002 
 7512.5000     0.0000     0.0001 
 7513.0000     0.0000     0.0001 
 7513.5000     0.0000     0.0001 
 7514.0000     0.0000     0.0001 
 7514.5000     0.0003     0.0005 
 7515.0000     0.0232     0.0030 
 7515.5000     0.1418     0.0306 
 7516.0000     0.1207     0.0278 
 7516.5000     0.0208     0.0050 
 7517.0000     0.0006     0.0010 
 7517.5000     0.0000     0.0004 
 7518.0000     0.0010     0.0008 
 7518.5000     0.0156     0.0083 
 7519.0000     0.0507     0.0189 
 7519.5000     0.0495     0.0105 
 7520.0000     0.1748     0.0319 
 7520.5000     0.0408     0.0104 
 7521.0000     0.0001     0.0003 
 7521.5000     0.0001     0.0002 
 7522.0000     0.0004     0.0010 
 7522.5000     0.0050     0.0068 
 7523.0000     0.0012     0.0022 
 7523.5000     0.0001     0.0001 
 7524.0000     0.0000     0.0000 
 7524.5000     0.0000     0.0000 
 7525.0000     0.0000     0.0000 
 7525.5000     0.0000     0.0000 
 7526.0000     0.0000     0.0000 
 7526.5000     0.0000     0.0001 
 7527.0000     0.0000     0.0000 
 7527.5000     0.0000     0.0000 
 7528.0000     0.0000     0.0000 
 7528.5000     0.0000     0.0000 
 7529.0000     0.0000     0.0000 
 7529.5000     0.0000     0.0000 
 7530.0000     0.0000     0.0000 
 7530.5000     0.0000     0.0000 
 7531.0000     0.0000     0.0000 
 7531.5000     0.0000     0.0000 
 7532.0000     0.0000     0.0000 
 7532.5000     0.0000     0.0000 
 7533.0000     0.0003     0.0000 
 7533.5000     0.1966     0.0034 
 7534.0000     2.4913     0.0804 
 7534.5000     2.3636     0.0782 
 7535.0000     0.9668     0.0349 
 7535.5000     2.3809     0.0801 
 7536.0000     0.4755     0.0243 
 7536.5000     0.0582     0.0144 
 7537.0000     0.1315     0.0255 
 7537.5000     0.7028     0.0355 
 7538.0000     2.9632     0.0830 
 7538.5000     1.0922     0.0503 
 7539.0000     0.5507     0.0451 
 7539.5000     0.6033     0.0462 
 7540.0000     0.7934     0.0525 
 7540.5000     1.1574     0.0573 
 7541.0000     1.6779     0.0646 
 7541.5000     2.8055     0.0779 
 7542.0000     3.2306     0.0806 
 7542.5000     0.5774     0.0209 
 7543.0000     0.0032     0.0017 
 7543.5000     0.0002     0.0004 
 7544.0000     0.0008     0.0017 
 7544.5000     0.0030     0.0045 
 7545.0000     0.0036     0.0050 
 7545.5000     0.0030     0.0020 
 7546.0000     0.0135     0.0095 
 7546.5000     0.0236     0.0134 
 7547.0000     0.0159     0.0103 
 7547.5000     0.0067     0.0064 
 7548.0000     0.0023     0.0017 
 7548.5000     0.0061     0.0069 
 7549.0000     0.0012     0.0005 
 7549.5000     0.0000     0.0000 
 7550.0000     0.0000     0.0000 
 7550.5000     0.0000     0.0000 
 7551.0000     0.0000     0.0000 
 7551.5000     0.0000     0.0000 
 7552.0000     0.0000     0.0000 
 7552.5000     0.0000     0.0000 
 7553.0000     0.0000     0.0000 
 7553.5000     0.0000     0.0000 
 7554.0000     0.0000     0.0000 
 7554.5000     0.0000     0.0000 
 7555.0000     0.0000     0.0000 
 7555.5000     0.0000     0.0000 
 7556.0000     0.0000     0.0000 
 7556.5000     0.0000     0.0000 
 7557.0000     0.0000     0.0000 
 7557.5000     0.0000     0.0001 
 7558.0000     0.0000     0.0000 
 7558.5000     0.0000     0.0000 
 7559.0000     0.0000     0.0000 
 7559.5000     0.0000     0.0001 
 7560.0000     0.0000     0.0000 
 7560.5000     0.0000     0.0000 
 7561.0000     0.0000     0.0000 
 7561.5000     0.0000     0.0000 
 7562.0000     0.0000     0.0000 
 7562.5000     0.0000     0.0000 
 7563.0000     0.0000     0.0000 
 7563.5000     0.0000     0.0000 
 7564.0000     0.0000     0.0000 
 7564.5000     0.0000     0.0001 
 7565.0000     0.0000     0.0000 
 7565.5000     0.0000     0.0000 
 7566.0000     0.0000     0.0000 
 7566.5000     0.0000     0.0000 
 7567.0000     0.0000     0.0000 
 7567.5000     0.0000     0.0000 
 7568.0000     0.0000     0.0000 
 7568.5000     0.0000     0.0000 
 7569.0000     0.0000     0.0000 
 7569.5000     0.0000     0.0000 
 7570.0000     0.0000     0.0000 
 7570.5000     0.0000     0.0000 
 7571.0000     0.0000     0.0000 
 7571.5000     0.0000     0.0001 
 7572.0000     0.0052     0.0011 
 7572.5000     0.0502     0.0144 
 7573.0000     7.5116     0.0685 
 7573.5000    40.1474     0.1288 
 7574.0000   140.4671     0.1521 
 7574.5000   266.4787     0.1645 
 7575.0000   182.0452     0.1467 
 7575.5000   232.3477     0.1558 
 7576.0000   432.2157     0.1717 
 7576.5000   748.6790     0.1843 
 7577.0000  1771.3473     0.2106 
 7577.5000  2476.7722     0.2196 
 7578.0000  2171.7026     0.2121 
 7578.5000  2589.5994     0.2180 
 7579.0000  3447.9709     0.2286 
 7579.5000  3310.6072     0.2270 
 7580.0000  2570.8008     0.2178 
 7580.5000  2470.6877     0.2173 
 7581.0000  2805.2231     0.2230 
 7581.5000  3107.9172     0.2267 
 7582.0000  2341.1497     0.2174 
 7582.5000  1734.8218     0.2050 
 7583.0000  2020.1278     0.2122 
 7583.5000  2382.6687     0.2167 
 7584.0000  2832.6887     0.2229 
 7584.5000  2094.0920     0.2151 
 7585.0000  1162.2631     0.1986 
 7585.5000   676.5551     0.1831 
 7586.0000   609.1703     0.1833 
 7586.5000   951.1810     0.1973 
 7587.0000  1036.8060     0.1973 
 7587.5000   833.4404     0.1901 
 7588.0000   607.5068     0.1792 
 7588.5000   796.6658     0.1874 
 7589.0000  1236.3674     0.2018 
 7589.5000  1212.5396     0.2004 
 7590.0000  1033.7888     0.1943 
 7590.5000  1049.1534     0.1958 
 7591.0000   838.1273     0.1835 
 7591.5000  1074.7639     0.1953 
 7592.0000   605.0665     0.1800 
 7592.5000    73.7990     0.1243 
 7593.0000    19.7667     0.0997 
 7593.5000     5.4880     0.0847 
 7594.0000    10.5218     0.0971 
 7594.5000    24.1623     0.1191 
 7595.0000    27.0672     0.1218 
 7595.5000    25.1024     0.1210 
 7596.0000     5.6422     0.0742 
 7596.5000     0.9036     0.0512 
