~Version Information
 VERS.                  2.0:   CWLS log ASCII Standard -VERSION 2.0
 WRAP.                   NO:   One line per depth step
~Well Information Block
#MNEM.UNIT       Data Type    Information
#---------     -----------    ---------------------------
 STRT.F              7125.0000:
 STOP.F              8192.5000:
 STEP.F                 0.5000:
 NULL.               -999.2500:
 UWI .                CASN0029:  UWI
 API .                CASN0029:  UWI
 WELL.                 CASN-29:  COMMON WELL NAME
 COMP.               ECOPETROL:  WELL OPERATOR
 FLD .                CASTILLA:  FIELD
 LIC .                 UNKNOWN:  AUTHORIZATION NO
 LOC .                     LLA:  BASIN
 CTRY.                COLOMBIA:  COUNTRY
 STAT.                    META:  STATE
 CNTY.       CASTILLA_LA_NUEVA:  COUNTY
 PROV.                    META:  STATE
 SRVC.                 UNKNOWN:  COMPANY
 DATE.                 UNKNOWN:  LOG RUN DATE
 LONG.           -73.616655939:  LONGITUDE
 LATI.             3.893399628:  LATITUDE
 XCOORD.          1051184.7500:  X COORDINATE
 YCOORD.           922298.0000:  Y COORDINATE
 ELEV.FT             1376.0000:  ELEVATION
 TD  .FT             8225.0000:  TOTAL DEPTH
~Parameter Information Block
#MNEM.UNIT       Value        Description
#---------     -----------    ---------------------------
~Curve Information Block
#MNEM.UNIT                 API CODE     Curve Description
#---------               -----------    ---------------------------
 DEPTH.F                00 000 000 000:  Index Curve
 2019_pPerm_ANS.MD          00 000 000 000:  
 2019_pPhieE_D_ANS.V/V         00 000 000 000:  
~A DEPTH     2019_pPerm_ANS 2019_pPhieE_D_ANS
# ...
 7361.0000     0.0000     0.0000 
 7361.5000     0.0000     0.0000 
 7362.0000     0.0000     0.0002 
 7362.5000     0.0000     0.0003 
 7363.0000     0.0000     0.0003 
 7363.5000     0.0000     0.0003 
 7364.0000     0.0000     0.0001 
 7364.5000     0.0000     0.0001 
 7365.0000     0.0000     0.0000 
 7365.5000     0.0000     0.0000 
 7366.0000     0.0000     0.0000 
 7366.5000     0.0000     0.0000 
 7367.0000     0.0000     0.0000 
 7367.5000     0.0000     0.0000 
 7368.0000     0.0000     0.0001 
 7368.5000     0.0000     0.0000 
 7369.0000     0.0000     0.0000 
 7369.5000     0.0000     0.0000 
 7370.0000     0.0000     0.0001 
 7370.5000     0.0000     0.0000 
 7371.0000     0.0000     0.0001 
 7371.5000     0.0000     0.0000 
 7372.0000     0.0000     0.0000 
 7372.5000     0.0000     0.0000 
 7373.0000     0.0000     0.0000 
 7373.5000     0.0000     0.0000 
 7374.0000     0.0000     0.0001 
 7374.5000     0.0000     0.0001 
 7375.0000     0.0000     0.0000 
 7375.5000     0.0000     0.0001 
 7376.0000     0.0000     0.0001 
 7376.5000     0.0000     0.0000 
 7377.0000     0.0000     0.0001 
 7377.5000     0.0000     0.0001 
 7378.0000     0.0000     0.0001 
 7378.5000     0.0001     0.0007 
 7379.0000     0.0000     0.0003 
 7379.5000     0.0000     0.0003 
 7380.0000     0.0000     0.0002 
 7380.5000     0.0000     0.0001 
 7381.0000     0.0000     0.0000 
 7381.5000     0.0000     0.0000 
 7382.0000     0.0000     0.0000 
 7382.5000     0.0000     0.0000 
 7383.0000     0.0000     0.0000 
 7383.5000     0.0024     0.0006 
 7384.0000     0.0341     0.0166 
 7384.5000     0.0354     0.0154 
 7385.0000     0.0200     0.0115 
 7385.5000     0.0069     0.0067 
 7386.0000     0.0014     0.0014 
 7386.5000     0.0000     0.0001 
 7387.0000     0.0000     0.0002 
 7387.5000     0.0001     0.0003 
 7388.0000     0.0015     0.0030 
 7388.5000     0.0020     0.0037 
 7389.0000     0.0004     0.0008 
 7389.5000     0.0000     0.0000 
 7390.0000     0.0000     0.0000 
 7390.5000     0.0000     0.0000 
 7391.0000     0.0000     0.0000 
 7391.5000     0.0000     0.0000 
 7392.0000     0.0000     0.0000 
 7392.5000     0.0000     0.0000 
 7393.0000     0.0000     0.0000 
 7393.5000     0.0000     0.0000 
 7394.0000     0.0000     0.0000 
 7394.5000     0.0000     0.0000 
 7395.0000     0.0000     0.0000 
 7395.5000     0.0000     0.0000 
 7396.0000     0.0000     0.0000 
 7396.5000     0.0000     0.0000 
 7397.0000     0.0000     0.0000 
 7397.5000     0.0001     0.0000 
 7398.0000     0.0006     0.0013 
 7398.5000     0.0030     0.0044 
 7399.0000     0.0050     0.0056 
 7399.5000     0.0096     0.0070 
 7400.0000     0.0230     0.0129 
 7400.5000     0.0529     0.0130 
 7401.0000     0.1924     0.0354 
 7401.5000     0.0904     0.0223 
 7402.0000     0.0240     0.0108 
 7402.5000     0.0059     0.0055 
 7403.0000     0.0033     0.0048 
 7403.5000     0.0003     0.0002 
 7404.0000     0.0000     0.0000 
 7404.5000     0.0000     0.0000 
 7405.0000     0.0000     0.0000 
 7405.5000     0.0000     0.0000 
 7406.0000     0.0000     0.0001 
 7406.5000     0.0000     0.0000 
 7407.0000     0.0000     0.0000 
 7407.5000     0.0000     0.0000 
 7408.0000     0.0000     0.0000 
 7408.5000     0.0000     0.0000 
 7409.0000     0.0000     0.0004 
 7409.5000     0.0000     0.0001 
 7410.0000     0.0001     0.0004 
 7410.5000     0.0005     0.0017 
 7411.0000     0.0001     0.0003 
 7411.5000     0.0000     0.0000 
 7412.0000     0.0000     0.0000 
 7412.5000     0.0000     0.0000 
 7413.0000     0.0000     0.0000 
 7413.5000     0.0000     0.0000 
 7414.0000     0.0000     0.0001 
 7414.5000     0.0000     0.0003 
 7415.0000     0.0000     0.0004 
 7415.5000     0.0000     0.0001 
 7416.0000     0.0000     0.0000 
 7416.5000     0.0000     0.0000 
 7417.0000     0.0000     0.0000 
 7417.5000     0.0000     0.0000 
 7418.0000     0.0000     0.0001 
 7418.5000     0.0000     0.0001 
 7419.0000     0.0000     0.0001 
 7419.5000     0.0000     0.0000 
 7420.0000     0.0000     0.0000 
 7420.5000     0.0000     0.0000 
 7421.0000     0.0000     0.0000 
 7421.5000     0.0000     0.0002 
 7422.0000     0.0172     0.0006 
 7422.5000     0.1156     0.0283 
 7423.0000     0.0938     0.0235 
 7423.5000     0.0793     0.0220 
 7424.0000     0.1249     0.0241 
 7424.5000     0.2821     0.0397 
 7425.0000     0.0681     0.0128 
 7425.5000     0.0078     0.0069 
 7426.0000     0.0018     0.0021 
 7426.5000     0.0001     0.0007 
 7427.0000     0.0000     0.0001 
 7427.5000     0.0003     0.0008 
 7428.0000     0.0043     0.0061 
 7428.5000     0.0025     0.0037 
 7429.0000     0.0015     0.0030 
 7429.5000     0.0002     0.0006 
 7430.0000     0.0000     0.0002 
 7430.5000     0.0000     0.0001 
 7431.0000     0.0000     0.0001 
 7431.5000     0.0000     0.0001 
 7432.0000     0.0000     0.0000 
 7432.5000     0.0000     0.0001 
 7433.0000     0.0000     0.0000 
 7433.5000     0.0000     0.0001 
 7434.0000     0.0001     0.0005 
 7434.5000     0.0004     0.0015 
 7435.0000     0.0004     0.0014 
 7435.5000     0.0004     0.0012 
 7436.0000     0.0007     0.0018 
 7436.5000     0.0003     0.0009 
 7437.0000     0.0005     0.0015 
 7437.5000     0.0014     0.0030 
 7438.0000     0.0017     0.0031 
 7438.5000     0.0022     0.0041 
 7439.0000     0.0002     0.0006 
 7439.5000     0.0012     0.0011 
 7440.0000     0.0056     0.0065 
 7440.5000     0.0012     0.0008 
 7441.0000     0.0009     0.0020 
 7441.5000     0.0024     0.0042 
 7442.0000     0.0012     0.0022 
 7442.5000     0.0012     0.0028 
 7443.0000     0.0006     0.0011 
 7443.5000     0.0016     0.0032 
 7444.0000     0.0036     0.0034 
 7444.5000     0.0125     0.0096 
 7445.0000     0.0116     0.0084 
 7445.5000     0.0153     0.0096 
 7446.0000     0.2407     0.0164 
 7446.5000     1.2774     0.0647 
 7447.0000     1.3217     0.0625 
 7447.5000     0.9261     0.0532 
 7448.0000     0.6910     0.0489 
 7448.5000     0.1888     0.0278 
 7449.0000     0.2056     0.0303 
 7449.5000     0.2771     0.0318 
 7450.0000     1.1933     0.0668 
 7450.5000     0.9577     0.0582 
 7451.0000     0.5504     0.0487 
 7451.5000     0.1422     0.0258 
 7452.0000     0.0179     0.0040 
 7452.5000     0.0065     0.0055 
 7453.0000     0.0299     0.0121 
 7453.5000     0.1137     0.0253 
 7454.0000     0.2183     0.0365 
 7454.5000     0.0791     0.0183 
 7455.0000     0.0471     0.0170 
 7455.5000     0.0817     0.0221 
 7456.0000     0.1457     0.0286 
 7456.5000     0.4020     0.0383 
 7457.0000     1.1539     0.0608 
 7457.5000     2.1783     0.0746 
 7458.0000     2.9577     0.0802 
 7458.5000     1.1830     0.0598 
 7459.0000     0.0267     0.0063 
 7459.5000     0.0012     0.0013 
 7460.0000     0.0001     0.0005 
 7460.5000     0.0009     0.0017 
 7461.0000     0.0041     0.0042 
 7461.5000     0.0185     0.0121 
 7462.0000     0.0562     0.0114 
 7462.5000     0.6104     0.0435 
 7463.0000     1.8094     0.0758 
 7463.5000     0.4785     0.0284 
 7464.0000     0.4906     0.0421 
 7464.5000     0.5641     0.0475 
 7465.0000     0.1702     0.0260 
 7465.5000     0.0098     0.0005 
 7466.0000     0.0000     0.0001 
 7466.5000     0.0000     0.0001 
 7467.0000     0.0000     0.0001 
 7467.5000     0.0000     0.0000 
 7468.0000     0.0000     0.0000 
 7468.5000     0.0000     0.0000 
 7469.0000     0.0000     0.0000 
 7469.5000     0.0000     0.0001 
 7470.0000     0.0000     0.0001 
 7470.5000     0.0000     0.0000 
 7471.0000     0.0000     0.0000 
 7471.5000     0.0000     0.0000 
 7472.0000     0.0000     0.0000 
 7472.5000     0.0000     0.0000 
 7473.0000     0.0000     0.0000 
 7473.5000     0.0000     0.0000 
 7474.0000     0.0000     0.0001 
 7474.5000     0.0000     0.0000 
 7475.0000     0.0000     0.0001 
 7475.5000     0.0000     0.0000 
 7476.0000     0.0000     0.0000 
 7476.5000     0.0000     0.0000 
 7477.0000     0.0000     0.0002 
 7477.5000     0.0000     0.0001 
 7478.0000     0.0002     0.0007 
 7478.5000     0.0013     0.0031 
