~Version Information
 VERS.                  2.0:   CWLS log ASCII Standard -VERSION 2.0
 WRAP.                   NO:   One line per depth step
~Well Information Block
#MNEM.UNIT       Data Type    Information
#---------     -----------    ---------------------------
 STRT.F              7159.5000:
 STOP.F              8265.0000:
 STEP.F                 0.5000:
 NULL.               -999.2500:
 UWI .                CASN0033:  UWI
 API .                CASN0033:  UWI
 WELL.                 CASN-33:  COMMON WELL NAME
 COMP.               ECOPETROL:  WELL OPERATOR
 FLD .                CASTILLA:  FIELD
 LIC .                 UNKNOWN:  AUTHORIZATION NO
 LOC .                     LLA:  BASIN
 CTRY.                COLOMBIA:  COUNTRY
 STAT.                    META:  STATE
 CNTY.       CASTILLA_LA_NUEVA:  COUNTY
 PROV.                    META:  STATE
 SRVC.                 UNKNOWN:  COMPANY
 DATE.                 UNKNOWN:  LOG RUN DATE
 LONG.           -73.616507528:  LONGITUDE
 LATI.             3.893623539:  LATITUDE
 XCOORD.          1051201.2500:  X COORDINATE
 YCOORD.           922322.7500:  Y COORDINATE
 ELEV.FT             1376.0000:  ELEVATION
 TD  .FT             8280.0000:  TOTAL DEPTH
~Parameter Information Block
#MNEM.UNIT       Value        Description
#---------     -----------    ---------------------------
~Curve Information Block
#MNEM.UNIT                 API CODE     Curve Description
#---------               -----------    ---------------------------
 DEPTH.F                00 000 000 000:  Index Curve
 2019_pPerm_ANS.MD          00 000 000 000:  
 2019_pPhieE_D_ANS.V/V         00 000 000 000:  
~A DEPTH     2019_pPerm_ANS 2019_pPhieE_D_ANS
# ...
 7395.5000     0.0000     0.0004 
 7396.0000     0.0000     0.0002 
 7396.5000     0.0000     0.0003 
 7397.0000     0.0000     0.0003 
 7397.5000     0.0000     0.0003 
 7398.0000     0.0000     0.0002 
 7398.5000     0.0000     0.0003 
 7399.0000     0.0001     0.0004 
 7399.5000     0.0000     0.0004 
 7400.0000     0.0000     0.0004 
 7400.5000     0.0001     0.0004 
 7401.0000     0.0001     0.0005 
 7401.5000     0.0001     0.0006 
 7402.0000     0.0001     0.0007 
 7402.5000     0.0001     0.0006 
 7403.0000     0.0001     0.0005 
 7403.5000     0.0005     0.0015 
 7404.0000     0.0053     0.0036 
 7404.5000     0.0352     0.0132 
 7405.0000     0.1879     0.0376 
 7405.5000     0.0626     0.0202 
 7406.0000     0.0196     0.0100 
 7406.5000     0.0043     0.0054 
 7407.0000     0.0021     0.0028 
 7407.5000     0.0033     0.0046 
 7408.0000     0.0137     0.0074 
 7408.5000     0.0643     0.0186 
 7409.0000     0.2446     0.0409 
 7409.5000     0.0805     0.0205 
 7410.0000     0.0177     0.0092 
 7410.5000     0.0027     0.0033 
 7411.0000     0.0004     0.0010 
 7411.5000     0.0001     0.0005 
 7412.0000     0.0000     0.0003 
 7412.5000     0.0000     0.0002 
 7413.0000     0.0000     0.0002 
 7413.5000     0.0000     0.0004 
 7414.0000     0.0001     0.0006 
 7414.5000     0.0002     0.0009 
 7415.0000     0.0005     0.0014 
 7415.5000     0.0031     0.0035 
 7416.0000     0.0094     0.0083 
 7416.5000     0.0034     0.0040 
 7417.0000     0.0006     0.0018 
 7417.5000     0.0002     0.0007 
 7418.0000     0.0000     0.0002 
 7418.5000     0.0000     0.0002 
 7419.0000     0.0000     0.0002 
 7419.5000     0.0000     0.0004 
 7420.0000     0.0001     0.0007 
 7420.5000     0.0003     0.0013 
 7421.0000     0.0012     0.0022 
 7421.5000     0.0071     0.0057 
 7422.0000     0.0227     0.0138 
 7422.5000     0.0189     0.0116 
 7423.0000     0.0132     0.0098 
 7423.5000     0.0071     0.0069 
 7424.0000     0.0039     0.0048 
 7424.5000     0.0034     0.0047 
 7425.0000     0.0041     0.0047 
 7425.5000     0.0085     0.0076 
 7426.0000     0.0152     0.0119 
 7426.5000     0.0037     0.0048 
 7427.0000     0.0010     0.0018 
 7427.5000     0.0001     0.0007 
 7428.0000     0.0000     0.0003 
 7428.5000     0.0000     0.0003 
 7429.0000     0.0000     0.0003 
 7429.5000     0.0000     0.0002 
 7430.0000     0.0000     0.0001 
 7430.5000     0.0000     0.0001 
 7431.0000     0.0000     0.0001 
 7431.5000     0.0001     0.0004 
 7432.0000     0.0013     0.0020 
 7432.5000     0.0082     0.0060 
 7433.0000     0.0306     0.0154 
 7433.5000     0.0417     0.0171 
 7434.0000     0.0487     0.0191 
 7434.5000     0.0251     0.0127 
 7435.0000     0.0101     0.0082 
 7435.5000     0.0051     0.0057 
 7436.0000     0.0026     0.0039 
 7436.5000     0.0073     0.0066 
 7437.0000     0.0162     0.0109 
 7437.5000     0.0078     0.0069 
 7438.0000     0.0028     0.0042 
 7438.5000     0.0034     0.0048 
 7439.0000     0.0044     0.0054 
 7439.5000     0.0080     0.0073 
 7440.0000     0.0130     0.0098 
 7440.5000     0.0138     0.0100 
 7441.0000     0.0155     0.0102 
 7441.5000     0.0305     0.0144 
 7442.0000     0.0624     0.0199 
 7442.5000     0.1504     0.0291 
 7443.0000     0.3796     0.0413 
 7443.5000     1.0231     0.0589 
 7444.0000     1.9488     0.0795 
 7444.5000     0.4505     0.0359 
 7445.0000     0.2028     0.0305 
 7445.5000     0.2720     0.0364 
 7446.0000     0.3616     0.0423 
 7446.5000     0.3084     0.0384 
 7447.0000     0.2317     0.0345 
 7447.5000     0.1390     0.0274 
 7448.0000     0.0866     0.0204 
 7448.5000     0.0909     0.0225 
 7449.0000     0.1070     0.0246 
 7449.5000     0.1032     0.0235 
 7450.0000     0.0922     0.0224 
 7450.5000     0.0695     0.0188 
 7451.0000     0.0493     0.0152 
 7451.5000     0.0382     0.0134 
 7452.0000     0.0433     0.0116 
 7452.5000     0.1296     0.0233 
 7453.0000     0.2626     0.0351 
 7453.5000     0.1924     0.0294 
 7454.0000     0.1078     0.0238 
 7454.5000     0.0527     0.0023 
 7455.0000     0.2089     0.0370 
 7455.5000     0.0449     0.0081 
 7456.0000     0.0009     0.0012 
 7456.5000     0.0001     0.0003 
 7457.0000     0.0000     0.0001 
 7457.5000     0.0000     0.0001 
 7458.0000     0.0000     0.0001 
 7458.5000     0.0000     0.0002 
 7459.0000     0.0000     0.0004 
 7459.5000     0.0001     0.0004 
 7460.0000     0.0001     0.0004 
 7460.5000     0.0001     0.0006 
 7461.0000     0.0002     0.0008 
 7461.5000     0.0001     0.0004 
 7462.0000     0.0000     0.0002 
 7462.5000     0.0000     0.0000 
 7463.0000     0.0000     0.0000 
 7463.5000     0.0000     0.0000 
 7464.0000     0.0000     0.0001 
 7464.5000     0.0000     0.0002 
 7465.0000     0.0000     0.0004 
 7465.5000     0.0001     0.0005 
 7466.0000     0.0001     0.0007 
 7466.5000     0.0000     0.0003 
 7467.0000     0.0000     0.0001 
 7467.5000     0.0000     0.0002 
 7468.0000     0.0000     0.0003 
 7468.5000     0.0001     0.0007 
 7469.0000     0.0005     0.0017 
 7469.5000     0.0006     0.0019 
 7470.0000     0.0007     0.0021 
 7470.5000     0.0004     0.0015 
 7471.0000     0.0002     0.0011 
 7471.5000     0.0003     0.0013 
 7472.0000     0.0004     0.0015 
 7472.5000     0.0006     0.0017 
 7473.0000     0.0008     0.0020 
 7473.5000     0.0010     0.0024 
 7474.0000     0.0012     0.0029 
 7474.5000     0.0005     0.0015 
 7475.0000     0.0001     0.0007 
 7475.5000     0.0004     0.0012 
 7476.0000     0.0007     0.0019 
 7476.5000     0.0010     0.0025 
 7477.0000     0.0016     0.0031 
 7477.5000     0.0016     0.0032 
 7478.0000     0.0019     0.0032 
 7478.5000     0.0103     0.0072 
 7479.0000     0.0305     0.0149 
 7479.5000     0.0184     0.0113 
 7480.0000     0.0100     0.0084 
 7480.5000     0.0098     0.0084 
 7481.0000     0.0103     0.0084 
 7481.5000     0.0231     0.0125 
 7482.0000     0.0418     0.0181 
 7482.5000     0.0235     0.0126 
 7483.0000     0.0115     0.0086 
 7483.5000     0.0109     0.0089 
 7484.0000     0.0112     0.0092 
 7484.5000     0.0092     0.0081 
 7485.0000     0.0071     0.0071 
 7485.5000     0.0052     0.0060 
 7486.0000     0.0043     0.0050 
 7486.5000     0.0069     0.0069 
 7487.0000     0.0101     0.0094 
 7487.5000     0.0047     0.0055 
 7488.0000     0.0020     0.0031 
 7488.5000     0.0011     0.0025 
 7489.0000     0.0007     0.0020 
 7489.5000     0.0001     0.0007 
 7490.0000     0.0000     0.0002 
 7490.5000     0.0000     0.0002 
 7491.0000     0.0000     0.0001 
 7491.5000     0.0000     0.0002 
 7492.0000     0.0001     0.0003 
 7492.5000     0.0003     0.0010 
 7493.0000     0.0015     0.0026 
 7493.5000     0.0043     0.0050 
 7494.0000     0.0097     0.0090 
 7494.5000     0.0078     0.0074 
 7495.0000     0.0050     0.0060 
 7495.5000     0.0011     0.0017 
 7496.0000     0.0001     0.0004 
 7496.5000     0.0000     0.0002 
 7497.0000     0.0000     0.0001 
 7497.5000     0.0001     0.0004 
 7498.0000     0.0007     0.0016 
 7498.5000     0.0058     0.0047 
 7499.0000     0.0223     0.0122 
 7499.5000     0.0919     0.0220 
 7500.0000     0.2429     0.0367 
 7500.5000     0.2851     0.0390 
 7501.0000     0.3216     0.0414 
 7501.5000     0.0809     0.0167 
 7502.0000     0.0075     0.0056 
 7502.5000     0.0307     0.0124 
 7503.0000     0.1156     0.0252 
 7503.5000     0.5241     0.0440 
 7504.0000     1.3266     0.0698 
 7504.5000     0.4045     0.0373 
 7505.0000     0.0623     0.0169 
 7505.5000     0.0102     0.0069 
 7506.0000     0.0018     0.0025 
 7506.5000     0.0005     0.0015 
 7507.0000     0.0002     0.0009 
 7507.5000     0.0001     0.0006 
 7508.0000     0.0000     0.0004 
 7508.5000     0.0000     0.0002 
 7509.0000     0.0000     0.0001 
 7509.5000     0.0000     0.0000 
 7510.0000     0.0000     0.0000 
 7510.5000     0.0000     0.0000 
 7511.0000     0.0000     0.0000 
 7511.5000     0.0000     0.0000 
 7512.0000     0.0000     0.0000 
 7512.5000     0.0000     0.0001 
 7513.0000     0.0000     0.0001 
