~Version Information
 VERS.                  2.0:   CWLS log ASCII Standard -VERSION 2.0
 WRAP.                   NO:   One line per depth step
~Well Information Block
#MNEM.UNIT       Data Type    Information
#---------     -----------    ---------------------------
 STRT.F              7267.0000:
 STOP.F              8234.0000:
 STEP.F                 0.5000:
 NULL.               -999.2500:
 UWI .                CASN0087:  UWI
 API .                CASN0087:  UWI
 WELL.                 CASN-87:  COMMON WELL NAME
 COMP.               ECOPETROL:  WELL OPERATOR
 FLD .                CASTILLA:  FIELD
 LIC .                 UNKNOWN:  AUTHORIZATION NO
 LOC .                     LLA:  BASIN
 CTRY.                COLOMBIA:  COUNTRY
 STAT.                    META:  STATE
 CNTY.                 UNKNOWN:  COUNTY
 PROV.                    META:  STATE
 SRVC.                 UNKNOWN:  COMPANY
 DATE.                 UNKNOWN:  LOG RUN DATE
 LONG.           -73.612780838:  LONGITUDE
 LATI.             3.904697520:  LATITUDE
 XCOORD.          1051614.5000:  X COORDINATE
 YCOORD.           923547.6250:  Y COORDINATE
 ELEV.FT             1354.7550:  ELEVATION
 TD  .FT             8220.0000:  TOTAL DEPTH
~Parameter Information Block
#MNEM.UNIT       Value        Description
#---------     -----------    ---------------------------
~Curve Information Block
#MNEM.UNIT                 API CODE     Curve Description
#---------               -----------    ---------------------------
 DEPTH.F                00 000 000 000:  Index Curve
 2019_pPerm_ANS.MD          00 000 000 000:  
 2019_pPhieE_D_ANS.V/V         00 000 000 000:  
~A DEPTH     2019_pPerm_ANS 2019_pPhieE_D_ANS
# ...
 7857.0000  5555.2979     0.2245 
 7857.5000  6506.4185     0.2292 
 7858.0000  7466.7012     0.2347 
 7858.5000  7648.1553     0.2382 
 7859.0000  6654.0522     0.2374 
 7859.5000  5240.2808     0.2339 
 7860.0000  4515.4062     0.2317 
 7860.5000  4693.3667     0.2318 
 7861.0000  5400.5957     0.2327 
 7861.5000  6590.7427     0.2341 
 7862.0000  8368.0371     0.2378 
 7862.5000  9493.1387     0.2404 
 7863.0000  8121.1387     0.2340 
 7863.5000  5007.1338     0.2176 
 7864.0000  2601.9041     0.1993 
 7864.5000  1541.0724     0.1871 
 7865.0000  1241.7092     0.1833 
 7865.5000  1370.3416     0.1866 
 7866.0000  1725.9357     0.1945 
 7866.5000  2003.5605     0.2017 
 7867.0000  2007.8063     0.2040 
 7867.5000  1790.6259     0.2012 
 7868.0000  1587.6340     0.1968 
 7868.5000  1494.1223     0.1929 
 7869.0000  1356.6946     0.1885 
 7869.5000  1165.3236     0.1845 
 7870.0000  1088.3367     0.1835 
 7870.5000  1286.5745     0.1873 
 7871.0000  1788.5225     0.1945 
 7871.5000  2340.5671     0.2004 
 7872.0000  2587.4534     0.2016 
 7872.5000  2454.6729     0.1987 
 7873.0000  2127.1216     0.1943 
 7873.5000  1846.7859     0.1910 
 7874.0000  1757.6273     0.1909 
 7874.5000  1877.9856     0.1943 
 7875.0000  2070.1201     0.1978 
 7875.5000  2034.0164     0.1960 
 7876.0000  1729.9778     0.1889 
 7876.5000  1513.1810     0.1833 
 7877.0000  1599.9137     0.1834 
 7877.5000  1856.7227     0.1867 
 7878.0000  2089.9890     0.1895 
 7878.5000  2387.8640     0.1930 
 7879.0000  2934.6746     0.1990 
 7879.5000  3421.0317     0.2036 
 7880.0000  3255.2710     0.2017 
 7880.5000  2577.7478     0.1948 
 7881.0000  2029.6279     0.1894 
 7881.5000  1825.8401     0.1890 
 7882.0000  1786.9010     0.1920 
 7882.5000  1682.7228     0.1942 
 7883.0000  1526.4094     0.1935 
 7883.5000  1463.7860     0.1914 
 7884.0000  1541.5092     0.1901 
 7884.5000  1795.1207     0.1913 
 7885.0000  2192.9988     0.1945 
 7885.5000  2682.8062     0.1983 
 7886.0000  3294.1245     0.2027 
 7886.5000  4060.0254     0.2078 
 7887.0000  4843.3721     0.2129 
 7887.5000  5202.2891     0.2155 
 7888.0000  4821.9995     0.2134 
 7888.5000  3905.6018     0.2068 
 7889.0000  3189.3230     0.2010 
 7889.5000  2613.3428     0.1932 
 7890.0000  1464.8419     0.1613 
 7890.5000   385.0159     0.0928 
 7891.0000    35.4493     0.0279 
 7891.5000    24.0330     0.0278 
 7892.0000   409.3497     0.0925 
 7892.5000  1437.4246     0.1635 
 7893.0000  2469.1643     0.1964 
 7893.5000  2819.0339     0.2003 
 7894.0000  2693.7480     0.1977 
 7894.5000  2535.3398     0.1951 
 7895.0000  2496.9365     0.1944 
 7895.5000  2564.8108     0.1955 
 7896.0000  2564.7273     0.1959 
 7896.5000  2431.8374     0.1942 
 7897.0000  2370.8997     0.1930 
 7897.5000  2514.7229     0.1945 
 7898.0000  2664.7358     0.1964 
 7898.5000  2595.7317     0.1964 
 7899.0000  2406.2961     0.1951 
 7899.5000  2312.4634     0.1947 
 7900.0000  2379.8660     0.1957 
 7900.5000  2503.3386     0.1970 
 7901.0000  2581.4143     0.1973 
 7901.5000  2642.1697     0.1975 
 7902.0000  2756.4761     0.1989 
 7902.5000  3044.4272     0.2027 
 7903.0000  3539.3018     0.2086 
 7903.5000  4162.7749     0.2146 
 7904.0000  4650.7427     0.2186 
 7904.5000  4319.7368     0.2155 
 7905.0000  3012.3394     0.2007 
 7905.5000  1662.6823     0.1804 
 7906.0000  1322.6986     0.1735 
 7906.5000  2005.7120     0.1854 
 7907.0000  3064.6179     0.2005 
 7907.5000  3656.3357     0.2076 
 7908.0000  3743.1851     0.2093 
 7908.5000  4055.5156     0.2121 
 7909.0000  4234.5518     0.2138 
 7909.5000  3762.6213     0.2103 
 7910.0000  2912.6853     0.2025 
 7910.5000  2156.6799     0.1938 
 7911.0000  1949.7903     0.1905 
 7911.5000  2388.2095     0.1953 
 7912.0000  2977.6462     0.2016 
 7912.5000  3029.3162     0.2019 
 7913.0000  2556.9937     0.1966 
 7913.5000  1994.6801     0.1896 
 7914.0000  1566.3616     0.1834 
 7914.5000  1336.4869     0.1800 
 7915.0000  1346.8612     0.1807 
 7915.5000  1549.8500     0.1845 
 7916.0000  1750.4039     0.1876 
 7916.5000  1751.1572     0.1870 
 7917.0000  1642.2479     0.1848 
 7917.5000  1644.4310     0.1848 
 7918.0000  1840.7306     0.1876 
 7918.5000  2160.2966     0.1915 
 7919.0000  2430.6992     0.1939 
 7919.5000  2576.6577     0.1944 
 7920.0000  2519.7922     0.1930 
 7920.5000  2333.1934     0.1908 
 7921.0000  2405.5647     0.1920 
 7921.5000  3038.4443     0.1990 
 7922.0000  3909.0483     0.2072 
 7922.5000  4189.1309     0.2098 
 7923.0000  3810.5859     0.2066 
 7923.5000  3517.3411     0.2037 
 7924.0000  3712.9292     0.2049 
 7924.5000  4249.9194     0.2089 
 7925.0000  4843.8003     0.2133 
 7925.5000  5119.1387     0.2159 
 7926.0000  4478.1904     0.2123 
 7926.5000  2963.1428     0.1994 
 7927.0000  1642.3278     0.1831 
 7927.5000  1163.5001     0.1745 
 7928.0000  1385.1692     0.1784 
 7928.5000  2123.0571     0.1895 
 7929.0000  3200.5303     0.2014 
 7929.5000  4177.7642     0.2099 
 7930.0000  4498.7690     0.2123 
 7930.5000  4106.0527     0.2100 
 7931.0000  3487.9907     0.2061 
 7931.5000  2881.1816     0.2015 
 7932.0000  2365.9485     0.1964 
 7932.5000  2107.7952     0.1927 
 7933.0000  2145.6514     0.1923 
 7933.5000  2291.3425     0.1935 
 7934.0000  2429.6987     0.1946 
 7934.5000  2746.4976     0.1978 
 7935.0000  3157.4980     0.2021 
 7935.5000  3286.8093     0.2033 
 7936.0000  3074.6775     0.2007 
 7936.5000  2880.8086     0.1978 
 7937.0000  2930.4170     0.1975 
 7937.5000  2939.8806     0.1974 
 7938.0000  2668.2810     0.1946 
 7938.5000  2274.1804     0.1903 
 7939.0000  1941.1652     0.1864 
 7939.5000  1709.5603     0.1831 
 7940.0000  1614.8041     0.1815 
 7940.5000  1791.6227     0.1841 
 7941.0000  2281.3372     0.1910 
 7941.5000  2776.2307     0.1971 
 7942.0000  2962.8457     0.1994 
 7942.5000  2834.5583     0.1984 
 7943.0000  2581.2009     0.1965 
 7943.5000  2376.2468     0.1952 
 7944.0000  2432.8484     0.1970 
 7944.5000  2818.5129     0.2022 
 7945.0000  3237.1016     0.2068 
 7945.5000  3436.4536     0.2085 
 7946.0000  3650.9983     0.2094 
 7946.5000  4232.9639     0.2123 
 7947.0000  4834.7959     0.2154 
 7947.5000  4877.5913     0.2152 
 7948.0000  4336.9429     0.2116 
 7948.5000  3638.9666     0.2070 
 7949.0000  3315.9241     0.2048 
 7949.5000  3527.6099     0.2063 
 7950.0000  3945.1521     0.2092 
 7950.5000  4226.6782     0.2113 
 7951.0000  4112.3267     0.2106 
 7951.5000  3286.9016     0.2027 
 7952.0000  1981.5084     0.1849 
 7952.5000  1017.8201     0.1662 
 7953.0000   902.8481     0.1628 
 7953.5000  1847.9916     0.1798 
 7954.0000  3629.4805     0.2019 
 7954.5000  4915.6953     0.2131 
 7955.0000  4776.1768     0.2122 
 7955.5000  4108.7041     0.2072 
 7956.0000  3859.4551     0.2052 
 7956.5000  4014.4265     0.2061 
 7957.0000  4265.1289     0.2077 
 7957.5000  4229.2930     0.2072 
 7958.0000  3819.0122     0.2040 
 7958.5000  3388.9534     0.2006 
 7959.0000  3329.4985     0.2003 
 7959.5000  3704.8489     0.2042 
 7960.0000  3964.0898     0.2083 
 7960.5000  3489.0288     0.2066 
 7961.0000  2521.4211     0.1991 
 7961.5000  1878.7726     0.1927 
 7962.0000  1921.5217     0.1928 
 7962.5000  2393.6660     0.1970 
 7963.0000  2819.0222     0.1995 
 7963.5000  3003.2302     0.1997 
 7964.0000  3068.0601     0.1997 
 7964.5000  3091.0381     0.2001 
 7965.0000  3286.3926     0.2024 
 7965.5000  3851.1057     0.2073 
 7966.0000  4640.3438     0.2130 
 7966.5000  5355.2954     0.2174 
 7967.0000  5787.2881     0.2199 
 7967.5000  5581.9175     0.2192 
 7968.0000  4579.4243     0.2137 
 7968.5000  3361.0090     0.2059 
 7969.0000  2703.0510     0.2009 
 7969.5000  2759.6416     0.2009 
 7970.0000  3265.4629     0.2046 
 7970.5000  4052.9954     0.2104 
 7971.0000  5034.7988     0.2172 
 7971.5000  5800.0190     0.2223 
 7972.0000  5936.9126     0.2244 
 7972.5000  5553.1875     0.2243 
 7973.0000  4981.6973     0.2230 
 7973.5000  4344.2881     0.2203 
 7974.0000  3675.0337     0.2153 
 7974.5000  3145.1182     0.2098 
