~Version Information
 VERS.                  2.0:   CWLS log ASCII Standard -VERSION 2.0
 WRAP.                   NO:   One line per depth step
~Well Information Block
#MNEM.UNIT       Data Type    Information
#---------     -----------    ---------------------------
 STRT.F              7958.5000:
 STOP.F              9186.0000:
 STEP.F                 0.5000:
 NULL.               -999.2500:
 UWI .                CASN0032:  UWI
 API .                CASN0032:  UWI
 WELL.                 CASN-32:  COMMON WELL NAME
 COMP.               ECOPETROL:  WELL OPERATOR
 FLD .                CASTILLA:  FIELD
 LIC .                 UNKNOWN:  AUTHORIZATION NO
 LOC .                     LLA:  BASIN
 CTRY.                COLOMBIA:  COUNTRY
 STAT.                    META:  STATE
 CNTY.       CASTILLA_LA_NUEVA:  COUNTY
 PROV.                    META:  STATE
 SRVC.                 UNKNOWN:  COMPANY
 DATE.                 UNKNOWN:  LOG RUN DATE
 LONG.           -73.616332248:  LONGITUDE
 LATI.             3.893579824:  LATITUDE
 XCOORD.          1051220.7500:  X COORDINATE
 YCOORD.           922317.9375:  Y COORDINATE
 ELEV.FT             1376.0000:  ELEVATION
 TD  .FT             9217.0000:  TOTAL DEPTH
~Parameter Information Block
#MNEM.UNIT       Value        Description
#---------     -----------    ---------------------------
~Curve Information Block
#MNEM.UNIT                 API CODE     Curve Description
#---------               -----------    ---------------------------
 DEPTH.F                00 000 000 000:  Index Curve
 2019_pPerm_ANS.MD          00 000 000 000:  
 2019_pPhieE_D_ANS.V/V         00 000 000 000:  
~A DEPTH     2019_pPerm_ANS 2019_pPhieE_D_ANS
# ...
 8430.5000     0.0004     0.0006 
 8431.0000     0.0001     0.0002 
 8431.5000     0.0001     0.0003 
 8432.0000     0.0002     0.0002 
 8432.5000     0.0005     0.0009 
 8433.0000     0.0001     0.0002 
 8433.5000     0.0001     0.0002 
 8434.0000     0.0006     0.0008 
 8434.5000     0.0019     0.0020 
 8435.0000     0.0005     0.0007 
 8435.5000     0.0002     0.0003 
 8436.0000     0.0002     0.0004 
 8436.5000     0.0001     0.0003 
 8437.0000     0.0003     0.0006 
 8437.5000     0.0002     0.0003 
 8438.0000     0.0002     0.0005 
 8438.5000     0.0007     0.0010 
 8439.0000     0.0001     0.0003 
 8439.5000     0.0012     0.0006 
 8440.0000     0.0051     0.0031 
 8440.5000     0.0018     0.0014 
 8441.0000     0.0006     0.0006 
 8441.5000     0.0010     0.0013 
 8442.0000     0.0003     0.0005 
 8442.5000     0.0002     0.0003 
 8443.0000     0.0010     0.0007 
 8443.5000     0.0054     0.0033 
 8444.0000     0.0058     0.0032 
 8444.5000     0.0059     0.0031 
 8445.0000     0.0191     0.0040 
 8445.5000     0.0800     0.0138 
 8446.0000     0.1126     0.0175 
 8446.5000     0.0636     0.0120 
 8447.0000     0.0217     0.0053 
 8447.5000     0.0128     0.0051 
 8448.0000     0.0068     0.0033 
 8448.5000     0.0028     0.0020 
 8449.0000     0.0007     0.0006 
 8449.5000     0.0002     0.0004 
 8450.0000     0.0000     0.0001 
 8450.5000     0.0000     0.0001 
 8451.0000     0.0214     0.0005 
 8451.5000     0.6681     0.0181 
 8452.0000     5.5831     0.0776 
 8452.5000     8.7674     0.0852 
 8453.0000     5.8332     0.0786 
 8453.5000     1.1028     0.0298 
 8454.0000     0.0920     0.0103 
 8454.5000     0.9587     0.0150 
 8455.0000     7.5971     0.0790 
 8455.5000    34.9315     0.1049 
 8456.0000    96.2119     0.1305 
 8456.5000   167.1152     0.1433 
 8457.0000   221.6674     0.1500 
 8457.5000   175.6707     0.1439 
 8458.0000   130.3661     0.1374 
 8458.5000    57.9889     0.1181 
 8459.0000     3.7844     0.0617 
 8459.5000     0.5832     0.0207 
 8460.0000     0.0169     0.0040 
 8460.5000     0.0081     0.0038 
 8461.0000     0.0079     0.0038 
 8461.5000     0.0063     0.0035 
 8462.0000     0.0034     0.0021 
 8462.5000     0.0044     0.0030 
 8463.0000     0.0022     0.0016 
 8463.5000     0.0014     0.0014 
 8464.0000     0.0005     0.0006 
 8464.5000     0.0005     0.0008 
 8465.0000     0.0007     0.0009 
 8465.5000     0.0005     0.0007 
 8466.0000     0.0007     0.0008 
 8466.5000     0.0016     0.0016 
 8467.0000     0.0005     0.0006 
 8467.5000     0.0000     0.0001 
 8468.0000     0.0000     0.0002 
 8468.5000     0.0000     0.0001 
 8469.0000     0.0010     0.0013 
 8469.5000     0.0008     0.0010 
 8470.0000     0.0010     0.0013 
 8470.5000     0.0007     0.0007 
 8471.0000     0.4117     0.0030 
 8471.5000     2.7624     0.0603 
 8472.0000     9.5852     0.0802 
 8472.5000    26.2437     0.1052 
 8473.0000    26.3581     0.1051 
 8473.5000    15.9069     0.0925 
 8474.0000    11.9055     0.0912 
 8474.5000     1.8184     0.0140 
 8475.0000     0.0091     0.0006 
 8475.5000     0.0002     0.0004 
 8476.0000     0.0001     0.0001 
 8476.5000     0.0009     0.0008 
 8477.0000     0.0279     0.0020 
 8477.5000     1.1287     0.0296 
 8478.0000     4.9817     0.0754 
 8478.5000     1.8038     0.0431 
 8479.0000     1.4526     0.0491 
 8479.5000     1.1448     0.0429 
 8480.0000     1.3956     0.0476 
 8480.5000     3.8567     0.0667 
 8481.0000     7.0819     0.0812 
 8481.5000     3.9946     0.0608 
 8482.0000     5.9073     0.0788 
 8482.5000     6.6967     0.0790 
 8483.0000     9.0329     0.0852 
 8483.5000     7.5609     0.0816 
 8484.0000     5.1002     0.0728 
 8484.5000     5.2194     0.0733 
 8485.0000     6.8989     0.0822 
 8485.5000     3.1694     0.0608 
 8486.0000     2.8382     0.0546 
 8486.5000     6.4128     0.0806 
 8487.0000     2.4867     0.0539 
 8487.5000     0.3921     0.0264 
 8488.0000     0.0734     0.0081 
 8488.5000     0.0150     0.0055 
 8489.0000     0.0065     0.0026 
 8489.5000     0.0073     0.0036 
 8490.0000     0.0030     0.0017 
 8490.5000     0.0185     0.0019 
 8491.0000     3.4371     0.0349 
 8491.5000    18.7331     0.0973 
 8492.0000    28.9873     0.1103 
 8492.5000    14.7472     0.0751 
 8493.0000   106.9747     0.1301 
 8493.5000   260.7589     0.1543 
 8494.0000   324.6820     0.1601 
 8494.5000   284.9129     0.1539 
 8495.0000   322.6071     0.1598 
 8495.5000   263.4299     0.1533 
 8496.0000   209.4472     0.1476 
 8496.5000   199.2020     0.1470 
 8497.0000   186.8088     0.1463 
 8497.5000   124.3997     0.1339 
 8498.0000   105.7236     0.1339 
 8498.5000    20.9078     0.0653 
 8499.0000     7.5624     0.0710 
 8499.5000   126.1186     0.1336 
 8500.0000   313.9188     0.1578 
 8500.5000   959.2563     0.1889 
 8501.0000  1062.3531     0.1888 
 8501.5000   455.2105     0.1644 
 8502.0000    24.7458     0.0503 
 8502.5000     0.3075     0.0143 
 8503.0000     0.0294     0.0076 
 8503.5000     0.0050     0.0012 
 8504.0000     0.0083     0.0018 
 8504.5000     0.0609     0.0121 
 8505.0000     0.0908     0.0158 
 8505.5000     0.0244     0.0055 
 8506.0000     0.0052     0.0022 
 8506.5000     0.0075     0.0037 
 8507.0000     0.0158     0.0051 
 8507.5000     0.0403     0.0093 
 8508.0000     0.0656     0.0142 
 8508.5000     0.0056     0.0011 
 8509.0000     0.0002     0.0002 
 8509.5000     0.0000     0.0000 
 8510.0000     0.0000     0.0000 
 8510.5000     0.0002     0.0002 
 8511.0000     0.2727     0.0093 
 8511.5000     1.4324     0.0497 
 8512.0000     0.7040     0.0365 
 8512.5000     0.0547     0.0058 
 8513.0000     0.0027     0.0004 
 8513.5000     0.0001     0.0002 
 8514.0000     0.0003     0.0005 
 8514.5000     0.0030     0.0002 
 8515.0000     0.2800     0.0078 
 8515.5000     1.9325     0.0545 
 8516.0000     3.7918     0.0673 
 8516.5000     5.7392     0.0793 
 8517.0000     4.5866     0.0729 
 8517.5000     1.9976     0.0496 
 8518.0000     1.7179     0.0511 
 8518.5000     2.4874     0.0625 
 8519.0000     1.6206     0.0486 
 8519.5000     3.5772     0.0678 
 8520.0000     4.8581     0.0737 
 8520.5000     4.0289     0.0669 
 8521.0000     4.8647     0.0734 
 8521.5000     7.6463     0.0744 
 8522.0000    20.7007     0.0994 
 8522.5000    32.4151     0.1060 
 8523.0000    69.2715     0.1191 
 8523.5000   484.7565     0.1563 
 8524.0000  1731.4955     0.2352 
 8524.5000  2873.6301     0.2535 
 8525.0000  4197.5508     0.2293 
 8525.5000  2199.6580     0.2352 
 8526.0000  2275.3762     0.2415 
 8526.5000  3833.1675     0.2719 
 8527.0000  4029.9885     0.2714 
 8527.5000  3831.4829     0.2710 
 8528.0000  2399.6313     0.2456 
 8528.5000  1364.7666     0.1957 
 8529.0000   221.8126     0.0674 
 8529.5000     0.1915     0.0041 
 8530.0000     0.0055     0.0032 
 8530.5000     0.0006     0.0007 
 8531.0000     0.0001     0.0002 
 8531.5000     0.0001     0.0002 
 8532.0000     0.0000     0.0002 
 8532.5000     0.0000     0.0001 
 8533.0000     0.0000     0.0000 
 8533.5000     0.0000     0.0001 
 8534.0000     0.0000     0.0001 
 8534.5000     0.0000     0.0001 
 8535.0000     0.0000     0.0001 
 8535.5000     0.0000     0.0000 
 8536.0000     0.0014     0.0001 
 8536.5000     0.9939     0.0045 
 8537.0000    12.1891     0.0822 
 8537.5000   307.6615     0.1176 
 8538.0000  1809.5132     0.2042 
 8538.5000  2174.1084     0.2114 
 8539.0000   869.9597     0.1807 
 8539.5000   292.2372     0.1381 
 8540.0000   534.8197     0.1682 
 8540.5000  1880.8956     0.2043 
 8541.0000  3020.2817     0.2166 
 8541.5000  3195.1282     0.2169 
 8542.0000  3825.0002     0.2229 
 8542.5000  4131.5967     0.2286 
 8543.0000  2534.3372     0.2106 
 8543.5000  2451.8003     0.2107 
 8544.0000  2433.0811     0.2104 
 8544.5000  2532.7988     0.2105 
 8545.0000  3078.6233     0.2168 
 8545.5000  3853.1965     0.2230 
 8546.0000  4523.3687     0.2293 
 8546.5000  3860.1108     0.2230 
 8547.0000  3106.9075     0.2170 
 8547.5000  2435.5020     0.2108 
 8548.0000  1644.2987     0.1985 
