~Version Information
 VERS.                  2.0:   CWLS log ASCII Standard -VERSION 2.0
 WRAP.                   NO:   One line per depth step
~Well Information Block
#MNEM.UNIT       Data Type    Information
#---------     -----------    ---------------------------
 STRT.F              7267.0000:
 STOP.F              8234.0000:
 STEP.F                 0.5000:
 NULL.               -999.2500:
 UWI .                CASN0087:  UWI
 API .                CASN0087:  UWI
 WELL.                 CASN-87:  COMMON WELL NAME
 COMP.               ECOPETROL:  WELL OPERATOR
 FLD .                CASTILLA:  FIELD
 LIC .                 UNKNOWN:  AUTHORIZATION NO
 LOC .                     LLA:  BASIN
 CTRY.                COLOMBIA:  COUNTRY
 STAT.                    META:  STATE
 CNTY.                 UNKNOWN:  COUNTY
 PROV.                    META:  STATE
 SRVC.                 UNKNOWN:  COMPANY
 DATE.                 UNKNOWN:  LOG RUN DATE
 LONG.           -73.612780838:  LONGITUDE
 LATI.             3.904697520:  LATITUDE
 XCOORD.          1051614.5000:  X COORDINATE
 YCOORD.           923547.6250:  Y COORDINATE
 ELEV.FT             1354.7550:  ELEVATION
 TD  .FT             8220.0000:  TOTAL DEPTH
~Parameter Information Block
#MNEM.UNIT       Value        Description
#---------     -----------    ---------------------------
~Curve Information Block
#MNEM.UNIT                 API CODE     Curve Description
#---------               -----------    ---------------------------
 DEPTH.F                00 000 000 000:  Index Curve
 2019_pPerm_ANS.MD          00 000 000 000:  
 2019_pPhieE_D_ANS.V/V         00 000 000 000:  
~A DEPTH     2019_pPerm_ANS 2019_pPhieE_D_ANS
# ...
 7975.0000  2788.0845     0.2055 
 7975.5000  2475.0525     0.2027 
 7976.0000  2252.0627     0.2013 
 7976.5000  2168.8186     0.2012 
 7977.0000  2229.9983     0.2017 
 7977.5000  2483.5234     0.2031 
 7978.0000  3082.5288     0.2062 
 7978.5000  4331.8267     0.2125 
 7979.0000  5965.3477     0.2199 
 7979.5000  6911.0864     0.2234 
 7980.0000  6754.4033     0.2220 
 7980.5000  6354.9668     0.2200 
 7981.0000  6644.9932     0.2215 
 7981.5000  7262.6597     0.2246 
 7982.0000  7306.8877     0.2249 
 7982.5000  6797.3047     0.2226 
 7983.0000  6476.0503     0.2213 
 7983.5000  6694.1489     0.2228 
 7984.0000  7193.1294     0.2255 
 7984.5000  7699.1021     0.2276 
 7985.0000  8362.7334     0.2298 
 7985.5000  9412.4365     0.2327 
 7986.0000 10084.0674     0.2344 
 7986.5000  9497.7012     0.2324 
 7987.0000  8439.2051     0.2290 
 7987.5000  7910.4043     0.2276 
 7988.0000  7958.2993     0.2283 
 7988.5000  8042.6553     0.2287 
 7989.0000  7651.0991     0.2273 
 7989.5000  6945.2891     0.2248 
 7990.0000  6427.8706     0.2229 
 7990.5000  6700.9331     0.2243 
 7991.0000  8064.8623     0.2300 
 7991.5000  9941.5674     0.2373 
 7992.0000 10780.3057     0.2410 
 7992.5000  9427.8662     0.2379 
 7993.0000  6870.0405     0.2289 
 7993.5000  4705.0454     0.2182 
 7994.0000  3549.7620     0.2101 
 7994.5000  3279.4614     0.2068 
 7995.0000  3549.6963     0.2079 
 7995.5000  3920.9392     0.2105 
 7996.0000  4059.9175     0.2119 
 7996.5000  3943.2351     0.2118 
 7997.0000  3835.7637     0.2118 
 7997.5000  3927.6519     0.2129 
 7998.0000  4001.9617     0.2132 
 7998.5000  3956.5908     0.2119 
 7999.0000  3937.1252     0.2105 
 7999.5000  4088.8491     0.2109 
 8000.0000  4426.0571     0.2131 
 8000.5000  4982.7627     0.2171 
 8001.0000  5960.0630     0.2226 
 8001.5000  7114.5542     0.2274 
 8002.0000  7591.5591     0.2285 
 8002.5000  7124.4834     0.2253 
 8003.0000  6297.5537     0.2212 
 8003.5000  5753.8418     0.2190 
 8004.0000  5659.7217     0.2192 
 8004.5000  5682.2354     0.2195 
 8005.0000  5539.0835     0.2181 
 8005.5000  5430.4492     0.2165 
 8006.0000  5580.9976     0.2167 
 8006.5000  5912.6123     0.2190 
 8007.0000  6255.0435     0.2218 
 8007.5000  6413.5547     0.2237 
 8008.0000  6326.2871     0.2248 
 8008.5000  5998.0918     0.2252 
 8009.0000  5649.3765     0.2248 
 8009.5000  5318.5737     0.2228 
 8010.0000  4705.9341     0.2177 
 8010.5000  3945.9966     0.2109 
 8011.0000  3367.9333     0.2052 
 8011.5000  3074.8015     0.2025 
 8012.0000  3112.7036     0.2034 
 8012.5000  3341.8799     0.2062 
 8013.0000  3457.4932     0.2080 
 8013.5000  3242.7441     0.2068 
 8014.0000  2836.3638     0.2031 
 8014.5000  2723.6516     0.2019 
 8015.0000  3285.4275     0.2069 
 8015.5000  4512.6602     0.2165 
 8016.0000  5684.7871     0.2243 
 8016.5000  5907.6519     0.2252 
 8017.0000  5525.4971     0.2222 
 8017.5000  5598.5723     0.2214 
 8018.0000  6235.9336     0.2235 
 8018.5000  6686.6719     0.2248 
 8019.0000  6495.8257     0.2233 
 8019.5000  6175.5776     0.2213 
 8020.0000  6173.8618     0.2211 
 8020.5000  6266.2231     0.2213 
 8021.0000  6187.1855     0.2207 
 8021.5000  5948.6475     0.2194 
 8022.0000  5582.0049     0.2176 
 8022.5000  4935.6289     0.2139 
 8023.0000  4151.7876     0.2090 
 8023.5000  3659.7188     0.2061 
 8024.0000  3730.5400     0.2079 
 8024.5000  4286.1143     0.2142 
 8025.0000  4729.5879     0.2199 
 8025.5000  4410.0483     0.2192 
 8026.0000  3477.1079     0.2118 
 8026.5000  2674.7881     0.2025 
 8027.0000  2477.6472     0.1982 
 8027.5000  2840.0276     0.2003 
 8028.0000  3181.2793     0.2032 
 8028.5000  2940.7971     0.2007 
 8029.0000  2432.7258     0.1951 
 8029.5000  2337.3052     0.1939 
 8030.0000  2836.4180     0.1995 
 8030.5000  3598.6226     0.2072 
 8031.0000  4116.7339     0.2118 
 8031.5000  4359.5176     0.2132 
 8032.0000  4759.9795     0.2152 
 8032.5000  5903.6309     0.2209 
 8033.0000  8125.2554     0.2303 
 8033.5000 10814.3984     0.2396 
 8034.0000 12562.5996     0.2445 
 8034.5000 12026.7354     0.2425 
 8035.0000  9600.8281     0.2346 
 8035.5000  7168.0513     0.2257 
 8036.0000  6027.9385     0.2210 
 8036.5000  6142.3535     0.2218 
 8037.0000  6462.3237     0.2239 
 8037.5000  6004.8945     0.2224 
 8038.0000  5081.8125     0.2184 
 8038.5000  4680.5366     0.2167 
 8039.0000  5270.6763     0.2198 
 8039.5000  6551.6709     0.2254 
 8040.0000  7748.4922     0.2295 
 8040.5000  7990.6309     0.2295 
 8041.0000  7072.9844     0.2252 
 8041.5000  5666.5732     0.2188 
 8042.0000  4643.4380     0.2140 
 8042.5000  4373.5981     0.2137 
 8043.0000  4687.6436     0.2171 
 8043.5000  5341.2949     0.2224 
 8044.0000  6186.1089     0.2277 
 8044.5000  7053.7656     0.2314 
 8045.0000  7784.5781     0.2333 
 8045.5000  8293.1367     0.2338 
 8046.0000  8148.7310     0.2322 
 8046.5000  7253.0518     0.2282 
 8047.0000  6566.3638     0.2258 
 8047.5000  6948.7632     0.2286 
 8048.0000  7986.1084     0.2347 
 8048.5000  8174.3657     0.2379 
 8049.0000  6841.6543     0.2339 
 8049.5000  4848.9277     0.2239 
 8050.0000  3143.4822     0.2105 
 8050.5000  2020.6064     0.1965 
 8051.0000  1395.9620     0.1851 
 8051.5000  1079.0065     0.1778 
 8052.0000   839.1954     0.1710 
 8052.5000   555.0784     0.1593 
 8053.0000   311.4809     0.1444 
 8053.5000   195.3906     0.1342 
 8054.0000   192.6560     0.1345 
 8054.5000   306.6210     0.1442 
 8055.0000   598.2523     0.1593 
 8055.5000  1203.9432     0.1763 
 8056.0000  2021.1384     0.1908 
 8056.5000  2610.9099     0.1987 
 8057.0000  2685.9805     0.1994 
 8057.5000  2342.1243     0.1951 
 8058.0000  1854.9570     0.1885 
 8058.5000  1475.6367     0.1830 
 8059.0000  1375.8016     0.1821 
 8059.5000  1580.3672     0.1864 
 8060.0000  1876.9258     0.1914 
 8060.5000  2124.7832     0.1949 
 8061.0000  2567.8826     0.1998 
 8061.5000  3473.8618     0.2079 
 8062.0000  4625.4683     0.2163 
 8062.5000  5264.0674     0.2203 
 8063.0000  4634.6230     0.2162 
 8063.5000  2984.3372     0.2032 
 8064.0000  1675.6434     0.1900 
 8064.5000  1384.7557     0.1874 
 8065.0000  1878.4152     0.1957 
 8065.5000  2624.7212     0.2041 
 8066.0000  2921.1221     0.2049 
 8066.5000  2675.0601     0.2003 
 8067.0000  2314.6882     0.1955 
 8067.5000  2120.1116     0.1930 
 8068.0000  2087.9529     0.1929 
 8068.5000  2034.7684     0.1925 
 8069.0000  1840.0300     0.1894 
 8069.5000  1611.4899     0.1850 
 8070.0000  1588.2889     0.1834 
 8070.5000  2072.1028     0.1888 
 8071.0000  3149.5278     0.1997 
 8071.5000  4391.3672     0.2095 
 8072.0000  4907.8569     0.2124 
 8072.5000  4396.2070     0.2085 
 8073.0000  3614.2969     0.2027 
 8073.5000  3078.7793     0.1986 
 8074.0000  2629.1023     0.1943 
 8074.5000  2145.8149     0.1885 
 8075.0000  1790.8555     0.1837 
 8075.5000  1648.5026     0.1814 
 8076.0000  1619.3601     0.1811 
 8076.5000  1653.5024     0.1820 
 8077.0000  1766.1052     0.1842 
 8077.5000  1913.9124     0.1865 
 8078.0000  1935.7533     0.1865 
 8078.5000  1792.4773     0.1839 
 8079.0000  1646.3232     0.1815 
 8079.5000  1667.5260     0.1823 
 8080.0000  1980.0649     0.1875 
 8080.5000  2538.3853     0.1951 
 8081.0000  2934.1367     0.1997 
 8081.5000  2714.1504     0.1968 
 8082.0000  1931.2283     0.1850 
 8082.5000  1105.6613     0.1669 
 8083.0000   578.6061     0.1482 
 8083.5000   332.6476     0.1340 
 8084.0000   229.1618     0.1265 
 8084.5000   174.7415     0.1235 
 8085.0000   128.2733     0.1201 
 8085.5000    75.0532     0.0973 
 8086.0000    26.0019     0.0577 
 8086.5000     6.0858     0.0384 
 8087.0000     4.7398     0.0302 
 8087.5000     2.5224     0.0129 
 8088.0000     1.2470     0.0022 
 8088.5000     1.0875     0.0007 
 8089.0000     1.3178     0.0029 
 8089.5000    21.1496     0.0339 
 8090.0000   104.2458     0.0960 
 8090.5000   297.6215     0.1403 
 8091.0000   534.7615     0.1568 
 8091.5000   650.3237     0.1625 
 8092.0000   637.0721     0.1629 
 8092.5000   584.1225     0.1634 
