~Version Information
 VERS.                  2.0:   CWLS log ASCII Standard -VERSION 2.0
 WRAP.                   NO:   One line per depth step
~Well Information Block
#MNEM.UNIT       Data Type    Information
#---------     -----------    ---------------------------
 STRT.F              7267.0000:
 STOP.F              8234.0000:
 STEP.F                 0.5000:
 NULL.               -999.2500:
 UWI .                CASN0087:  UWI
 API .                CASN0087:  UWI
 WELL.                 CASN-87:  COMMON WELL NAME
 COMP.               ECOPETROL:  WELL OPERATOR
 FLD .                CASTILLA:  FIELD
 LIC .                 UNKNOWN:  AUTHORIZATION NO
 LOC .                     LLA:  BASIN
 CTRY.                COLOMBIA:  COUNTRY
 STAT.                    META:  STATE
 CNTY.                 UNKNOWN:  COUNTY
 PROV.                    META:  STATE
 SRVC.                 UNKNOWN:  COMPANY
 DATE.                 UNKNOWN:  LOG RUN DATE
 LONG.           -73.612780838:  LONGITUDE
 LATI.             3.904697520:  LATITUDE
 XCOORD.          1051614.5000:  X COORDINATE
 YCOORD.           923547.6250:  Y COORDINATE
 ELEV.FT             1354.7550:  ELEVATION
 TD  .FT             8220.0000:  TOTAL DEPTH
~Parameter Information Block
#MNEM.UNIT       Value        Description
#---------     -----------    ---------------------------
~Curve Information Block
#MNEM.UNIT                 API CODE     Curve Description
#---------               -----------    ---------------------------
 DEPTH.F                00 000 000 000:  Index Curve
 2019_pPerm_ANS.MD          00 000 000 000:  
 2019_pPhieE_D_ANS.V/V         00 000 000 000:  
~A DEPTH     2019_pPerm_ANS 2019_pPhieE_D_ANS
# ...
 7503.0000     0.0023     0.0036 
 7503.5000     0.0013     0.0024 
 7504.0000     0.0003     0.0011 
 7504.5000     0.0000     0.0003 
 7505.0000     0.0000     0.0000 
 7505.5000     0.0000     0.0000 
 7506.0000     0.0000     0.0000 
 7506.5000     0.0000     0.0000 
 7507.0000     0.0000     0.0000 
 7507.5000     0.0000     0.0000 
 7508.0000     0.0000     0.0000 
 7508.5000     0.0000     0.0000 
 7509.0000     0.0000     0.0000 
 7509.5000     0.0000     0.0000 
 7510.0000     0.0000     0.0000 
 7510.5000     0.0000     0.0000 
 7511.0000     0.0000     0.0000 
 7511.5000     0.0000     0.0000 
 7512.0000     0.0000     0.0000 
 7512.5000     0.0000     0.0000 
 7513.0000     0.0000     0.0000 
 7513.5000     0.0000     0.0000 
 7514.0000     0.0000     0.0000 
 7514.5000     0.0000     0.0000 
 7515.0000     0.0000     0.0000 
 7515.5000     0.0000     0.0000 
 7516.0000     0.0000     0.0000 
 7516.5000     0.0000     0.0000 
 7517.0000     0.0000     0.0000 
 7517.5000     0.0000     0.0000 
 7518.0000     0.0000     0.0000 
 7518.5000     0.0000     0.0003 
 7519.0000     0.0000     0.0004 
 7519.5000     0.0000     0.0003 
 7520.0000     0.0000     0.0000 
 7520.5000     0.0000     0.0000 
 7521.0000     0.0000     0.0000 
 7521.5000     0.0000     0.0000 
 7522.0000     0.0000     0.0000 
 7522.5000     0.0000     0.0000 
 7523.0000     0.0000     0.0000 
 7523.5000     0.0000     0.0000 
 7524.0000     0.0000     0.0000 
 7524.5000     0.0000     0.0000 
 7525.0000     0.0000     0.0000 
 7525.5000     0.0000     0.0000 
 7526.0000     0.0000     0.0000 
 7526.5000     0.0000     0.0000 
 7527.0000     0.0000     0.0000 
 7527.5000     0.0000     0.0000 
 7528.0000     0.0000     0.0000 
 7528.5000     0.0000     0.0000 
 7529.0000     0.0000     0.0000 
 7529.5000     0.0000     0.0000 
 7530.0000     0.0000     0.0000 
 7530.5000     0.0000     0.0000 
 7531.0000     0.0000     0.0000 
 7531.5000     0.0000     0.0000 
 7532.0000     0.0000     0.0000 
 7532.5000     0.0000     0.0000 
 7533.0000     0.0000     0.0000 
 7533.5000     0.0000     0.0000 
 7534.0000     0.0000     0.0000 
 7534.5000     0.0000     0.0000 
 7535.0000     0.0000     0.0000 
 7535.5000     0.0000     0.0000 
 7536.0000     0.0000     0.0000 
 7536.5000     0.0000     0.0000 
 7537.0000     0.0000     0.0000 
 7537.5000     0.0000     0.0000 
 7538.0000     0.0000     0.0000 
 7538.5000     0.0000     0.0000 
 7539.0000     0.0000     0.0000 
 7539.5000     0.0000     0.0000 
 7540.0000     0.0000     0.0000 
 7540.5000     0.0000     0.0000 
 7541.0000     0.0000     0.0000 
 7541.5000     0.0000     0.0000 
 7542.0000     0.0000     0.0000 
 7542.5000     0.0000     0.0000 
 7543.0000     0.0000     0.0000 
 7543.5000     0.0000     0.0000 
 7544.0000     0.0000     0.0000 
 7544.5000     0.0000     0.0000 
 7545.0000     0.0000     0.0000 
 7545.5000     0.0000     0.0000 
 7546.0000     0.0000     0.0000 
 7546.5000     0.0000     0.0000 
 7547.0000     0.0000     0.0000 
 7547.5000     0.0000     0.0000 
 7548.0000     0.0000     0.0000 
 7548.5000     0.0000     0.0000 
 7549.0000     0.0000     0.0000 
 7549.5000     0.0000     0.0000 
 7550.0000     0.0000     0.0000 
 7550.5000     0.0000     0.0000 
 7551.0000     0.0000     0.0000 
 7551.5000     0.0000     0.0000 
 7552.0000     0.0000     0.0000 
 7552.5000     0.0000     0.0000 
 7553.0000     0.0000     0.0000 
 7553.5000     0.0000     0.0000 
 7554.0000     0.0000     0.0000 
 7554.5000     0.0000     0.0000 
 7555.0000     0.0001     0.0002 
 7555.5000     0.0007     0.0013 
 7556.0000     0.0017     0.0029 
 7556.5000     0.0019     0.0033 
 7557.0000     0.0013     0.0026 
 7557.5000     0.0007     0.0017 
 7558.0000     0.0003     0.0010 
 7558.5000     0.0002     0.0008 
 7559.0000     0.0003     0.0009 
 7559.5000     0.0005     0.0013 
 7560.0000     0.0007     0.0018 
 7560.5000     0.0008     0.0020 
 7561.0000     0.0007     0.0020 
 7561.5000     0.0007     0.0020 
 7562.0000     0.0006     0.0016 
 7562.5000     0.0003     0.0012 
 7563.0000     0.0002     0.0008 
 7563.5000     0.0001     0.0006 
 7564.0000     0.0001     0.0007 
 7564.5000     0.0004     0.0012 
 7565.0000     0.0007     0.0017 
 7565.5000     0.0007     0.0018 
 7566.0000     0.0005     0.0014 
 7566.5000     0.0002     0.0008 
 7567.0000     0.0000     0.0003 
 7567.5000     0.0000     0.0001 
 7568.0000     0.0000     0.0001 
 7568.5000     0.0000     0.0001 
 7569.0000     0.0000     0.0000 
 7569.5000     0.0000     0.0000 
 7570.0000     0.0000     0.0000 
 7570.5000     0.0000     0.0000 
 7571.0000     0.0000     0.0000 
 7571.5000     0.0002     0.0005 
 7572.0000     0.0004     0.0012 
 7572.5000     0.0004     0.0014 
 7573.0000     0.0003     0.0010 
 7573.5000     0.0001     0.0003 
 7574.0000     0.0000     0.0000 
 7574.5000     0.0000     0.0000 
 7575.0000     0.0000     0.0000 
 7575.5000     0.0000     0.0000 
 7576.0000     0.0000     0.0000 
 7576.5000     0.0016     0.0003 
 7577.0000     0.1040     0.0111 
 7577.5000    10.4905     0.0529 
 7578.0000    50.9242     0.1103 
 7578.5000    96.3865     0.1416 
 7579.0000    80.7487     0.1189 
 7579.5000    25.4941     0.0547 
 7580.0000     0.4865     0.0093 
 7580.5000     0.0000     0.0001 
 7581.0000     0.0000     0.0000 
 7581.5000     0.0000     0.0000 
 7582.0000     0.0000     0.0000 
 7582.5000     0.0000     0.0000 
 7583.0000     0.0000     0.0000 
 7583.5000     0.0000     0.0000 
 7584.0000     0.0000     0.0000 
 7584.5000     0.0000     0.0000 
 7585.0000     0.0000     0.0000 
 7585.5000     0.0000     0.0000 
 7586.0000     0.0000     0.0000 
 7586.5000     0.0000     0.0000 
 7587.0000     0.0000     0.0000 
 7587.5000     0.0000     0.0000 
 7588.0000     0.0000     0.0000 
 7588.5000     0.0000     0.0000 
 7589.0000     0.0000     0.0000 
 7589.5000     0.0000     0.0000 
 7590.0000     0.0000     0.0000 
 7590.5000     0.0001     0.0002 
 7591.0000     0.0019     0.0021 
 7591.5000     0.0791     0.0131 
 7592.0000     0.2365     0.0308 
 7592.5000     0.3364     0.0399 
 7593.0000     0.2674     0.0312 
 7593.5000     0.0907     0.0114 
 7594.0000     0.0002     0.0005 
 7594.5000     0.0000     0.0000 
 7595.0000     0.0000     0.0000 
 7595.5000     0.0000     0.0000 
 7596.0000     0.0000     0.0000 
 7596.5000     0.0000     0.0000 
 7597.0000     0.0000     0.0000 
 7597.5000     0.0000     0.0000 
 7598.0000     0.0000     0.0000 
 7598.5000     0.0000     0.0000 
 7599.0000     0.0001     0.0003 
 7599.5000     0.0058     0.0036 
 7600.0000     0.0141     0.0085 
 7600.5000     0.0127     0.0088 
 7601.0000     0.0059     0.0057 
 7601.5000     0.0022     0.0032 
 7602.0000     0.0006     0.0016 
 7602.5000     0.0002     0.0008 
 7603.0000     0.0000     0.0003 
 7603.5000     0.0000     0.0001 
 7604.0000     0.0001     0.0002 
 7604.5000     0.0019     0.0021 
 7605.0000     0.0180     0.0082 
 7605.5000     0.1231     0.0212 
 7606.0000     0.4097     0.0388 
 7606.5000     0.7401     0.0515 
 7607.0000     0.7757     0.0520 
 7607.5000     0.6190     0.0473 
 7608.0000     0.6967     0.0495 
 7608.5000     0.9634     0.0561 
 7609.0000     0.9080     0.0534 
 7609.5000     0.4237     0.0358 
 7610.0000     0.0709     0.0159 
 7610.5000     0.0086     0.0045 
 7611.0000     0.0001     0.0005 
 7611.5000     0.0000     0.0000 
 7612.0000     0.0000     0.0000 
 7612.5000     0.0000     0.0000 
 7613.0000     0.0000     0.0000 
 7613.5000     0.0000     0.0000 
 7614.0000     0.0000     0.0000 
 7614.5000     0.0000     0.0000 
 7615.0000     0.0000     0.0000 
 7615.5000     0.0000     0.0000 
 7616.0000     0.0000     0.0000 
 7616.5000     0.0000     0.0000 
 7617.0000     0.0000     0.0000 
 7617.5000     0.0000     0.0000 
 7618.0000     0.0000     0.0000 
 7618.5000     0.0000     0.0000 
 7619.0000     0.0000     0.0000 
 7619.5000     0.0000     0.0000 
 7620.0000     0.0000     0.0000 
 7620.5000     0.0000     0.0000 
