~Version Information
 VERS.                  2.0:   CWLS log ASCII Standard -VERSION 2.0
 WRAP.                   NO:   One line per depth step
~Well Information Block
#MNEM.UNIT       Data Type    Information
#---------     -----------    ---------------------------
 STRT.F              7180.5000:
 STOP.F              8032.0000:
 STEP.F                 0.5000:
 NULL.               -999.2500:
 UWI .                CASN0100:  UWI
 API .                CASN0100:  UWI
 WELL.                CASN-100:  COMMON WELL NAME
 COMP.               ECOPETROL:  WELL OPERATOR
 FLD .                CASTILLA:  FIELD
 LIC .                 UNKNOWN:  AUTHORIZATION NO
 LOC .                     LLA:  BASIN
 CTRY.                COLOMBIA:  COUNTRY
 STAT.                    META:  STATE
 CNTY.                 UNKNOWN:  COUNTY
 PROV.                    META:  STATE
 SRVC.                 UNKNOWN:  COMPANY
 DATE.                 UNKNOWN:  LOG RUN DATE
 LONG.           -73.635094741:  LONGITUDE
 LATI.             3.902985680:  LATITUDE
 XCOORD.          1049136.2500:  X COORDINATE
 YCOORD.           923356.9375:  Y COORDINATE
 ELEV.FT             1389.7300:  ELEVATION
 TD  .FT             8083.0000:  TOTAL DEPTH
~Parameter Information Block
#MNEM.UNIT       Value        Description
#---------     -----------    ---------------------------
~Curve Information Block
#MNEM.UNIT                 API CODE     Curve Description
#---------               -----------    ---------------------------
 DEPTH.F                00 000 000 000:  Index Curve
 2019_pPerm_ANS.MD          00 000 000 000:  
 2019_pPhieE_D_ANS.V/V         00 000 000 000:  
~A DEPTH     2019_pPerm_ANS 2019_pPhieE_D_ANS
# ...
 7652.5000  1192.3868     0.1992 
 7653.0000  1506.1095     0.2070 
 7653.5000  1551.3622     0.2096 
 7654.0000  1003.1476     0.2005 
 7654.5000   458.0951     0.1828 
 7655.0000   307.3004     0.1715 
 7655.5000   449.7508     0.1799 
 7656.0000  1235.7407     0.2001 
 7656.5000  2747.6956     0.2197 
 7657.0000  2420.6372     0.2331 
 7657.5000  2084.2029     0.2419 
 7658.0000  2420.9651     0.2483 
 7658.5000  2783.9744     0.2545 
 7659.0000  3071.7793     0.2588 
 7659.5000  3269.5164     0.2619 
 7660.0000  3156.4722     0.2606 
 7660.5000  2584.3323     0.2516 
 7661.0000  2397.3313     0.2259 
 7661.5000   510.3660     0.1720 
 7662.0000    18.4928     0.0862 
 7662.5000     0.1036     0.0001 
 7663.0000     0.1501     0.0001 
 7663.5000     0.2587     0.0187 
 7664.0000     0.0028     0.0024 
 7664.5000     0.0027     0.0030 
 7665.0000     0.0204     0.0115 
 7665.5000     0.0540     0.0215 
 7666.0000     0.0329     0.0149 
 7666.5000     0.0051     0.0046 
 7667.0000     0.0003     0.0013 
 7667.5000     0.0001     0.0007 
 7668.0000     0.0000     0.0003 
 7668.5000     0.0000     0.0001 
 7669.0000     0.0000     0.0000 
 7669.5000     0.0000     0.0000 
 7670.0000     0.0000     0.0000 
 7670.5000     0.0000     0.0000 
 7671.0000     0.0000     0.0000 
 7671.5000     0.0000     0.0000 
 7672.0000     0.0017     0.0011 
 7672.5000     0.4062     0.0262 
 7673.0000    13.8675     0.1082 
 7673.5000    38.9057     0.1236 
 7674.0000   106.3987     0.1415 
 7674.5000   314.0789     0.1649 
 7675.0000   852.9069     0.1880 
 7675.5000  1592.8369     0.2044 
 7676.0000  2276.1936     0.2142 
 7676.5000  2989.6604     0.2216 
 7677.0000  3677.5691     0.2278 
 7677.5000  3937.1665     0.2296 
 7678.0000  3798.7739     0.2295 
 7678.5000  3387.9861     0.2263 
 7679.0000  2536.0493     0.2187 
 7679.5000  1480.3688     0.2048 
 7680.0000   708.7803     0.1863 
 7680.5000   329.4741     0.1690 
 7681.0000   226.4311     0.1602 
 7681.5000   205.0219     0.1575 
 7682.0000   181.3025     0.1547 
 7682.5000   114.4628     0.1443 
 7683.0000    53.6359     0.1296 
 7683.5000    19.2115     0.1156 
 7684.0000     0.6739     0.0272 
 7684.5000     0.1133     0.0150 
 7685.0000     6.1472     0.0747 
 7685.5000    49.5485     0.1298 
 7686.0000    84.9693     0.1394 
 7686.5000    85.5049     0.1400 
 7687.0000    60.1840     0.1327 
 7687.5000    36.6634     0.1229 
 7688.0000    24.8569     0.1163 
 7688.5000    25.2852     0.1163 
 7689.0000    32.6188     0.1215 
 7689.5000    45.2646     0.1285 
 7690.0000    50.3839     0.1309 
 7690.5000    41.3935     0.1274 
 7691.0000    27.4397     0.1201 
 7691.5000     6.4456     0.0633 
 7692.0000     0.0171     0.0048 
 7692.5000     0.0001     0.0001 
 7693.0000     0.0000     0.0000 
 7693.5000     0.0000     0.0000 
 7694.0000     0.0001     0.0003 
 7694.5000     0.0041     0.0031 
 7695.0000     0.3710     0.0287 
 7695.5000    15.7178     0.1116 
 7696.0000    23.0678     0.1160 
 7696.5000    25.2418     0.1169 
 7697.0000    23.8419     0.1156 
 7697.5000    25.0262     0.1173 
 7698.0000    35.2269     0.1231 
 7698.5000    52.2564     0.1306 
 7699.0000    75.0727     0.1368 
 7699.5000    97.4351     0.1411 
 7700.0000   107.7887     0.1426 
 7700.5000   111.8147     0.1438 
 7701.0000    95.6610     0.1425 
 7701.5000    65.7214     0.1379 
 7702.0000    14.3035     0.0569 
 7702.5000     0.0446     0.0121 
 7703.0000     0.0029     0.0034 
 7703.5000     0.0003     0.0010 
 7704.0000     0.0000     0.0002 
 7704.5000     0.0000     0.0000 
 7705.0000     0.0000     0.0000 
 7705.5000     0.0011     0.0003 
 7706.0000     4.3013     0.0397 
 7706.5000    69.8927     0.1355 
 7707.0000   185.0486     0.1555 
 7707.5000   893.0579     0.1684 
 7708.0000  1346.6462     0.1777 
 7708.5000  1854.8718     0.1845 
 7709.0000  2221.1350     0.1879 
 7709.5000  2221.6223     0.1874 
 7710.0000  2058.0305     0.1844 
 7710.5000  1914.4448     0.1825 
 7711.0000  1777.8049     0.1806 
 7711.5000  1544.0417     0.1790 
 7712.0000  1055.7965     0.1741 
 7712.5000   480.3452     0.1635 
 7713.0000    73.9553     0.0465 
 7713.5000    67.5382     0.0669 
 7714.0000   321.6548     0.1502 
 7714.5000   589.6683     0.1598 
 7715.0000   958.7812     0.1699 
 7715.5000  1405.3566     0.1779 
 7716.0000  1828.7056     0.1839 
 7716.5000  2093.5593     0.1871 
 7717.0000  2150.6462     0.1878 
 7717.5000  2182.6274     0.1878 
 7718.0000  2165.4194     0.1873 
 7718.5000  2162.0386     0.1878 
 7719.0000  2052.7510     0.1876 
 7719.5000  1906.2269     0.1862 
 7720.0000  1720.3145     0.1819 
 7720.5000  1617.2461     0.1796 
 7721.0000  1672.1115     0.1808 
 7721.5000  1787.3900     0.1833 
 7722.0000  1817.5129     0.1839 
 7722.5000  1756.9872     0.1826 
 7723.0000  1732.8014     0.1825 
 7723.5000  1779.2727     0.1837 
 7724.0000  1818.3483     0.1838 
 7724.5000  1827.6848     0.1833 
 7725.0000  1791.6710     0.1827 
 7725.5000  1694.8013     0.1825 
 7726.0000  1527.3104     0.1815 
 7726.5000  1374.0273     0.1799 
 7727.0000  1344.3271     0.1794 
 7727.5000  1401.3142     0.1784 
 7728.0000  1490.3055     0.1787 
 7728.5000  1588.2048     0.1801 
 7729.0000  1767.1760     0.1837 
 7729.5000  2020.7559     0.1880 
 7730.0000  2132.4456     0.1894 
 7730.5000  1555.5254     0.1834 
 7731.0000   616.6691     0.1642 
 7731.5000    87.5070     0.0616 
 7732.0000     1.2093     0.0014 
 7732.5000     0.8521     0.0001 
 7733.0000     0.7692     0.0001 
 7733.5000     0.7175     0.0000 
 7734.0000     0.6688     0.0000 
 7734.5000     0.6567     0.0000 
 7735.0000     0.7208     0.0000 
 7735.5000     0.8352     0.0002 
 7736.0000     0.8541     0.0003 
 7736.5000     0.7531     0.0000 
 7737.0000     0.6532     0.0000 
 7737.5000     0.6067     0.0000 
 7738.0000     0.6093     0.0000 
 7738.5000     0.6348     0.0000 
 7739.0000     0.7392     0.0000 
 7739.5000     0.9583     0.0006 
 7740.0000     2.0805     0.0109 
 7740.5000     7.0057     0.0452 
 7741.0000    42.4097     0.0711 
 7741.5000   133.9169     0.1310 
 7742.0000   216.1701     0.1406 
 7742.5000   291.5066     0.1477 
 7743.0000   340.9925     0.1526 
 7743.5000   401.6572     0.1571 
 7744.0000   457.4242     0.1599 
 7744.5000   456.5237     0.1593 
 7745.0000   408.2318     0.1572 
 7745.5000   361.2002     0.1561 
 7746.0000   343.3794     0.1569 
 7746.5000   361.2571     0.1588 
 7747.0000   411.2354     0.1610 
 7747.5000   500.9629     0.1639 
 7748.0000   631.0121     0.1676 
 7748.5000   777.1990     0.1706 
 7749.0000   923.8864     0.1724 
 7749.5000   961.4650     0.1710 
 7750.0000   891.6858     0.1674 
 7750.5000   714.2519     0.1627 
 7751.0000   562.9412     0.1585 
 7751.5000   504.4931     0.1564 
 7752.0000   518.8918     0.1582 
 7752.5000   606.2888     0.1626 
 7753.0000   687.9641     0.1675 
 7753.5000   633.4484     0.1687 
 7754.0000   502.6509     0.1660 
 7754.5000   445.9109     0.1633 
 7755.0000   483.6293     0.1632 
 7755.5000   569.7061     0.1656 
 7756.0000   638.1277     0.1676 
 7756.5000   683.1556     0.1690 
 7757.0000   697.4492     0.1686 
 7757.5000   691.3399     0.1674 
 7758.0000   644.9057     0.1650 
 7758.5000   610.7372     0.1637 
 7759.0000   637.6089     0.1648 
 7759.5000   729.8200     0.1688 
 7760.0000   906.2650     0.1729 
 7760.5000  1103.5061     0.1753 
 7761.0000  1300.1665     0.1771 
 7761.5000  1471.5719     0.1798 
 7762.0000  1623.7689     0.1845 
 7762.5000  1735.8428     0.1880 
 7763.0000  1763.2037     0.1897 
 7763.5000  1651.1882     0.1888 
 7764.0000  1473.2552     0.1867 
 7764.5000  1428.9803     0.1860 
 7765.0000  1631.6069     0.1887 
 7765.5000  2100.4785     0.1947 
 7766.0000  2677.2063     0.2005 
 7766.5000  3178.4946     0.2056 
 7767.0000  3421.9241     0.2080 
 7767.5000  3617.7104     0.2098 
 7768.0000  3858.8926     0.2106 
 7768.5000  4119.7515     0.2110 
 7769.0000  4182.6860     0.2094 
 7769.5000  4091.0544     0.2077 
 7770.0000  4029.9382     0.2065 
