~Version Information
 VERS.                  2.0:   CWLS log ASCII Standard -VERSION 2.0
 WRAP.                   NO:   One line per depth step
~Well Information Block
#MNEM.UNIT       Data Type    Information
#---------     -----------    ---------------------------
 STRT.F              7060.0000:
 STOP.F              8042.5000:
 STEP.F                 0.5000:
 NULL.               -999.2500:
 UWI .                CASN0046:  UWI
 API .                CASN0046:  UWI
 WELL.                 CASN-46:  COMMON WELL NAME
 COMP.               ECOPETROL:  WELL OPERATOR
 FLD .                CASTILLA:  FIELD
 LIC .                 UNKNOWN:  AUTHORIZATION NO
 LOC .                     LLA:  BASIN
 CTRY.                COLOMBIA:  COUNTRY
 STAT.                    META:  STATE
 CNTY.       CASTILLA_LA_NUEVA:  COUNTY
 PROV.                    META:  STATE
 SRVC.                 UNKNOWN:  COMPANY
 DATE.                 UNKNOWN:  LOG RUN DATE
 LONG.           -73.632420309:  LONGITUDE
 LATI.             3.896773166:  LATITUDE
 XCOORD.          1049433.6250:  X COORDINATE
 YCOORD.           922670.1250:  Y COORDINATE
 ELEV.FT             1389.3000:  ELEVATION
 TD  .FT             8065.0000:  TOTAL DEPTH
~Parameter Information Block
#MNEM.UNIT       Value        Description
#---------     -----------    ---------------------------
~Curve Information Block
#MNEM.UNIT                 API CODE     Curve Description
#---------               -----------    ---------------------------
 DEPTH.F                00 000 000 000:  Index Curve
 2019_pPerm_ANS.MD          00 000 000 000:  
 2019_pPhieE_D_ANS.V/V         00 000 000 000:  
~A DEPTH     2019_pPerm_ANS 2019_pPhieE_D_ANS
# ...
 7886.0000  6658.7842     0.2214 
 7886.5000  5318.8096     0.2161 
 7887.0000  3338.4595     0.2029 
 7887.5000  1701.4563     0.1850 
 7888.0000  1058.3334     0.1714 
 7888.5000   759.4420     0.1642 
 7889.0000   816.1785     0.1660 
 7889.5000  1051.4238     0.1717 
 7890.0000  1742.1500     0.1867 
 7890.5000  2441.6516     0.1965 
 7891.0000  2502.0129     0.1957 
 7891.5000  2522.2388     0.1942 
 7892.0000  3012.6467     0.1989 
 7892.5000  4116.0078     0.2082 
 7893.0000  4893.6870     0.2123 
 7893.5000  4332.7280     0.2083 
 7894.0000  3425.4546     0.2007 
 7894.5000  2445.9912     0.1908 
 7895.0000  1717.7552     0.1810 
 7895.5000  1808.6222     0.1823 
 7896.0000  2222.5063     0.1895 
 7896.5000  2387.7188     0.1914 
 7897.0000  2226.2424     0.1883 
 7897.5000  2002.8785     0.1824 
 7898.0000  2151.9639     0.1861 
 7898.5000  1997.2437     0.1851 
 7899.0000  1655.0261     0.1803 
 7899.5000  1594.3619     0.1798 
 7900.0000  1955.2847     0.1871 
 7900.5000  2528.2256     0.1968 
 7901.0000  2321.8911     0.1929 
 7901.5000  1493.9557     0.1770 
 7902.0000   900.6603     0.1595 
 7902.5000   784.5298     0.1576 
 7903.0000   962.4744     0.1628 
 7903.5000  1208.4426     0.1700 
 7904.0000  1078.7256     0.1643 
 7904.5000   986.9662     0.1624 
 7905.0000  1148.7500     0.1669 
 7905.5000  1438.6270     0.1756 
 7906.0000  1513.0364     0.1800 
 7906.5000  1261.1185     0.1743 
 7907.0000   888.1931     0.1645 
 7907.5000   576.2318     0.1529 
 7908.0000   601.4832     0.1526 
 7908.5000   861.8708     0.1634 
 7909.0000  1628.8652     0.1804 
 7909.5000  2650.5989     0.1939 
 7910.0000  3594.4597     0.2030 
 7910.5000  3971.6484     0.2049 
 7911.0000  3608.8318     0.2017 
 7911.5000  3042.8276     0.1963 
 7912.0000  2715.4768     0.1938 
 7912.5000  2289.7175     0.1882 
 7913.0000  1849.0964     0.1810 
 7913.5000  1421.8102     0.1746 
 7914.0000  1065.4891     0.1706 
 7914.5000   655.0444     0.1598 
 7915.0000   505.0580     0.1564 
 7915.5000   748.6661     0.1644 
 7916.0000  1295.0532     0.1800 
 7916.5000  1877.3633     0.1910 
 7917.0000  1828.9167     0.1866 
 7917.5000  1380.8265     0.1749 
 7918.0000   933.1008     0.1616 
 7918.5000   673.2564     0.1509 
 7919.0000   559.4150     0.1511 
 7919.5000   456.0800     0.1465 
 7920.0000   437.0130     0.1474 
 7920.5000   536.9028     0.1512 
 7921.0000   779.3728     0.1602 
 7921.5000  1184.9425     0.1711 
 7922.0000  1796.8118     0.1825 
 7922.5000  2676.9453     0.1965 
 7923.0000  3027.6548     0.2007 
 7923.5000  2715.9082     0.1967 
 7924.0000  1939.1823     0.1857 
 7924.5000  1509.8768     0.1806 
 7925.0000  1288.2089     0.1757 
 7925.5000  1287.2410     0.1763 
 7926.0000  1279.0442     0.1738 
 7926.5000  1330.3849     0.1752 
 7927.0000  1183.3347     0.1723 
 7927.5000  1122.4697     0.1709 
 7928.0000   960.2536     0.1655 
 7928.5000   879.8333     0.1627 
 7929.0000   683.6485     0.1557 
 7929.5000   578.2628     0.1527 
 7930.0000   471.5321     0.1469 
 7930.5000   449.1762     0.1466 
 7931.0000   520.5949     0.1492 
 7931.5000   725.1332     0.1580 
 7932.0000  1077.4238     0.1700 
 7932.5000  1336.5085     0.1757 
 7933.0000  1585.2568     0.1798 
 7933.5000  1806.6578     0.1832 
 7934.0000  1928.2838     0.1846 
 7934.5000  1857.3152     0.1829 
 7935.0000  1765.9403     0.1814 
 7935.5000  1880.4470     0.1831 
 7936.0000  2034.3538     0.1854 
 7936.5000  2475.2578     0.1907 
 7937.0000  3398.1348     0.2027 
 7937.5000  4095.4680     0.2098 
 7938.0000  4222.3462     0.2088 
 7938.5000  3631.7334     0.2034 
 7939.0000  3400.5667     0.2013 
 7939.5000  4038.8059     0.2065 
 7940.0000  4797.7085     0.2123 
 7940.5000  5264.3828     0.2165 
 7941.0000  4959.1152     0.2148 
 7941.5000  4136.5112     0.2081 
 7942.0000  3731.0063     0.2048 
 7942.5000  3864.0142     0.2054 
 7943.0000  4495.8062     0.2115 
 7943.5000  4991.9419     0.2160 
 7944.0000  4930.5142     0.2154 
 7944.5000  4029.7061     0.2081 
 7945.0000  2624.2173     0.1925 
 7945.5000  1627.0011     0.1784 
 7946.0000  1276.5590     0.1713 
 7946.5000  1020.6021     0.1679 
 7947.0000   756.7222     0.1636 
 7947.5000   520.0387     0.1562 
 7948.0000   637.0397     0.1597 
 7948.5000   901.8489     0.1667 
 7949.0000  1100.9291     0.1699 
 7949.5000  1118.5549     0.1674 
 7950.0000  1045.1936     0.1644 
 7950.5000  1081.8673     0.1657 
 7951.0000  1160.1519     0.1678 
 7951.5000  1175.8601     0.1689 
 7952.0000  1038.1833     0.1636 
 7952.5000   983.4506     0.1624 
 7953.0000  1045.1968     0.1628 
 7953.5000  1384.2585     0.1736 
 7954.0000  1606.1754     0.1781 
 7954.5000  1650.5612     0.1794 
 7955.0000  1579.4509     0.1768 
 7955.5000  1993.4196     0.1836 
 7956.0000  2825.2249     0.1950 
 7956.5000  3772.4897     0.2055 
 7957.0000  4178.7676     0.2081 
 7957.5000  4416.7593     0.2097 
 7958.0000  4890.3223     0.2136 
 7958.5000  4932.1265     0.2145 
 7959.0000  4488.3804     0.2104 
 7959.5000  3189.3000     0.1976 
 7960.0000  2368.7568     0.1890 
 7960.5000  1993.1765     0.1839 
 7961.0000  2065.8008     0.1883 
 7961.5000  2878.8491     0.2007 
 7962.0000  3763.6873     0.2118 
 7962.5000  3283.3967     0.2078 
 7963.0000  1595.8751     0.1807 
 7963.5000   715.6949     0.1537 
 7964.0000   511.7748     0.1442 
 7964.5000   604.3224     0.1494 
 7965.0000   713.2051     0.1542 
 7965.5000   694.2545     0.1511 
 7966.0000   666.1633     0.1492 
 7966.5000   717.5553     0.1526 
 7967.0000   789.5352     0.1568 
 7967.5000   807.8232     0.1579 
 7968.0000   700.5605     0.1547 
 7968.5000   609.1988     0.1510 
 7969.0000   706.8994     0.1552 
 7969.5000   857.0167     0.1610 
 7970.0000  1206.9087     0.1727 
 7970.5000  1409.8777     0.1774 
 7971.0000  1097.3838     0.1697 
 7971.5000   602.4016     0.1484 
 7972.0000   286.0185     0.1243 
 7972.5000   113.3318     0.1043 
 7973.0000    33.7603     0.0857 
 7973.5000     3.5920     0.0002 
 7974.0000     0.3386     0.0000 
 7974.5000     0.2379     0.0000 
 7975.0000     0.2945     0.0000 
 7975.5000     1.1854     0.0000 
 7976.0000    37.9161     0.0421 
 7976.5000   377.1652     0.1567 
 7977.0000   665.5861     0.1691 
 7977.5000   669.9695     0.1692 
 7978.0000   757.3022     0.1747 
 7978.5000  1104.8733     0.1807 
 7979.0000  1539.0548     0.1870 
 7979.5000  1491.0002     0.1840 
 7980.0000  1257.3821     0.1802 
 7980.5000  1240.8370     0.1823 
 7981.0000  1227.9276     0.1843 
 7981.5000  1089.9418     0.1810 
 7982.0000   948.0111     0.1757 
 7982.5000  1360.9874     0.1811 
 7983.0000  2716.8547     0.2004 
 7983.5000  4897.4697     0.2165 
 7984.0000  5674.4004     0.2197 
 7984.5000  4988.0234     0.2145 
 7985.0000  4199.2744     0.2085 
 7985.5000  3811.6982     0.2049 
 7986.0000  3656.5249     0.2031 
 7986.5000  3668.3086     0.2022 
 7987.0000  3836.5110     0.2060 
 7987.5000  3341.0601     0.2018 
 7988.0000  2461.2852     0.1937 
 7988.5000  1652.2788     0.1810 
 7989.0000  1761.7501     0.1817 
 7989.5000  2433.3408     0.1937 
 7990.0000  3332.5046     0.2063 
 7990.5000  3138.8708     0.2018 
 7991.0000  1891.5924     0.1868 
 7991.5000  1056.6189     0.1732 
 7992.0000   894.6254     0.1713 
 7992.5000   963.1273     0.1741 
 7993.0000  1257.7437     0.1789 
 7993.5000  1555.1787     0.1822 
 7994.0000  1861.1012     0.1861 
 7994.5000  1780.0564     0.1826 
 7995.0000  1617.1812     0.1778 
 7995.5000  1444.5255     0.1731 
 7996.0000  1516.4119     0.1758 
 7996.5000  1632.6464     0.1792 
 7997.0000  1684.5658     0.1810 
 7997.5000  1782.8417     0.1818 
 7998.0000  2076.5400     0.1868 
 7998.5000  2507.6912     0.1933 
 7999.0000  2644.8672     0.1940 
 7999.5000  2089.9946     0.1859 
 8000.0000  1508.1021     0.1754 
 8000.5000  1418.5715     0.1727 
 8001.0000  1567.6693     0.1778 
 8001.5000  1771.6693     0.1828 
 8002.0000  1818.2678     0.1833 
 8002.5000  1673.8264     0.1791 
 8003.0000  1696.8217     0.1793 
 8003.5000  2115.3337     0.1863 
