~Version Information
 VERS.                  2.0:   CWLS log ASCII Standard -VERSION 2.0
 WRAP.                   NO:   One line per depth step
~Well Information Block
#MNEM.UNIT       Data Type    Information
#---------     -----------    ---------------------------
 STRT.F              7180.5000:
 STOP.F              8032.0000:
 STEP.F                 0.5000:
 NULL.               -999.2500:
 UWI .                CASN0100:  UWI
 API .                CASN0100:  UWI
 WELL.                CASN-100:  COMMON WELL NAME
 COMP.               ECOPETROL:  WELL OPERATOR
 FLD .                CASTILLA:  FIELD
 LIC .                 UNKNOWN:  AUTHORIZATION NO
 LOC .                     LLA:  BASIN
 CTRY.                COLOMBIA:  COUNTRY
 STAT.                    META:  STATE
 CNTY.                 UNKNOWN:  COUNTY
 PROV.                    META:  STATE
 SRVC.                 UNKNOWN:  COMPANY
 DATE.                 UNKNOWN:  LOG RUN DATE
 LONG.           -73.635094741:  LONGITUDE
 LATI.             3.902985680:  LATITUDE
 XCOORD.          1049136.2500:  X COORDINATE
 YCOORD.           923356.9375:  Y COORDINATE
 ELEV.FT             1389.7300:  ELEVATION
 TD  .FT             8083.0000:  TOTAL DEPTH
~Parameter Information Block
#MNEM.UNIT       Value        Description
#---------     -----------    ---------------------------
~Curve Information Block
#MNEM.UNIT                 API CODE     Curve Description
#---------               -----------    ---------------------------
 DEPTH.F                00 000 000 000:  Index Curve
 2019_pPerm_ANS.MD          00 000 000 000:  
 2019_pPhieE_D_ANS.V/V         00 000 000 000:  
~A DEPTH     2019_pPerm_ANS 2019_pPhieE_D_ANS
# ...
 7888.5000  1600.8541     0.1790 
 7889.0000  1578.3245     0.1795 
 7889.5000  1540.6328     0.1820 
 7890.0000  1680.0861     0.1883 
 7890.5000  2064.9456     0.1951 
 7891.0000  2487.3662     0.1992 
 7891.5000  2484.2695     0.1981 
 7892.0000  2199.2319     0.1948 
 7892.5000  2069.5708     0.1929 
 7893.0000  2214.3242     0.1932 
 7893.5000  2698.9441     0.1973 
 7894.0000  3381.8916     0.2031 
 7894.5000  3953.4561     0.2076 
 7895.0000  4103.0439     0.2077 
 7895.5000  3627.1392     0.2040 
 7896.0000  2944.7754     0.1982 
 7896.5000  2384.7764     0.1935 
 7897.0000  2077.3606     0.1914 
 7897.5000  2016.7639     0.1907 
 7898.0000  2039.3458     0.1902 
 7898.5000  2059.0579     0.1892 
 7899.0000  1974.4005     0.1864 
 7899.5000  1805.6625     0.1827 
 7900.0000  1685.8997     0.1808 
 7900.5000  1832.3690     0.1849 
 7901.0000  2393.6729     0.1946 
 7901.5000  3381.4592     0.2057 
 7902.0000  4418.4082     0.2139 
 7902.5000  4938.3047     0.2176 
 7903.0000  4709.1704     0.2174 
 7903.5000  3989.5867     0.2129 
 7904.0000  3322.6238     0.2068 
 7904.5000  2883.6895     0.2014 
 7905.0000  2671.6445     0.1978 
 7905.5000  2546.5793     0.1965 
 7906.0000  2352.1248     0.1957 
 7906.5000  2194.2590     0.1959 
 7907.0000  2183.9160     0.1975 
 7907.5000  2266.0037     0.1993 
 7908.0000  2172.3677     0.1975 
 7908.5000  1815.3684     0.1914 
 7909.0000  1418.2095     0.1833 
 7909.5000  1152.5393     0.1766 
 7910.0000   980.9977     0.1716 
 7910.5000   815.1788     0.1666 
 7911.0000   657.6093     0.1608 
 7911.5000   555.3940     0.1563 
 7912.0000   499.3058     0.1531 
 7912.5000   524.5063     0.1544 
 7913.0000   713.7441     0.1621 
 7913.5000  1178.7106     0.1745 
 7914.0000  1800.2957     0.1855 
 7914.5000  2181.1055     0.1917 
 7915.0000  2218.0769     0.1933 
 7915.5000  2021.5515     0.1923 
 7916.0000  1917.9917     0.1916 
 7916.5000  2242.8430     0.1938 
 7917.0000  2778.5308     0.1974 
 7917.5000  3378.4421     0.2016 
 7918.0000  3666.4097     0.2034 
 7918.5000  3403.4382     0.2026 
 7919.0000  3044.5042     0.2005 
 7919.5000  2924.8491     0.1992 
 7920.0000  2952.4072     0.1993 
 7920.5000  3037.4766     0.2000 
 7921.0000  3046.6340     0.1995 
 7921.5000  2880.0771     0.1971 
 7922.0000  2472.1697     0.1927 
 7922.5000  1933.9071     0.1868 
 7923.0000  1547.1447     0.1815 
 7923.5000  1325.6537     0.1777 
 7924.0000  1242.6718     0.1752 
 7924.5000  1270.5289     0.1748 
 7925.0000  1218.0459     0.1721 
 7925.5000   906.7620     0.1611 
 7926.0000   475.8864     0.1416 
 7926.5000   203.5511     0.1204 
 7927.0000   112.5045     0.1049 
 7927.5000    80.7479     0.0978 
 7928.0000    75.8491     0.0964 
 7928.5000    74.5272     0.0985 
 7929.0000    80.8304     0.1040 
 7929.5000   125.7729     0.1188 
 7930.0000   330.3083     0.1414 
 7930.5000   894.7947     0.1668 
 7931.0000  1934.3728     0.1868 
 7931.5000  2973.7681     0.1983 
 7932.0000  3490.8347     0.2022 
 7932.5000  3622.8105     0.2029 
 7933.0000  3600.9126     0.2023 
 7933.5000  3438.8364     0.2010 
 7934.0000  3056.3733     0.1978 
 7934.5000  2575.3081     0.1928 
 7935.0000  2134.8096     0.1877 
 7935.5000  1752.9803     0.1826 
 7936.0000  1532.6772     0.1799 
 7936.5000  1643.1996     0.1817 
 7937.0000  2022.2793     0.1880 
 7937.5000  2473.5203     0.1938 
 7938.0000  2623.6365     0.1945 
 7938.5000  2282.6802     0.1902 
 7939.0000  1803.7976     0.1838 
 7939.5000  1459.3647     0.1786 
 7940.0000  1331.5045     0.1772 
 7940.5000  1394.0347     0.1789 
 7941.0000  1496.5295     0.1804 
 7941.5000  1521.0739     0.1799 
 7942.0000  1461.4954     0.1786 
 7942.5000  1380.1580     0.1773 
 7943.0000  1423.3593     0.1790 
 7943.5000  1598.1827     0.1828 
 7944.0000  1828.0864     0.1871 
 7944.5000  2052.9910     0.1908 
 7945.0000  2243.3210     0.1933 
 7945.5000  2337.4177     0.1935 
 7946.0000  2186.2341     0.1906 
 7946.5000  1924.8765     0.1863 
 7947.0000  1690.0732     0.1841 
 7947.5000  1504.5557     0.1825 
 7948.0000  1433.8606     0.1807 
 7948.5000  1395.2292     0.1784 
 7949.0000  1392.2432     0.1779 
 7949.5000  1430.9498     0.1796 
 7950.0000  1580.1056     0.1832 
 7950.5000  1860.6079     0.1883 
 7951.0000  2237.7969     0.1928 
 7951.5000  2509.6018     0.1949 
 7952.0000  2433.1855     0.1937 
 7952.5000  2197.3169     0.1911 
 7953.0000  2046.6575     0.1886 
 7953.5000  2080.4341     0.1887 
 7954.0000  2210.1541     0.1905 
 7954.5000  2339.9783     0.1919 
 7955.0000  2413.4441     0.1921 
 7955.5000  2353.5710     0.1909 
 7956.0000  2211.8159     0.1895 
 7956.5000  2004.6282     0.1880 
 7957.0000  1888.4584     0.1877 
 7957.5000  2093.0564     0.1897 
 7958.0000  2529.2756     0.1938 
 7958.5000  2893.2727     0.1966 
 7959.0000  2908.4470     0.1949 
 7959.5000  2529.1709     0.1901 
 7960.0000  2216.4180     0.1857 
 7960.5000  2110.9202     0.1845 
 7961.0000  1992.7371     0.1831 
 7961.5000  1907.2786     0.1824 
 7962.0000  1865.3882     0.1818 
 7962.5000  1834.1992     0.1807 
 7963.0000  1805.4054     0.1800 
 7963.5000  1864.8840     0.1812 
 7964.0000  2086.5510     0.1849 
 7964.5000  2455.3545     0.1899 
 7965.0000  2909.8979     0.1949 
 7965.5000  3310.7861     0.1988 
 7966.0000  3390.5461     0.2000 
 7966.5000  3089.2314     0.1968 
 7967.0000  2801.9336     0.1936 
 7967.5000  2778.6550     0.1937 
 7968.0000  3062.7063     0.1968 
 7968.5000  3109.4756     0.1968 
 7969.0000  2412.2097     0.1905 
 7969.5000  1573.0815     0.1789 
 7970.0000  1098.0533     0.1698 
 7970.5000   917.5892     0.1670 
 7971.0000   986.7020     0.1694 
 7971.5000  1064.7261     0.1709 
 7972.0000  1015.3658     0.1686 
 7972.5000   846.4246     0.1619 
 7973.0000   680.6256     0.1539 
 7973.5000   581.1907     0.1479 
 7974.0000   528.8159     0.1448 
 7974.5000   490.6461     0.1429 
 7975.0000   484.6290     0.1428 
 7975.5000   586.8747     0.1483 
 7976.0000   885.9665     0.1615 
 7976.5000  1415.3810     0.1764 
 7977.0000  1917.5707     0.1863 
 7977.5000  2070.9790     0.1898 
 7978.0000  2025.3428     0.1891 
 7978.5000  1944.4576     0.1868 
 7979.0000  1904.4242     0.1857 
 7979.5000  1986.1301     0.1869 
 7980.0000  2220.9133     0.1906 
 7980.5000  2410.7217     0.1926 
 7981.0000  2336.3850     0.1903 
 7981.5000  2041.8640     0.1854 
 7982.0000  1733.2527     0.1804 
 7982.5000  1543.5991     0.1772 
 7983.0000  1512.7054     0.1772 
 7983.5000  1632.3174     0.1796 
 7984.0000  1790.9862     0.1827 
 7984.5000  1818.3409     0.1839 
 7985.0000  1721.2130     0.1825 
 7985.5000  1730.9148     0.1831 
 7986.0000  1909.2511     0.1857 
 7986.5000  2232.9121     0.1906 
 7987.0000  2351.9795     0.1930 
 7987.5000  2153.0823     0.1910 
 7988.0000  1606.7740     0.1833 
 7988.5000  1048.6702     0.1735 
 7989.0000   605.8801     0.1598 
 7989.5000   319.9415     0.1432 
 7990.0000   191.1575     0.1248 
 7990.5000   122.7002     0.1097 
 7991.0000    84.2286     0.1013 
 7991.5000    52.0760     0.0965 
 7992.0000    15.4097     0.0372 
 7992.5000     2.0784     0.0096 
 7993.0000    35.2265     0.0332 
 7993.5000   204.9307     0.1374 
 7994.0000   584.5321     0.1581 
 7994.5000  1252.2955     0.1758 
 7995.0000  1953.0496     0.1874 
 7995.5000  2339.4326     0.1914 
 7996.0000  2374.4846     0.1914 
 7996.5000  2175.6726     0.1894 
 7997.0000  1821.3109     0.1849 
 7997.5000  1249.2225     0.1737 
 7998.0000   628.6017     0.1520 
 7998.5000   287.3164     0.1264 
 7999.0000   157.7968     0.1096 
 7999.5000   154.5534     0.1085 
 8000.0000   190.3961     0.1153 
 8000.5000   222.3247     0.1203 
 8001.0000   217.4277     0.1191 
 8001.5000   171.1913     0.1132 
 8002.0000   130.8330     0.1078 
 8002.5000   123.5253     0.1080 
 8003.0000   148.8501     0.1147 
 8003.5000   220.1683     0.1250 
 8004.0000   309.2424     0.1341 
 8004.5000   320.6984     0.1360 
 8005.0000   208.5862     0.1254 
 8005.5000    78.7075     0.1022 
 8006.0000    20.5864     0.0753 
