~Version Information
 VERS.                  2.0:   CWLS log ASCII Standard -VERSION 2.0
 WRAP.                   NO:   One line per depth step
~Well Information Block
#MNEM.UNIT       Data Type    Information
#---------     -----------    ---------------------------
 STRT.F              8011.0000:
 STOP.F              9260.0000:
 STEP.F                 0.5000:
 NULL.               -999.2500:
 UWI .                CASN0030:  UWI
 API .                CASN0030:  UWI
 WELL.                 CASN-30:  COMMON WELL NAME
 COMP.               ECOPETROL:  WELL OPERATOR
 FLD .                CASTILLA:  FIELD
 LIC .                 UNKNOWN:  AUTHORIZATION NO
 LOC .                     LLA:  BASIN
 CTRY.                COLOMBIA:  COUNTRY
 STAT.                    META:  STATE
 CNTY.       CASTILLA_LA_NUEVA:  COUNTY
 PROV.                    META:  STATE
 SRVC.                 UNKNOWN:  COMPANY
 DATE.                 UNKNOWN:  LOG RUN DATE
 LONG.           -73.616480936:  LONGITUDE
 LATI.             3.893355943:  LATITUDE
 XCOORD.          1051204.2500:  X COORDINATE
 YCOORD.           922293.1875:  Y COORDINATE
 ELEV.FT             1376.0000:  ELEVATION
 TD  .FT             9235.0000:  TOTAL DEPTH
~Parameter Information Block
#MNEM.UNIT       Value        Description
#---------     -----------    ---------------------------
~Curve Information Block
#MNEM.UNIT                 API CODE     Curve Description
#---------               -----------    ---------------------------
 DEPTH.F                00 000 000 000:  Index Curve
 2019_pPerm_ANS.MD          00 000 000 000:  
 2019_pPhieE_D_ANS.V/V         00 000 000 000:  
~A DEPTH     2019_pPerm_ANS 2019_pPhieE_D_ANS
# ...
 8719.0000     0.4230     0.0377 
 8719.5000     0.0241     0.0108 
 8720.0000     0.0297     0.0146 
 8720.5000     0.0332     0.0146 
 8721.0000     0.0472     0.0187 
 8721.5000     0.0340     0.0148 
 8722.0000     0.0326     0.0129 
 8722.5000     0.0613     0.0209 
 8723.0000     0.0665     0.0151 
 8723.5000     0.2260     0.0352 
 8724.0000     1.0514     0.0409 
 8724.5000     5.3200     0.0915 
 8725.0000     5.5288     0.0887 
 8725.5000     4.9163     0.0887 
 8726.0000     1.4185     0.0614 
 8726.5000     0.1959     0.0141 
 8727.0000     0.0111     0.0083 
 8727.5000     0.0037     0.0041 
 8728.0000     0.0007     0.0017 
 8728.5000     0.0009     0.0016 
 8729.0000     0.0032     0.0042 
 8729.5000     0.0375     0.0181 
 8730.0000     0.0198     0.0114 
 8730.5000     0.0037     0.0022 
 8731.0000     0.0001     0.0004 
 8731.5000     0.0000     0.0001 
 8732.0000     0.0003     0.0006 
 8732.5000     0.0070     0.0038 
 8733.0000     0.0452     0.0153 
 8733.5000     0.2796     0.0306 
 8734.0000     3.9470     0.0614 
 8734.5000    25.9329     0.1199 
 8735.0000    45.9737     0.1317 
 8735.5000    48.3218     0.1313 
 8736.0000    38.1738     0.1287 
 8736.5000     4.1236     0.0490 
 8737.0000     0.0891     0.0000 
 8737.5000     0.0000     0.0000 
 8738.0000     0.0000     0.0000 
 8738.5000     0.0000     0.0000 
 8739.0000     0.0000     0.0000 
 8739.5000     0.0000     0.0000 
 8740.0000     0.0000     0.0000 
 8740.5000     0.0000     0.0000 
 8741.0000     0.0000     0.0000 
 8741.5000     0.0000     0.0000 
 8742.0000     0.0000     0.0000 
 8742.5000     0.0000     0.0000 
 8743.0000     0.0000     0.0000 
 8743.5000     0.0000     0.0000 
 8744.0000     0.0000     0.0000 
 8744.5000     0.0000     0.0000 
 8745.0000     0.0000     0.0000 
 8745.5000     0.0000     0.0000 
 8746.0000     0.0000     0.0000 
 8746.5000     0.0000     0.0000 
 8747.0000     0.0000     0.0000 
 8747.5000     0.0000     0.0000 
 8748.0000     0.0000     0.0000 
 8748.5000     0.0000     0.0000 
 8749.0000     0.0000     0.0000 
 8749.5000     0.0000     0.0000 
 8750.0000     0.0000     0.0000 
 8750.5000     0.0000     0.0000 
 8751.0000     0.0000     0.0000 
 8751.5000     0.0007     0.0000 
 8752.0000    15.0268     0.0051 
 8752.5000   233.3159     0.1736 
 8753.0000   320.5727     0.1742 
 8753.5000   429.9843     0.1802 
 8754.0000   588.9551     0.1848 
 8754.5000  1197.3824     0.2029 
 8755.0000  2019.0410     0.2162 
 8755.5000  2665.1438     0.2232 
 8756.0000  2506.4785     0.2215 
 8756.5000  2031.8250     0.2164 
 8757.0000  1470.8669     0.2109 
 8757.5000   750.0439     0.1973 
 8758.0000   116.8240     0.0607 
 8758.5000     0.1253     0.0205 
 8759.0000     0.3882     0.0263 
 8759.5000    21.4873     0.0714 
 8760.0000   741.3667     0.1955 
 8760.5000  1583.5809     0.2120 
 8761.0000  -999.2500  -999.2500 
 8761.5000  2513.0508     0.2039 
 8762.0000  4061.4194     0.2169 
 8762.5000  7329.9502     0.2385 
 8763.0000 12017.3867     0.2548 
 8763.5000 15243.8564     0.2586 
 8764.0000 18667.2617     0.2627 
 8764.5000 20000.0000     0.2636 
 8765.0000 18631.9297     0.2577 
 8765.5000 13926.7803     0.2480 
 8766.0000  9888.1582     0.2387 
 8766.5000  8865.4541     0.2384 
 8767.0000  9900.4229     0.2415 
 8767.5000 10754.9443     0.2422 
 8768.0000 10639.6074     0.2393 
 8768.5000  8971.8965     0.2352 
 8769.0000  7341.9600     0.2322 
 8769.5000  6398.9663     0.2296 
 8770.0000  6397.8569     0.2306 
 8770.5000  6630.6948     0.2293 
 8771.0000  7763.3838     0.2324 
 8771.5000  9317.6309     0.2390 
 8772.0000 10474.6348     0.2448 
 8772.5000  8187.0068     0.2388 
 8773.0000  5278.4932     0.2246 
 8773.5000  4761.2251     0.2212 
 8774.0000  4841.5522     0.2238 
 8774.5000  4798.8154     0.2250 
 8775.0000  4492.8916     0.2228 
 8775.5000  4389.8818     0.2210 
 8776.0000  4734.1123     0.2215 
 8776.5000  4987.6582     0.2215 
 8777.0000  4920.3970     0.2214 
 8777.5000  4845.3960     0.2214 
 8778.0000  4418.0151     0.2172 
 8778.5000  3811.2317     0.2107 
 8779.0000  3024.4399     0.2019 
 8779.5000  2695.7769     0.2010 
 8780.0000  2909.3188     0.2055 
 8780.5000  3064.4041     0.2064 
 8781.0000  2964.8982     0.2050 
 8781.5000  2981.5410     0.2023 
 8782.0000  4317.5977     0.2121 
 8782.5000  5995.8770     0.2209 
 8783.0000  7149.9258     0.2284 
 8783.5000  7242.4702     0.2276 
 8784.0000  7945.5005     0.2318 
 8784.5000  8543.8057     0.2341 
 8785.0000  8639.7695     0.2349 
 8785.5000  8175.6436     0.2324 
 8786.0000  8337.1738     0.2341 
 8786.5000  8376.5029     0.2348 
 8787.0000  7639.2471     0.2315 
 8787.5000  6357.2192     0.2238 
 8788.0000  4771.2520     0.2152 
 8788.5000  2443.9138     0.1911 
 8789.0000  1365.7484     0.1825 
 8789.5000  1139.0155     0.1862 
 8790.0000  1134.4622     0.1961 
 8790.5000   871.2941     0.1896 
 8791.0000   700.2527     0.1816 
 8791.5000   928.6011     0.1839 
 8792.0000  1388.2046     0.1950 
 8792.5000  2728.1636     0.2078 
 8793.0000  4392.2378     0.2184 
 8793.5000  6879.9443     0.2293 
 8794.0000  8360.1064     0.2342 
 8794.5000 12497.2324     0.2478 
 8795.0000 16716.2070     0.2550 
 8795.5000 20000.0000     0.2667 
 8796.0000 20000.0000     0.2742 
 8796.5000 20000.0000     0.2762 
 8797.0000 12916.3311     0.2621 
 8797.5000  5039.8535     0.2355 
 8798.0000  1840.8917     0.2056 
 8798.5000   795.2802     0.1838 
 8799.0000   497.4101     0.1721 
 8799.5000   487.7156     0.1711 
 8800.0000  1126.1215     0.1847 
 8800.5000  2928.0352     0.2101 
 8801.0000  6701.2104     0.2295 
 8801.5000 10292.5752     0.2387 
 8802.0000  9537.4287     0.2358 
 8802.5000  9370.6201     0.2362 
 8803.0000  8811.8174     0.2342 
 8803.5000  9401.4521     0.2353 
 8804.0000 11534.6357     0.2416 
 8804.5000 14057.6387     0.2481 
 8805.0000 16008.3877     0.2535 
 8805.5000 16257.9863     0.2545 
 8806.0000 13184.8330     0.2507 
 8806.5000  7895.5786     0.2362 
 8807.0000  4044.3042     0.2164 
 8807.5000  2172.6394     0.2000 
 8808.0000  1285.5334     0.1851 
 8808.5000   887.1480     0.1756 
 8809.0000   674.6096     0.1678 
 8809.5000   696.0610     0.1676 
 8810.0000   900.1198     0.1729 
 8810.5000  1609.2209     0.1837 
 8811.0000  3028.7295     0.2034 
 8811.5000  5737.7144     0.2223 
 8812.0000  8219.6426     0.2347 
 8812.5000  8631.2441     0.2347 
 8813.0000  8562.1221     0.2333 
 8813.5000  7775.3062     0.2284 
 8814.0000  7810.8237     0.2302 
 8814.5000  8901.7529     0.2368 
 8815.0000  9065.4004     0.2366 
 8815.5000  9069.9482     0.2365 
 8816.0000  9597.6660     0.2374 
 8816.5000 11150.3164     0.2422 
 8817.0000 11481.7568     0.2411 
 8817.5000 11857.6475     0.2443 
 8818.0000 12515.2441     0.2492 
 8818.5000 12980.8447     0.2550 
 8819.0000  9329.1709     0.2441 
 8819.5000  7147.2314     0.2349 
 8820.0000  8315.3027     0.2353 
 8820.5000 13458.7266     0.2518 
 8821.0000 15921.1348     0.2576 
 8821.5000 14604.1377     0.2527 
 8822.0000 12961.2129     0.2462 
 8822.5000 13433.2998     0.2484 
 8823.0000 12212.7812     0.2479 
 8823.5000 10925.6494     0.2465 
 8824.0000 10375.9766     0.2447 
 8824.5000 11372.0400     0.2496 
 8825.0000 10984.0303     0.2498 
 8825.5000  9417.3760     0.2479 
 8826.0000  6940.4424     0.2377 
 8826.5000  5039.4761     0.2292 
 8827.0000  3386.1431     0.2181 
 8827.5000  1976.4125     0.2115 
 8828.0000   263.7774     0.0433 
 8828.5000     1.7834     0.0017 
 8829.0000     0.8016     0.0001 
 8829.5000     0.8238     0.0001 
 8830.0000     2.6062     0.0022 
 8830.5000   261.8307     0.0710 
 8831.0000  1517.4834     0.1990 
 8831.5000  1444.6948     0.1841 
 8832.0000  1828.4188     0.1908 
 8832.5000  2584.5879     0.2043 
 8833.0000  3325.5999     0.2134 
 8833.5000  2959.5439     0.2116 
 8834.0000  2897.1196     0.2094 
 8834.5000  3288.6768     0.2089 
 8835.0000  4115.2300     0.2132 
 8835.5000  5293.9150     0.2190 
 8836.0000  7125.8608     0.2295 
 8836.5000  9850.6328     0.2391 
