~Version Information
 VERS.                  2.0:   CWLS log ASCII Standard -VERSION 2.0
 WRAP.                   NO:   One line per depth step
~Well Information Block
#MNEM.UNIT       Data Type    Information
#---------     -----------    ---------------------------
 STRT.F              7125.0000:
 STOP.F              8192.5000:
 STEP.F                 0.5000:
 NULL.               -999.2500:
 UWI .                CASN0029:  UWI
 API .                CASN0029:  UWI
 WELL.                 CASN-29:  COMMON WELL NAME
 COMP.               ECOPETROL:  WELL OPERATOR
 FLD .                CASTILLA:  FIELD
 LIC .                 UNKNOWN:  AUTHORIZATION NO
 LOC .                     LLA:  BASIN
 CTRY.                COLOMBIA:  COUNTRY
 STAT.                    META:  STATE
 CNTY.       CASTILLA_LA_NUEVA:  COUNTY
 PROV.                    META:  STATE
 SRVC.                 UNKNOWN:  COMPANY
 DATE.                 UNKNOWN:  LOG RUN DATE
 LONG.           -73.616655939:  LONGITUDE
 LATI.             3.893399628:  LATITUDE
 XCOORD.          1051184.7500:  X COORDINATE
 YCOORD.           922298.0000:  Y COORDINATE
 ELEV.FT             1376.0000:  ELEVATION
 TD  .FT             8225.0000:  TOTAL DEPTH
~Parameter Information Block
#MNEM.UNIT       Value        Description
#---------     -----------    ---------------------------
~Curve Information Block
#MNEM.UNIT                 API CODE     Curve Description
#---------               -----------    ---------------------------
 DEPTH.F                00 000 000 000:  Index Curve
 2019_pPerm_ANS.MD          00 000 000 000:  
 2019_pPhieE_D_ANS.V/V         00 000 000 000:  
~A DEPTH     2019_pPerm_ANS 2019_pPhieE_D_ANS
# ...
 8069.0000  3374.0842     0.2024 
 8069.5000  3899.0317     0.2059 
 8070.0000  4290.1021     0.2094 
 8070.5000  3607.5215     0.2022 
 8071.0000  3795.8604     0.2054 
 8071.5000  3562.6770     0.2014 
 8072.0000  2987.3123     0.1965 
 8072.5000  2688.1411     0.1944 
 8073.0000  2675.3838     0.1950 
 8073.5000  2794.1572     0.1959 
 8074.0000  2764.7468     0.1969 
 8074.5000  2881.3223     0.1978 
 8075.0000  3900.4866     0.2102 
 8075.5000  3973.2800     0.2077 
 8076.0000  3858.0049     0.2053 
 8076.5000  4381.7461     0.2096 
 8077.0000  4189.8843     0.2079 
 8077.5000  5481.2188     0.2173 
 8078.0000  7125.4282     0.2253 
 8078.5000  8229.1006     0.2293 
 8079.0000  9068.9473     0.2316 
 8079.5000  9421.3896     0.2356 
 8080.0000  8443.7207     0.2365 
 8080.5000  3813.3511     0.2137 
 8081.0000  1709.2277     0.2015 
 8081.5000   904.1612     0.1827 
 8082.0000   535.1450     0.1679 
 8082.5000   653.0934     0.1723 
 8083.0000   817.9467     0.1747 
 8083.5000  1134.5817     0.1815 
 8084.0000  1560.2365     0.1911 
 8084.5000  1709.8014     0.1878 
 8085.0000  1997.3999     0.1904 
 8085.5000  2548.4565     0.1987 
 8086.0000  2963.4666     0.2025 
 8086.5000  3825.8420     0.2097 
 8087.0000  4294.6636     0.2145 
 8087.5000  4475.8774     0.2150 
 8088.0000  3961.0986     0.2089 
 8088.5000  4052.4482     0.2116 
 8089.0000  3317.8982     0.2045 
 8089.5000  3610.6482     0.2107 
 8090.0000  4381.7153     0.2168 
 8090.5000  4940.3447     0.2180 
 8091.0000  5565.2783     0.2202 
 8091.5000  4863.6436     0.2139 
 8092.0000  4897.9619     0.2130 
 8092.5000  6406.5171     0.2234 
 8093.0000  6991.5894     0.2271 
 8093.5000  6887.1567     0.2247 
 8094.0000  5954.1152     0.2201 
 8094.5000  3576.1538     0.2037 
 8095.0000  4776.2964     0.2147 
 8095.5000  4624.5049     0.2116 
 8096.0000  2820.0840     0.1947 
 8096.5000  1770.1396     0.1829 
 8097.0000  2018.7340     0.1860 
 8097.5000  3409.1589     0.2076 
 8098.0000  3536.9927     0.2089 
 8098.5000  3916.2666     0.2102 
 8099.0000  4503.6533     0.2128 
 8099.5000  4371.3901     0.2097 
 8100.0000  4294.9194     0.2093 
 8100.5000  3386.5442     0.2033 
 8101.0000  2186.3079     0.1860 
 8101.5000  2706.1160     0.1943 
 8102.0000  3890.9575     0.2085 
 8102.5000  3183.2585     0.1985 
 8103.0000  3076.4497     0.1982 
 8103.5000  2697.6790     0.1937 
 8104.0000  2244.6160     0.1889 
 8104.5000  2111.4390     0.1872 
 8105.0000  2154.2756     0.1900 
 8105.5000  2335.3081     0.1926 
 8106.0000  2225.6982     0.1909 
 8106.5000  1966.5510     0.1869 
 8107.0000  2113.3735     0.1905 
 8107.5000  2574.3784     0.1960 
 8108.0000  3536.2534     0.2075 
 8108.5000  3213.5398     0.1997 
 8109.0000  2960.0215     0.1984 
 8109.5000  2142.5901     0.1868 
 8110.0000  2376.4441     0.1887 
 8110.5000  4328.2749     0.2158 
 8111.0000  5555.3203     0.2228 
 8111.5000  5959.0708     0.2266 
 8112.0000  4629.6694     0.2185 
 8112.5000  3558.6047     0.2122 
 8113.0000  3166.6899     0.2096 
 8113.5000  2582.2954     0.2008 
 8114.0000  2277.7781     0.1964 
 8114.5000  2474.0522     0.2026 
 8115.0000  2341.7822     0.1994 
 8115.5000  2431.2639     0.1986 
 8116.0000  3292.3440     0.2083 
 8116.5000  3180.6016     0.2054 
 8117.0000  2951.8499     0.2010 
 8117.5000  2575.2498     0.1937 
 8118.0000  2558.9263     0.1920 
 8118.5000  2866.9995     0.1976 
 8119.0000  2474.2217     0.1918 
 8119.5000  2198.4807     0.1909 
 8120.0000  1799.2811     0.1823 
 8120.5000  1942.9631     0.1863 
 8121.0000  2430.6494     0.1950 
 8121.5000  2656.3521     0.1957 
 8122.0000  2722.2332     0.1995 
 8122.5000  2147.0256     0.1926 
 8123.0000  1286.4515     0.1747 
 8123.5000  1031.2938     0.1666 
 8124.0000  1218.6373     0.1742 
 8124.5000  1714.9905     0.1836 
 8125.0000  2580.5930     0.1956 
 8125.5000  2075.5322     0.1909 
 8126.0000   749.0039     0.1540 
 8126.5000   268.6306     0.1163 
 8127.0000   112.7965     0.1010 
 8127.5000   119.7769     0.1019 
 8128.0000   168.6651     0.1149 
 8128.5000   209.7994     0.1204 
 8129.0000   251.9483     0.1268 
 8129.5000   290.1093     0.1293 
 8130.0000   294.8987     0.1325 
 8130.5000   273.7672     0.1306 
 8131.0000   259.9044     0.1287 
 8131.5000   239.2156     0.1255 
 8132.0000   225.7531     0.1259 
 8132.5000   194.0700     0.1252 
 8133.0000   200.2759     0.1236 
 8133.5000   234.3501     0.1267 
 8134.0000   349.6382     0.1397 
 8134.5000   416.8937     0.1446 
 8135.0000   326.1772     0.1362 
 8135.5000   181.5976     0.1207 
 8136.0000    58.0426     0.0884 
 8136.5000     3.9214     0.0199 
 8137.0000     1.4724     0.0025 
 8137.5000     1.3988     0.0047 
 8138.0000     1.8736     0.0101 
 8138.5000     2.6434     0.0190 
 8139.0000     6.2471     0.0269 
 8139.5000   176.7661     0.0793 
 8140.0000  1386.0878     0.1951 
 8140.5000  1822.0752     0.1939 
 8141.0000  1496.5870     0.1848 
 8141.5000   948.5676     0.1744 
 8142.0000   739.5421     0.1738 
 8142.5000   575.3192     0.1642 
 8143.0000   441.8327     0.1515 
 8143.5000   291.5021     0.1377 
 8144.0000   311.3093     0.1398 
 8144.5000   655.5958     0.1541 
 8145.0000  1537.5698     0.1850 
 8145.5000  2007.4130     0.1926 
 8146.0000  1709.6742     0.1845 
 8146.5000  1141.3396     0.1777 
 8147.0000   743.5610     0.1674 
 8147.5000   795.2289     0.1658 
 8148.0000   989.0757     0.1717 
 8148.5000  1801.7756     0.1886 
 8149.0000  2823.0647     0.2012 
 8149.5000  3125.9812     0.2012 
 8150.0000  3282.1074     0.2042 
 8150.5000  2565.8201     0.1932 
 8151.0000  2190.0298     0.1908 
 8151.5000  1857.1802     0.1850 
 8152.0000  1980.2338     0.1875 
 8152.5000  2271.1250     0.1936 
 8153.0000  2114.5352     0.1870 
 8153.5000  2335.3831     0.1940 
 8154.0000  2206.7200     0.1912 
 8154.5000  1750.6998     0.1831 
 8155.0000  1470.8717     0.1783 
 8155.5000  1324.6573     0.1758 
 8156.0000  1203.5435     0.1760 
 8156.5000   746.9777     0.1633 
 8157.0000   399.3596     0.1459 
 8157.5000   244.0842     0.1348 
 8158.0000   495.6629     0.1463 
 8158.5000  1197.4548     0.1780 
 8159.0000  2049.5254     0.1895 
 8159.5000  2389.5842     0.1936 
 8160.0000  2149.5776     0.1874 
 8160.5000  2333.9119     0.1911 
 8161.0000  2660.9749     0.1963 
 8161.5000  2835.4414     0.1946 
 8162.0000  4367.1025     0.2110 
 8162.5000  5785.6016     0.2205 
 8163.0000  6110.2358     0.2219 
 8163.5000  4433.3652     0.2101 
 8164.0000  2953.3945     0.1970 
 8164.5000  2090.9514     0.1814 
 8165.0000  2635.8923     0.1941 
 8165.5000  3908.8054     0.2076 
 8166.0000  4332.8721     0.2117 
 8166.5000  3851.0930     0.2073 
 8167.0000  2579.2837     0.1960 
 8167.5000  1817.1562     0.1838 
 8168.0000  1218.8878     0.1747 
 8168.5000   495.9313     0.1435 
 8169.0000   155.4834     0.1190 
 8169.5000   134.9433     0.1225 
 8170.0000   124.6246     0.1162 
 8170.5000   314.1357     0.1379 
 8171.0000   912.4608     0.1706 
 8171.5000  1575.2732     0.1852 
 8172.0000  1409.1085     0.1765 
 8172.5000  1294.0870     0.1721 
 8173.0000  1604.2705     0.1757 
 8173.5000  2569.4758     0.1951 
 8174.0000  2405.1165     0.1972 
 8174.5000   210.7325     0.0000 
 8175.0000     5.8661     0.0000 
 8175.5000     5.9056     0.0000 
 8176.0000     6.0762     0.0000 
 8176.5000     6.1605     0.0000 
 8177.0000     6.0628     0.0000 
 8177.5000     5.7314     0.0000 
 8178.0000     5.0530     0.0000 
 8178.5000     3.7406     0.0000 
 8179.0000     2.8058     0.0000 
 8179.5000     1.9244     0.0000 
 8180.0000     1.3332     0.0000 
 8180.5000     0.9647     0.0000 
 8181.0000     1.2896     0.0000 
 8181.5000     2.1322     0.0000 
 8182.0000     3.8263     0.0000 
 8182.5000     5.3705     0.0000 
 8183.0000     5.9179     0.0000 
 8183.5000     5.9344     0.0000 
 8184.0000     5.8648     0.0000 
 8184.5000     6.2969     0.0000 
 8185.0000     6.4141     0.0000 
 8185.5000     6.0597     0.0000 
 8186.0000     5.7424     0.0000 
 8186.5000     5.5678     0.0000 
