~Version Information
 VERS.                  2.0:   CWLS log ASCII Standard -VERSION 2.0
 WRAP.                   NO:   One line per depth step
~Well Information Block
#MNEM.UNIT       Data Type    Information
#---------     -----------    ---------------------------
 STRT.F              7159.5000:
 STOP.F              8265.0000:
 STEP.F                 0.5000:
 NULL.               -999.2500:
 UWI .                CASN0033:  UWI
 API .                CASN0033:  UWI
 WELL.                 CASN-33:  COMMON WELL NAME
 COMP.               ECOPETROL:  WELL OPERATOR
 FLD .                CASTILLA:  FIELD
 LIC .                 UNKNOWN:  AUTHORIZATION NO
 LOC .                     LLA:  BASIN
 CTRY.                COLOMBIA:  COUNTRY
 STAT.                    META:  STATE
 CNTY.       CASTILLA_LA_NUEVA:  COUNTY
 PROV.                    META:  STATE
 SRVC.                 UNKNOWN:  COMPANY
 DATE.                 UNKNOWN:  LOG RUN DATE
 LONG.           -73.616507528:  LONGITUDE
 LATI.             3.893623539:  LATITUDE
 XCOORD.          1051201.2500:  X COORDINATE
 YCOORD.           922322.7500:  Y COORDINATE
 ELEV.FT             1376.0000:  ELEVATION
 TD  .FT             8280.0000:  TOTAL DEPTH
~Parameter Information Block
#MNEM.UNIT       Value        Description
#---------     -----------    ---------------------------
~Curve Information Block
#MNEM.UNIT                 API CODE     Curve Description
#---------               -----------    ---------------------------
 DEPTH.F                00 000 000 000:  Index Curve
 2019_pPerm_ANS.MD          00 000 000 000:  
 2019_pPhieE_D_ANS.V/V         00 000 000 000:  
~A DEPTH     2019_pPerm_ANS 2019_pPhieE_D_ANS
# ...
 7513.5000     0.0000     0.0001 
 7514.0000     0.0000     0.0002 
 7514.5000     0.0000     0.0001 
 7515.0000     0.0000     0.0000 
 7515.5000     0.0000     0.0001 
 7516.0000     0.0003     0.0006 
 7516.5000     0.0026     0.0038 
 7517.0000     0.0087     0.0072 
 7517.5000     0.0386     0.0150 
 7518.0000     0.1130     0.0283 
 7518.5000     0.1687     0.0327 
 7519.0000     0.2257     0.0377 
 7519.5000     0.1139     0.0267 
 7520.0000     0.0446     0.0183 
 7520.5000     0.0239     0.0132 
 7521.0000     0.0119     0.0094 
 7521.5000     0.4869     0.0322 
 7522.0000     2.2429     0.0800 
 7522.5000     2.4985     0.0801 
 7523.0000     2.4990     0.0803 
 7523.5000     1.6410     0.0715 
 7524.0000     1.1303     0.0630 
 7524.5000     1.6888     0.0721 
 7525.0000     8.0020     0.0814 
 7525.5000    49.6889     0.1403 
 7526.0000    68.6533     0.1455 
 7526.5000    74.8724     0.1472 
 7527.0000    68.7540     0.1488 
 7527.5000    10.0402     0.0806 
 7528.0000     1.0921     0.0609 
 7528.5000     0.4031     0.0448 
 7529.0000     0.2173     0.0315 
 7529.5000     0.3446     0.0427 
 7530.0000     0.6917     0.0560 
 7530.5000     0.9214     0.0607 
 7531.0000     1.2139     0.0655 
 7531.5000     1.6970     0.0732 
 7532.0000     9.7346     0.0810 
 7532.5000    45.2497     0.1370 
 7533.0000    47.3567     0.1370 
 7533.5000    47.3576     0.1369 
 7534.0000    46.6265     0.1368 
 7534.5000    39.9390     0.1353 
 7535.0000     7.7240     0.0749 
 7535.5000     2.0955     0.0775 
 7536.0000     4.4583     0.0801 
 7536.5000    15.3461     0.1161 
 7537.0000    12.5525     0.1087 
 7537.5000     6.7057     0.0954 
 7538.0000     2.9807     0.0820 
 7538.5000     0.4594     0.0150 
 7539.0000     0.0022     0.0007 
 7539.5000     0.0000     0.0001 
 7540.0000     0.0000     0.0000 
 7540.5000     0.0000     0.0000 
 7541.0000     0.0000     0.0000 
 7541.5000     0.0000     0.0000 
 7542.0000     0.0000     0.0000 
 7542.5000     0.0000     0.0000 
 7543.0000     0.0000     0.0000 
 7543.5000     0.0000     0.0000 
 7544.0000     0.0000     0.0000 
 7544.5000     0.0000     0.0000 
 7545.0000     0.0000     0.0000 
 7545.5000     0.0000     0.0001 
 7546.0000     0.0000     0.0004 
 7546.5000     0.0002     0.0009 
 7547.0000     0.0004     0.0018 
 7547.5000     0.0001     0.0002 
 7548.0000     0.0000     0.0000 
 7548.5000     0.0000     0.0000 
 7549.0000     0.0000     0.0000 
 7549.5000     0.0000     0.0000 
 7550.0000     0.0000     0.0000 
 7550.5000     0.0000     0.0000 
 7551.0000     0.0000     0.0000 
 7551.5000     0.0000     0.0000 
 7552.0000     0.0000     0.0000 
 7552.5000     0.0000     0.0000 
 7553.0000     0.0000     0.0000 
 7553.5000     0.0000     0.0000 
 7554.0000     0.0000     0.0000 
 7554.5000     0.0000     0.0001 
 7555.0000     0.0001     0.0001 
 7555.5000     0.0070     0.0021 
 7556.0000     9.0190     0.0222 
 7556.5000    66.2592     0.1421 
 7557.0000   157.0853     0.1583 
 7557.5000   301.1426     0.1713 
 7558.0000   567.1469     0.1843 
 7558.5000  1129.7535     0.2002 
 7559.0000  1897.8374     0.2162 
 7559.5000  1285.8842     0.2029 
 7560.0000   744.9821     0.1896 
 7560.5000   431.6467     0.1753 
 7561.0000   225.9948     0.1609 
 7561.5000    76.9548     0.1323 
 7562.0000    13.1893     0.1037 
 7562.5000    22.6868     0.1145 
 7563.0000    41.1633     0.1253 
 7563.5000   561.5787     0.1717 
 7564.0000  2033.1106     0.2180 
 7564.5000  2258.0710     0.2173 
 7565.0000  2406.7532     0.2165 
 7565.5000  2431.8030     0.2166 
 7566.0000  2399.7429     0.2167 
 7566.5000  1960.4735     0.2105 
 7567.0000  1581.8701     0.2044 
 7567.5000  1479.3916     0.2037 
 7568.0000  1396.5553     0.2030 
 7568.5000  1202.2402     0.1981 
 7569.0000  1172.1002     0.1933 
 7569.5000  2026.1699     0.2110 
 7570.0000  3299.9856     0.2287 
 7570.5000  2832.7490     0.2214 
 7571.0000  2180.1799     0.2141 
 7571.5000  1703.9469     0.2078 
 7572.0000  1409.5999     0.2016 
 7572.5000  1384.8339     0.2018 
 7573.0000  1433.5027     0.2021 
 7573.5000  1516.1241     0.2033 
 7574.0000  1583.9067     0.2045 
 7574.5000  1533.8174     0.2042 
 7575.0000  1454.9285     0.2040 
 7575.5000  1359.4791     0.2032 
 7576.0000  1288.1328     0.2024 
 7576.5000  1321.4894     0.2030 
 7577.0000  1381.3496     0.2036 
 7577.5000  1454.6672     0.2045 
 7578.0000  1523.4193     0.2053 
 7578.5000  1531.9611     0.2059 
 7579.0000  1377.2683     0.2064 
 7579.5000   298.1799     0.1458 
 7580.0000    13.8124     0.0851 
 7580.5000     2.2936     0.0784 
 7581.0000     0.1708     0.0106 
 7581.5000     0.1530     0.0247 
 7582.0000     1.8494     0.0502 
 7582.5000    28.2466     0.1286 
 7583.0000    31.1628     0.1251 
 7583.5000     7.3729     0.0829 
 7584.0000     0.4551     0.0449 
 7584.5000     0.0781     0.0116 
 7585.0000     0.0022     0.0020 
 7585.5000     0.0524     0.0104 
 7586.0000     0.2372     0.0386 
 7586.5000     0.1039     0.0240 
 7587.0000     0.0300     0.0141 
 7587.5000     0.0044     0.0022 
 7588.0000     0.0001     0.0002 
 7588.5000     0.0010     0.0014 
 7589.0000     0.0060     0.0066 
 7589.5000     0.0111     0.0089 
 7590.0000     0.0153     0.0118 
 7590.5000     0.0042     0.0046 
 7591.0000     0.0010     0.0016 
 7591.5000     0.0011     0.0026 
 7592.0000     0.0081     0.0040 
 7592.5000     0.0599     0.0169 
 7593.0000     0.8398     0.0526 
 7593.5000     2.4657     0.0797 
 7594.0000     3.5371     0.0879 
 7594.5000     0.4661     0.0437 
 7595.0000     0.0727     0.0106 
 7595.5000     0.0088     0.0079 
 7596.0000     0.0071     0.0058 
 7596.5000     0.0176     0.0108 
 7597.0000     0.1513     0.0192 
 7597.5000     4.1912     0.0558 
 7598.0000    33.5088     0.1292 
 7598.5000    48.8129     0.1356 
 7599.0000    64.4132     0.1419 
 7599.5000    89.0867     0.1497 
 7600.0000   105.5031     0.1575 
 7600.5000    19.8167     0.0820 
 7601.0000     1.8091     0.0723 
 7601.5000     1.1358     0.0628 
 7602.0000     0.6697     0.0538 
 7602.5000     0.1335     0.0160 
 7603.0000     0.0029     0.0034 
 7603.5000     0.0004     0.0007 
 7604.0000     0.0000     0.0001 
 7604.5000     0.0000     0.0001 
 7605.0000     0.0000     0.0001 
 7605.5000     0.0003     0.0006 
 7606.0000     0.0026     0.0027 
 7606.5000     0.1204     0.0145 
 7607.0000     0.7043     0.0528 
 7607.5000    10.9672     0.0756 
 7608.0000    57.7166     0.1420 
 7608.5000    60.3788     0.1397 
 7609.0000    56.5312     0.1375 
 7609.5000    51.6842     0.1349 
 7610.0000    43.2977     0.1324 
 7610.5000    16.8644     0.1088 
 7611.0000     5.2131     0.0852 
 7611.5000     2.0403     0.0753 
 7612.0000     0.5943     0.0441 
 7612.5000     0.1159     0.0261 
 7613.0000     0.0428     0.0143 
 7613.5000     0.0453     0.0179 
 7614.0000     0.4422     0.0222 
 7614.5000     2.3992     0.0786 
 7615.0000    14.3187     0.1092 
 7615.5000    20.7899     0.1124 
 7616.0000    23.9086     0.1155 
 7616.5000    12.9820     0.1034 
 7617.0000     5.7489     0.0912 
 7617.5000     0.4813     0.0201 
 7618.0000     0.0163     0.0010 
 7618.5000     2.8925     0.0193 
 7619.0000    34.6151     0.1234 
 7619.5000   123.2186     0.1482 
 7620.0000   294.1349     0.1731 
 7620.5000   170.8538     0.1549 
 7621.0000    75.6459     0.1367 
 7621.5000    49.3591     0.1276 
 7622.0000    34.1570     0.1185 
 7622.5000    23.3983     0.1099 
 7623.0000    14.9534     0.1014 
 7623.5000     4.8708     0.0759 
 7624.0000     0.9833     0.0504 
 7624.5000     0.5999     0.0420 
 7625.0000     0.3470     0.0336 
 7625.5000     0.4786     0.0391 
 7626.0000     0.6344     0.0446 
 7626.5000     1.0427     0.0548 
 7627.0000     1.5403     0.0651 
 7627.5000     1.4678     0.0725 
 7628.0000     0.1532     0.0091 
 7628.5000     0.0023     0.0023 
 7629.0000     0.0002     0.0005 
 7629.5000     0.0000     0.0003 
 7630.0000     0.0000     0.0001 
 7630.5000     0.0000     0.0000 
 7631.0000     0.0000     0.0000 
