~Version Information
 VERS.                  2.0:   CWLS log ASCII Standard -VERSION 2.0
 WRAP.                   NO:   One line per depth step
~Well Information Block
#MNEM.UNIT       Data Type    Information
#---------     -----------    ---------------------------
 STRT.F              7958.5000:
 STOP.F              9186.0000:
 STEP.F                 0.5000:
 NULL.               -999.2500:
 UWI .                CASN0032:  UWI
 API .                CASN0032:  UWI
 WELL.                 CASN-32:  COMMON WELL NAME
 COMP.               ECOPETROL:  WELL OPERATOR
 FLD .                CASTILLA:  FIELD
 LIC .                 UNKNOWN:  AUTHORIZATION NO
 LOC .                     LLA:  BASIN
 CTRY.                COLOMBIA:  COUNTRY
 STAT.                    META:  STATE
 CNTY.       CASTILLA_LA_NUEVA:  COUNTY
 PROV.                    META:  STATE
 SRVC.                 UNKNOWN:  COMPANY
 DATE.                 UNKNOWN:  LOG RUN DATE
 LONG.           -73.616332248:  LONGITUDE
 LATI.             3.893579824:  LATITUDE
 XCOORD.          1051220.7500:  X COORDINATE
 YCOORD.           922317.9375:  Y COORDINATE
 ELEV.FT             1376.0000:  ELEVATION
 TD  .FT             9217.0000:  TOTAL DEPTH
~Parameter Information Block
#MNEM.UNIT       Value        Description
#---------     -----------    ---------------------------
~Curve Information Block
#MNEM.UNIT                 API CODE     Curve Description
#---------               -----------    ---------------------------
 DEPTH.F                00 000 000 000:  Index Curve
 2019_pPerm_ANS.MD          00 000 000 000:  
 2019_pPhieE_D_ANS.V/V         00 000 000 000:  
~A DEPTH     2019_pPerm_ANS 2019_pPhieE_D_ANS
 7958.5000     0.1568     0.0283 
 7959.0000     0.5725     0.0370 
 7959.5000     3.4737     0.0627 
 7960.0000     7.2057     0.0751 
 7960.5000    11.2941     0.0873 
 7961.0000     4.1955     0.0632 
 7961.5000     2.8534     0.0619 
 7962.0000     1.1965     0.0428 
 7962.5000     1.7690     0.0569 
 7963.0000     0.2587     0.0041 
 7963.5000     0.0001     0.0055 
 7964.0000     0.0002     0.0070 
 7964.5000     0.0004     0.0120 
 7965.0000     0.0002     0.0081 
 7965.5000     0.0000     0.0031 
 7966.0000     0.0000     0.0006 
 7966.5000     0.0000     0.0002 
 7967.0000     0.0000     0.0001 
 7967.5000     0.0000     0.0000 
 7968.0000     0.0000     0.0000 
 7968.5000     0.0000     0.0000 
 7969.0000     0.0000     0.0001 
 7969.5000     0.0000     0.0001 
 7970.0000     0.0000     0.0000 
 7970.5000     0.0000     0.0000 
 7971.0000     0.0000     0.0000 
 7971.5000     0.0000     0.0000 
 7972.0000     0.0000     0.0000 
 7972.5000     0.0000     0.0000 
 7973.0000     0.0000     0.0000 
 7973.5000     0.0000     0.0000 
 7974.0000     0.0000     0.0000 
 7974.5000     0.0000     0.0001 
 7975.0000     0.0115     0.0008 
 7975.5000     0.9830     0.0288 
 7976.0000     5.8343     0.0732 
 7976.5000     8.8883     0.0748 
 7977.0000    20.6504     0.0941 
 7977.5000    49.1558     0.1065 
 7978.0000   115.3479     0.1294 
 7978.5000    42.9703     0.1037 
 7979.0000     2.7153     0.0589 
 7979.5000     0.5839     0.0375 
 7980.0000     0.0069     0.0193 
 7980.5000     0.0007     0.0159 
 7981.0000     0.0000     0.0020 
 7981.5000     0.0001     0.0059 
 7982.0000     0.0000     0.0029 
 7982.5000     0.0001     0.0057 
 7983.0000     0.0001     0.0057 
 7983.5000     0.0002     0.0051 
 7984.0000     0.2538     0.0166 
 7984.5000     1.7618     0.0561 
 7985.0000     1.0205     0.0451 
 7985.5000     0.1029     0.0001 
 7986.0000     0.0000     0.0001 
 7986.5000     0.0000     0.0001 
 7987.0000     0.0000     0.0001 
 7987.5000     0.0000     0.0001 
 7988.0000     0.0000     0.0001 
 7988.5000     0.0000     0.0001 
 7989.0000     0.0000     0.0001 
 7989.5000     0.0002     0.0001 
 7990.0000     0.1141     0.0215 
 7990.5000     0.2225     0.0277 
 7991.0000     0.3600     0.0274 
 7991.5000     1.2882     0.0463 
 7992.0000     8.7155     0.0712 
 7992.5000    45.3275     0.1016 
 7993.0000   241.9902     0.1443 
 7993.5000   405.5208     0.1567 
 7994.0000   329.4108     0.1504 
 7994.5000   231.2994     0.1439 
 7995.0000    88.2496     0.1195 
 7995.5000    27.6235     0.0950 
 7996.0000    18.1862     0.0885 
 7996.5000    41.4265     0.1070 
 7997.0000    74.6027     0.1196 
 7997.5000    99.0607     0.1261 
 7998.0000   102.3376     0.1262 
 7998.5000    76.6912     0.1204 
 7999.0000    45.2329     0.1085 
 7999.5000    89.9895     0.1203 
 8000.0000   187.0404     0.1385 
 8000.5000   230.2052     0.1388 
 8001.0000   431.8817     0.1569 
 8001.5000   399.1877     0.1569 
 8002.0000   196.6166     0.1387 
 8002.5000   172.5930     0.1206 
 8003.0000   525.8621     0.1629 
 8003.5000   432.5119     0.1569 
 8004.0000   292.2418     0.1450 
 8004.5000   464.7184     0.1573 
 8005.0000   760.8367     0.1693 
 8005.5000   918.7180     0.1755 
 8006.0000   486.4999     0.1571 
 8006.5000   205.6664     0.1390 
 8007.0000    95.7223     0.1207 
 8007.5000    78.7572     0.1205 
 8008.0000    84.0447     0.1209 
 8008.5000   109.9434     0.1268 
 8009.0000   238.1940     0.1387 
 8009.5000   566.3594     0.1629 
 8010.0000   612.4855     0.1631 
 8010.5000   769.2640     0.1693 
 8011.0000   430.1874     0.1568 
 8011.5000    68.3798     0.1144 
 8012.0000    12.1286     0.0599 
 8012.5000     5.6599     0.0719 
 8013.0000     6.2404     0.0720 
 8013.5000     9.2673     0.0779 
 8014.0000    28.3116     0.0959 
 8014.5000    69.5091     0.1202 
 8015.0000    58.3790     0.1136 
 8015.5000    55.7593     0.1129 
 8016.0000    78.0992     0.1175 
 8016.5000   155.8588     0.1365 
 8017.0000   157.3057     0.1361 
 8017.5000    72.4426     0.1171 
 8018.0000    10.8117     0.0737 
 8018.5000     2.6056     0.0550 
 8019.0000     1.3740     0.0491 
 8019.5000     1.3876     0.0496 
 8020.0000     1.4952     0.0503 
 8020.5000     2.7321     0.0620 
 8021.0000     2.1874     0.0562 
 8021.5000     3.0149     0.0619 
 8022.0000     3.1929     0.0624 
 8022.5000     1.8030     0.0498 
 8023.0000     2.1465     0.0552 
 8023.5000     3.7097     0.0674 
 8024.0000     2.3287     0.0552 
 8024.5000     2.9124     0.0613 
 8025.0000     3.0358     0.0619 
 8025.5000     2.1613     0.0558 
 8026.0000     1.4238     0.0497 
 8026.5000     0.9650     0.0439 
 8027.0000     1.0622     0.0436 
 8027.5000     2.0994     0.0558 
 8028.0000     2.9735     0.0617 
 8028.5000     3.1375     0.0618 
 8029.0000     2.7997     0.0619 
 8029.5000     1.0065     0.0436 
 8030.0000     0.9699     0.0434 
 8030.5000     1.4204     0.0501 
 8031.0000     1.3169     0.0497 
 8031.5000     0.8854     0.0435 
 8032.0000     0.5828     0.0370 
 8032.5000     0.5065     0.0367 
 8033.0000     0.3401     0.0310 
 8033.5000     0.3712     0.0304 
 8034.0000     1.2284     0.0509 
 8034.5000     0.8638     0.0430 
 8035.0000     0.6474     0.0424 
 8035.5000     1.9118     0.0548 
 8036.0000     2.6161     0.0609 
 8036.5000     1.3999     0.0486 
 8037.0000     0.5814     0.0368 
 8037.5000     0.4066     0.0308 
 8038.0000     1.5511     0.0427 
 8038.5000     7.8431     0.0792 
 8039.0000     9.1458     0.0806 
 8039.5000     3.7454     0.0622 
 8040.0000     0.2460     0.0280 
 8040.5000     0.0170     0.0140 
 8041.0000     0.0005     0.0127 
 8041.5000     0.0004     0.0111 
 8042.0000     0.0008     0.0167 
 8042.5000     0.0132     0.0124 
 8043.0000     0.1706     0.0254 
 8043.5000     3.0431     0.0583 
 8044.0000     7.6940     0.0780 
 8044.5000     5.6730     0.0668 
 8045.0000     9.0503     0.0800 
 8045.5000     9.8082     0.0828 
 8046.0000     4.6949     0.0675 
 8046.5000     1.1326     0.0062 
 8047.0000     3.2128     0.0667 
 8047.5000     0.5930     0.0305 
 8048.0000     0.0818     0.0266 
 8048.5000     0.0091     0.0196 
 8049.0000     0.0004     0.0104 
 8049.5000     0.0002     0.0079 
 8050.0000     0.0001     0.0032 
 8050.5000     0.0000     0.0016 
 8051.0000     0.0000     0.0023 
 8051.5000     0.0000     0.0024 
 8052.0000     0.0001     0.0057 
 8052.5000     0.0003     0.0095 
 8053.0000     0.8501     0.0135 
 8053.5000     5.2991     0.0700 
 8054.0000    11.5098     0.0854 
 8054.5000    13.1547     0.0856 
 8055.0000    15.5825     0.0919 
 8055.5000     8.4401     0.0745 
 8056.0000    13.5254     0.0868 
 8056.5000    18.7173     0.0932 
 8057.0000    18.3461     0.0928 
 8057.5000    13.4319     0.0867 
 8058.0000     7.5612     0.0745 
 8058.5000     7.1730     0.0744 
 8059.0000     9.0995     0.0805 
 8059.5000     8.3044     0.0745 
 8060.0000    13.4187     0.0871 
 8060.5000    12.7229     0.0869 
 8061.0000     7.1404     0.0750 
 8061.5000     3.9128     0.0628 
 8062.0000     3.1623     0.0620 
 8062.5000     2.9241     0.0552 
 8063.0000     6.1625     0.0732 
 8063.5000     2.2788     0.0492 
 8064.0000     2.0601     0.0558 
 8064.5000     1.4981     0.0505 
 8065.0000     0.9833     0.0448 
 8065.5000     0.7795     0.0385 
 8066.0000     1.2424     0.0501 
 8066.5000     0.3803     0.0257 
 8067.0000     0.3242     0.0320 
 8067.5000     0.3483     0.0323 
 8068.0000     0.3153     0.0322 
 8068.5000     0.1332     0.0200 
 8069.0000     0.1595     0.0258 
 8069.5000     0.0927     0.0194 
 8070.0000     0.0406     0.0134 
 8070.5000     0.0182     0.0077 
 8071.0000     0.0669     0.0198 
 8071.5000     0.0128     0.0073 
 8072.0000     0.0073     0.0011 
 8072.5000     0.0344     0.0131 
 8073.0000     0.0291     0.0131 
 8073.5000     0.0006     0.0008 
 8074.0000     0.0004     0.0015 
 8074.5000     0.0006     0.0018 
 8075.0000     0.0064     0.0001 
 8075.5000     0.0406     0.0139 
 8076.0000     0.0689     0.0195 
