~Version Information
 VERS.                  2.0:   CWLS log ASCII Standard -VERSION 2.0
 WRAP.                   NO:   One line per depth step
~Well Information Block
#MNEM.UNIT       Data Type    Information
#---------     -----------    ---------------------------
 STRT.F              8011.0000:
 STOP.F              9260.0000:
 STEP.F                 0.5000:
 NULL.               -999.2500:
 UWI .                CASN0030:  UWI
 API .                CASN0030:  UWI
 WELL.                 CASN-30:  COMMON WELL NAME
 COMP.               ECOPETROL:  WELL OPERATOR
 FLD .                CASTILLA:  FIELD
 LIC .                 UNKNOWN:  AUTHORIZATION NO
 LOC .                     LLA:  BASIN
 CTRY.                COLOMBIA:  COUNTRY
 STAT.                    META:  STATE
 CNTY.       CASTILLA_LA_NUEVA:  COUNTY
 PROV.                    META:  STATE
 SRVC.                 UNKNOWN:  COMPANY
 DATE.                 UNKNOWN:  LOG RUN DATE
 LONG.           -73.616480936:  LONGITUDE
 LATI.             3.893355943:  LATITUDE
 XCOORD.          1051204.2500:  X COORDINATE
 YCOORD.           922293.1875:  Y COORDINATE
 ELEV.FT             1376.0000:  ELEVATION
 TD  .FT             9235.0000:  TOTAL DEPTH
~Parameter Information Block
#MNEM.UNIT       Value        Description
#---------     -----------    ---------------------------
~Curve Information Block
#MNEM.UNIT                 API CODE     Curve Description
#---------               -----------    ---------------------------
 DEPTH.F                00 000 000 000:  Index Curve
 2019_pPerm_ANS.MD          00 000 000 000:  
 2019_pPhieE_D_ANS.V/V         00 000 000 000:  
~A DEPTH     2019_pPerm_ANS 2019_pPhieE_D_ANS
# ...
 8129.0000     0.2663     0.0293 
 8129.5000     0.1474     0.0236 
 8130.0000     0.0191     0.0209 
 8130.5000     0.0002     0.0011 
 8131.0000     0.0000     0.0002 
 8131.5000     0.0000     0.0000 
 8132.0000     0.0000     0.0000 
 8132.5000     0.0000     0.0000 
 8133.0000     0.0000     0.0000 
 8133.5000     0.0000     0.0000 
 8134.0000     0.0000     0.0000 
 8134.5000     0.0000     0.0000 
 8135.0000     0.0000     0.0002 
 8135.5000     0.0123     0.0044 
 8136.0000   393.1628     0.0721 
 8136.5000  2405.8140     0.1942 
 8137.0000  5007.8496     0.2150 
 8137.5000  4416.1387     0.2093 
 8138.0000  2088.8137     0.1888 
 8138.5000   779.8903     0.1678 
 8139.0000   226.7440     0.1352 
 8139.5000    39.0103     0.0992 
 8140.0000     7.5023     0.0647 
 8140.5000     6.2856     0.0759 
 8141.0000     0.9049     0.0220 
 8141.5000     0.0003     0.0071 
 8142.0000     0.0143     0.0067 
 8142.5000  2814.9578     0.0314 
 8143.0000 17887.4629     0.2433 
 8143.5000 20000.0000     0.2465 
 8144.0000 20000.0000     0.2502 
 8144.5000 20000.0000     0.2582 
 8145.0000 20000.0000     0.2593 
 8145.5000 20000.0000     0.2556 
 8146.0000 20000.0000     0.2511 
 8146.5000 20000.0000     0.2474 
 8147.0000 19161.9180     0.2440 
 8147.5000 14623.3838     0.2375 
 8148.0000  9772.0215     0.2278 
 8148.5000  4873.2617     0.2101 
 8149.0000  1320.3175     0.1772 
 8149.5000   275.4793     0.1349 
 8150.0000    36.5711     0.0966 
 8150.5000    12.0821     0.0818 
 8151.0000     9.0867     0.0789 
 8151.5000     7.8987     0.0775 
 8152.0000     4.7257     0.0662 
 8152.5000     3.8690     0.0642 
 8153.0000     5.1576     0.0674 
 8153.5000     9.5883     0.0796 
 8154.0000    19.8985     0.0902 
 8154.5000    42.9550     0.1082 
 8155.0000    55.6669     0.1142 
 8155.5000    54.4226     0.1129 
 8156.0000    33.6244     0.1017 
 8156.5000    23.5661     0.0965 
 8157.0000    21.4055     0.0944 
 8157.5000    20.9247     0.0941 
 8158.0000    26.5251     0.0981 
 8158.5000    38.5454     0.1046 
 8159.0000   110.9677     0.1219 
 8159.5000   371.5027     0.1482 
 8160.0000  1681.3552     0.1815 
 8160.5000  4987.9097     0.2105 
 8161.0000 10581.9717     0.2295 
 8161.5000 16040.1465     0.2404 
 8162.0000 17993.2578     0.2422 
 8162.5000 19538.4473     0.2445 
 8163.0000 19830.3789     0.2448 
 8163.5000 17502.3516     0.2427 
 8164.0000 11225.4375     0.2306 
 8164.5000  6745.2417     0.2167 
 8165.0000  5236.5054     0.2120 
 8165.5000  8142.0806     0.2235 
 8166.0000 10983.8105     0.2305 
 8166.5000 12155.6621     0.2344 
 8167.0000 10047.8838     0.2283 
 8167.5000  8357.4688     0.2261 
 8168.0000  3477.0071     0.2025 
 8168.5000   873.3068     0.1577 
 8169.0000   167.1172     0.1321 
 8169.5000   400.4890     0.1433 
 8170.0000  1592.0531     0.1826 
 8170.5000  4823.1836     0.2101 
 8171.0000  9393.3613     0.2262 
 8171.5000 15507.1680     0.2393 
 8172.0000 19399.6680     0.2448 
 8172.5000 19494.9961     0.2446 
 8173.0000 16817.7324     0.2409 
 8173.5000 12603.9688     0.2344 
 8174.0000  5657.0601     0.2127 
 8174.5000   879.9364     0.1631 
 8175.0000   111.2233     0.0983 
 8175.5000     1.8348     0.0401 
 8176.0000     0.1147     0.0192 
 8176.5000     0.0000     0.0008 
 8177.0000     0.0000     0.0002 
 8177.5000     0.0000     0.0000 
 8178.0000     0.0000     0.0000 
 8178.5000     0.0000     0.0000 
 8179.0000     0.0000     0.0000 
 8179.5000     0.0000     0.0000 
 8180.0000     0.0000     0.0000 
 8180.5000     0.0000     0.0001 
 8181.0000     0.0002     0.0007 
 8181.5000     0.2086     0.0209 
 8182.0000     2.4857     0.0535 
 8182.5000    10.8099     0.0777 
 8183.0000    40.4768     0.1032 
 8183.5000   114.5116     0.1286 
 8184.0000   159.4975     0.1356 
 8184.5000   123.8665     0.1289 
 8185.0000    91.0350     0.1220 
 8185.5000   114.5006     0.1256 
 8186.0000   189.2804     0.1378 
 8186.5000   326.8188     0.1502 
 8187.0000   442.1712     0.1564 
 8187.5000   496.8434     0.1594 
 8188.0000   503.2086     0.1592 
 8188.5000   471.8511     0.1578 
 8189.0000   437.0231     0.1564 
 8189.5000   302.3288     0.1479 
 8190.0000   181.6271     0.1362 
 8190.5000   183.6593     0.1351 
 8191.0000   323.0332     0.1464 
 8191.5000   882.2941     0.1711 
 8192.0000  1620.2267     0.1850 
 8192.5000  2656.1052     0.1964 
 8193.0000  3900.3682     0.2065 
 8193.5000  4106.8628     0.2092 
 8194.0000  1630.2258     0.1817 
 8194.5000   217.0950     0.1275 
 8195.0000    27.6913     0.0863 
 8195.5000     8.5168     0.0752 
 8196.0000    20.1796     0.0925 
 8196.5000    36.5785     0.1050 
 8197.0000    38.8398     0.1073 
 8197.5000    28.3952     0.0997 
 8198.0000    30.2497     0.0968 
 8198.5000    58.6167     0.1134 
 8199.0000   193.2902     0.1383 
 8199.5000   332.2341     0.1510 
 8200.0000   257.8673     0.1456 
 8200.5000   140.7984     0.1308 
 8201.0000   105.3918     0.1264 
 8201.5000    68.5403     0.1165 
 8202.0000    47.1771     0.1099 
 8202.5000    26.8643     0.0973 
 8203.0000    19.7009     0.0928 
 8203.5000    14.9502     0.0881 
 8204.0000     9.2886     0.0785 
 8204.5000     6.0096     0.0721 
 8205.0000     2.7046     0.0573 
 8205.5000     1.7996     0.0521 
 8206.0000     1.5558     0.0505 
 8206.5000     1.5549     0.0516 
 8207.0000     1.1920     0.0462 
 8207.5000     2.2301     0.0560 
 8208.0000     3.3314     0.0620 
 8208.5000     5.7043     0.0734 
 8209.0000     4.2538     0.0662 
 8209.5000     0.7228     0.0086 
 8210.0000     0.1089     0.0201 
 8210.5000     0.4272     0.0330 
 8211.0000     0.9064     0.0441 
 8211.5000     0.9057     0.0440 
 8212.0000     0.6997     0.0403 
 8212.5000     0.7566     0.0339 
 8213.0000     2.0586     0.0583 
 8213.5000     0.3234     0.0106 
 8214.0000     0.0001     0.0052 
 8214.5000     0.0001     0.0046 
 8215.0000     0.0000     0.0016 
 8215.5000     0.0000     0.0009 
 8216.0000     0.0000     0.0002 
 8216.5000     0.0000     0.0002 
 8217.0000     0.0000     0.0001 
 8217.5000     0.0000     0.0003 
 8218.0000     0.0000     0.0005 
 8218.5000     0.0000     0.0019 
 8219.0000     0.0000     0.0027 
 8219.5000     0.0000     0.0036 
 8220.0000     0.0000     0.0026 
 8220.5000     0.0000     0.0019 
 8221.0000     0.0000     0.0015 
 8221.5000     0.0000     0.0010 
 8222.0000     0.0000     0.0010 
 8222.5000     0.0000     0.0012 
 8223.0000     0.0000     0.0010 
 8223.5000     0.0000     0.0010 
 8224.0000     0.0000     0.0008 
 8224.5000     0.0000     0.0005 
 8225.0000     0.0000     0.0006 
 8225.5000     0.0000     0.0004 
 8226.0000     0.0000     0.0008 
 8226.5000     0.0000     0.0008 
 8227.0000     0.0000     0.0007 
 8227.5000     0.0000     0.0006 
 8228.0000     0.0000     0.0005 
 8228.5000     0.0000     0.0006 
 8229.0000     0.0000     0.0008 
 8229.5000     0.0002     0.0051 
 8230.0000     0.0003     0.0102 
 8230.5000     0.0004     0.0130 
 8231.0000     0.0001     0.0060 
 8231.5000     0.0000     0.0027 
 8232.0000     0.0001     0.0042 
 8232.5000     0.0000     0.0027 
 8233.0000     0.0003     0.0077 
 8233.5000     0.4827     0.0177 
 8234.0000     3.7431     0.0631 
 8234.5000     8.2623     0.0783 
 8235.0000     9.2767     0.0798 
 8235.5000     8.1117     0.0765 
 8236.0000     6.9218     0.0764 
 8236.5000     1.5543     0.0454 
 8237.0000     0.2622     0.0271 
 8237.5000     2.3307     0.0356 
 8238.0000    29.5605     0.1045 
 8238.5000    31.2152     0.1013 
 8239.0000    53.5211     0.1104 
 8239.5000    97.6978     0.1247 
 8240.0000    60.2369     0.1147 
 8240.5000    25.5320     0.0978 
 8241.0000    10.6484     0.0793 
 8241.5000     3.0730     0.0593 
 8242.0000     2.9135     0.0589 
 8242.5000     4.4622     0.0659 
 8243.0000     8.0148     0.0790 
 8243.5000     6.0425     0.0728 
 8244.0000     0.9435     0.0279 
 8244.5000     0.0122     0.0033 
 8245.0000     0.0000     0.0018 
 8245.5000     0.0000     0.0013 
 8246.0000     0.0000     0.0006 
 8246.5000     0.0000     0.0003 
