~Version Information
 VERS.                  2.0:   CWLS log ASCII Standard -VERSION 2.0
 WRAP.                   NO:   One line per depth step
~Well Information Block
#MNEM.UNIT       Data Type    Information
#---------     -----------    ---------------------------
 STRT.F              7958.5000:
 STOP.F              9186.0000:
 STEP.F                 0.5000:
 NULL.               -999.2500:
 UWI .                CASN0032:  UWI
 API .                CASN0032:  UWI
 WELL.                 CASN-32:  COMMON WELL NAME
 COMP.               ECOPETROL:  WELL OPERATOR
 FLD .                CASTILLA:  FIELD
 LIC .                 UNKNOWN:  AUTHORIZATION NO
 LOC .                     LLA:  BASIN
 CTRY.                COLOMBIA:  COUNTRY
 STAT.                    META:  STATE
 CNTY.       CASTILLA_LA_NUEVA:  COUNTY
 PROV.                    META:  STATE
 SRVC.                 UNKNOWN:  COMPANY
 DATE.                 UNKNOWN:  LOG RUN DATE
 LONG.           -73.616332248:  LONGITUDE
 LATI.             3.893579824:  LATITUDE
 XCOORD.          1051220.7500:  X COORDINATE
 YCOORD.           922317.9375:  Y COORDINATE
 ELEV.FT             1376.0000:  ELEVATION
 TD  .FT             9217.0000:  TOTAL DEPTH
~Parameter Information Block
#MNEM.UNIT       Value        Description
#---------     -----------    ---------------------------
~Curve Information Block
#MNEM.UNIT                 API CODE     Curve Description
#---------               -----------    ---------------------------
 DEPTH.F                00 000 000 000:  Index Curve
 2019_pPerm_ANS.MD          00 000 000 000:  
 2019_pPhieE_D_ANS.V/V         00 000 000 000:  
~A DEPTH     2019_pPerm_ANS 2019_pPhieE_D_ANS
# ...
 8312.5000     0.1097     0.0116 
 8313.0000     0.0076     0.0035 
 8313.5000     0.0012     0.0004 
 8314.0000     0.0000     0.0001 
 8314.5000     0.0000     0.0001 
 8315.0000     0.0000     0.0001 
 8315.5000     0.0000     0.0000 
 8316.0000     0.0000     0.0002 
 8316.5000     0.0003     0.0006 
 8317.0000     0.0002     0.0004 
 8317.5000     0.0000     0.0000 
 8318.0000     0.0000     0.0000 
 8318.5000     0.0000     0.0000 
 8319.0000     0.0000     0.0000 
 8319.5000     0.0000     0.0000 
 8320.0000     0.0000     0.0000 
 8320.5000     0.0000     0.0000 
 8321.0000     0.0000     0.0000 
 8321.5000     0.0001     0.0004 
 8322.0000     0.0001     0.0002 
 8322.5000     0.0000     0.0000 
 8323.0000     0.0001     0.0004 
 8323.5000     0.0000     0.0000 
 8324.0000     0.0000     0.0000 
 8324.5000     0.0000     0.0000 
 8325.0000     0.0000     0.0000 
 8325.5000     0.0000     0.0000 
 8326.0000     0.0000     0.0000 
 8326.5000     0.0000     0.0000 
 8327.0000     0.0000     0.0001 
 8327.5000     0.0000     0.0001 
 8328.0000     0.0000     0.0000 
 8328.5000     0.0000     0.0000 
 8329.0000     0.0000     0.0001 
 8329.5000     0.0000     0.0001 
 8330.0000     0.0000     0.0000 
 8330.5000     0.0000     0.0000 
 8331.0000     0.0000     0.0000 
 8331.5000     0.0000     0.0000 
 8332.0000     0.0003     0.0002 
 8332.5000     0.0210     0.0030 
 8333.0000     0.1238     0.0158 
 8333.5000     1.6873     0.0525 
 8334.0000     2.9112     0.0628 
 8334.5000     1.5856     0.0503 
 8335.0000     0.3682     0.0265 
 8335.5000     0.1077     0.0115 
 8336.0000     0.2382     0.0162 
 8336.5000     1.3396     0.0537 
 8337.0000     0.2233     0.0065 
 8337.5000     0.2208     0.0256 
 8338.0000     0.0659     0.0069 
 8338.5000     0.1023     0.0174 
 8339.0000     0.0221     0.0035 
 8339.5000     0.0009     0.0005 
 8340.0000     0.0000     0.0002 
 8340.5000     0.0000     0.0000 
 8341.0000     0.0000     0.0001 
 8341.5000     0.0000     0.0001 
 8342.0000     0.0000     0.0001 
 8342.5000     0.0000     0.0000 
 8343.0000     0.0000     0.0000 
 8343.5000     0.0000     0.0000 
 8344.0000     0.0000     0.0000 
 8344.5000     0.0000     0.0000 
 8345.0000     0.0001     0.0001 
 8345.5000     0.0002     0.0004 
 8346.0000     0.0002     0.0006 
 8346.5000     0.0001     0.0002 
 8347.0000     0.0002     0.0004 
 8347.5000     0.0001     0.0003 
 8348.0000     0.0003     0.0005 
 8348.5000     0.0005     0.0007 
 8349.0000     0.0001     0.0003 
 8349.5000     0.0002     0.0003 
 8350.0000     0.0005     0.0007 
 8350.5000     0.0003     0.0006 
 8351.0000     0.0002     0.0002 
 8351.5000     0.0006     0.0008 
 8352.0000     0.0012     0.0013 
 8352.5000     0.0005     0.0006 
 8353.0000     0.0005     0.0007 
 8353.5000     0.0013     0.0012 
 8354.0000     0.0032     0.0022 
 8354.5000     0.0145     0.0060 
 8355.0000     0.0130     0.0050 
 8355.5000     0.0135     0.0056 
 8356.0000     0.0059     0.0030 
 8356.5000     0.0055     0.0035 
 8357.0000     0.0008     0.0006 
 8357.5000     0.0009     0.0006 
 8358.0000     0.0045     0.0028 
 8358.5000     0.0158     0.0040 
 8359.0000     0.0613     0.0124 
 8359.5000     0.0688     0.0135 
 8360.0000     0.0186     0.0046 
 8360.5000     0.0044     0.0022 
 8361.0000     0.0065     0.0037 
 8361.5000     0.0050     0.0029 
 8362.0000     0.0047     0.0027 
 8362.5000     0.0059     0.0034 
 8363.0000     0.0033     0.0014 
 8363.5000     0.0076     0.0038 
 8364.0000     0.0048     0.0028 
 8364.5000     0.0020     0.0017 
 8365.0000     0.0021     0.0013 
 8365.5000     0.0059     0.0032 
 8366.0000     0.0128     0.0051 
 8366.5000     0.0206     0.0064 
 8367.0000     0.0417     0.0104 
 8367.5000     0.0379     0.0092 
 8368.0000     0.0307     0.0075 
 8368.5000     0.0479     0.0103 
 8369.0000     0.0673     0.0135 
 8369.5000     0.0299     0.0072 
 8370.0000     0.0171     0.0056 
 8370.5000     0.0176     0.0063 
 8371.0000     0.0110     0.0046 
 8371.5000     0.0037     0.0019 
 8372.0000     0.0033     0.0024 
 8372.5000     0.0026     0.0021 
 8373.0000     0.0010     0.0010 
 8373.5000     0.0019     0.0020 
 8374.0000     0.0005     0.0006 
 8374.5000     0.0029     0.0018 
 8375.0000     0.0084     0.0040 
 8375.5000     0.0046     0.0018 
 8376.0000     0.0110     0.0046 
 8376.5000     0.0198     0.0074 
 8377.0000     0.0046     0.0023 
 8377.5000     0.0015     0.0013 
 8378.0000     0.0002     0.0003 
 8378.5000     0.0003     0.0005 
 8379.0000     0.0014     0.0013 
 8379.5000     0.0037     0.0027 
 8380.0000     0.0039     0.0018 
 8380.5000     0.0120     0.0054 
 8381.0000     0.0053     0.0026 
 8381.5000     0.0031     0.0020 
 8382.0000     0.0047     0.0032 
 8382.5000     0.0010     0.0009 
 8383.0000     0.0001     0.0002 
 8383.5000     0.0003     0.0002 
 8384.0000     0.0077     0.0027 
 8384.5000     0.0312     0.0079 
 8385.0000     0.1447     0.0180 
 8385.5000     0.2814     0.0250 
 8386.0000     0.1365     0.0156 
 8386.5000     0.1171     0.0168 
 8387.0000     0.0291     0.0051 
 8387.5000     0.0034     0.0021 
 8388.0000     0.0027     0.0020 
 8388.5000     0.0030     0.0022 
 8389.0000     0.0019     0.0016 
 8389.5000     0.0014     0.0013 
 8390.0000     0.0014     0.0014 
 8390.5000     0.0008     0.0009 
 8391.0000     0.0012     0.0009 
 8391.5000     0.0044     0.0031 
 8392.0000     0.0028     0.0020 
 8392.5000     0.0011     0.0010 
 8393.0000     0.0016     0.0008 
 8393.5000     0.0120     0.0052 
 8394.0000     0.0175     0.0058 
 8394.5000     0.0318     0.0095 
 8395.0000     0.0140     0.0051 
 8395.5000     0.0313     0.0080 
 8396.0000     0.0577     0.0115 
 8396.5000     0.0166     0.0043 
 8397.0000     0.0043     0.0026 
 8397.5000     0.0052     0.0033 
 8398.0000     0.0030     0.0018 
 8398.5000     0.0096     0.0048 
 8399.0000     0.0095     0.0035 
 8399.5000     0.0277     0.0086 
 8400.0000     0.0220     0.0065 
 8400.5000     0.0262     0.0071 
 8401.0000     0.0427     0.0102 
 8401.5000     0.0411     0.0093 
 8402.0000     0.0492     0.0110 
 8402.5000     0.0418     0.0094 
 8403.0000     0.0457     0.0103 
 8403.5000     0.0447     0.0104 
 8404.0000     0.0131     0.0039 
 8404.5000     0.0009     0.0008 
 8405.0000     0.0009     0.0012 
 8405.5000     0.0004     0.0005 
 8406.0000     0.0050     0.0035 
 8406.5000     0.0021     0.0018 
 8407.0000     0.0009     0.0009 
 8407.5000     0.0017     0.0012 
 8408.0000     0.0138     0.0064 
 8408.5000     0.0029     0.0016 
 8409.0000     0.0005     0.0004 
 8409.5000     0.0001     0.0003 
 8410.0000     0.0005     0.0005 
 8410.5000     0.0020     0.0019 
 8411.0000     0.0012     0.0013 
 8411.5000     0.0003     0.0004 
 8412.0000     0.0000     0.0001 
 8412.5000     0.0001     0.0003 
 8413.0000     0.0001     0.0002 
 8413.5000     0.0000     0.0000 
 8414.0000     0.0000     0.0001 
 8414.5000     0.0000     0.0001 
 8415.0000     0.0000     0.0001 
 8415.5000     0.0000     0.0001 
 8416.0000     0.0000     0.0002 
 8416.5000     0.0002     0.0003 
 8417.0000     0.0006     0.0009 
 8417.5000     0.0013     0.0015 
 8418.0000     0.0008     0.0010 
 8418.5000     0.0004     0.0005 
 8419.0000     0.0004     0.0005 
 8419.5000     0.0010     0.0013 
 8420.0000     0.0002     0.0003 
 8420.5000     0.0002     0.0005 
 8421.0000     0.0004     0.0007 
 8421.5000     0.0002     0.0004 
 8422.0000     0.0001     0.0003 
 8422.5000     0.0001     0.0003 
 8423.0000     0.0003     0.0006 
 8423.5000     0.0002     0.0002 
 8424.0000     0.0013     0.0014 
 8424.5000     0.0022     0.0019 
 8425.0000     0.0013     0.0012 
 8425.5000     0.0014     0.0013 
 8426.0000     0.0050     0.0025 
 8426.5000     0.0130     0.0051 
 8427.0000     0.0125     0.0052 
 8427.5000     0.0078     0.0038 
 8428.0000     0.0028     0.0017 
 8428.5000     0.0009     0.0009 
 8429.0000     0.0041     0.0032 
 8429.5000     0.0006     0.0005 
 8430.0000     0.0001     0.0002 
