~Version Information
 VERS.                  2.0:   CWLS log ASCII Standard -VERSION 2.0
 WRAP.                   NO:   One line per depth step
~Well Information Block
#MNEM.UNIT       Data Type    Information
#---------     -----------    ---------------------------
 STRT.F              7159.5000:
 STOP.F              8265.0000:
 STEP.F                 0.5000:
 NULL.               -999.2500:
 UWI .                CASN0033:  UWI
 API .                CASN0033:  UWI
 WELL.                 CASN-33:  COMMON WELL NAME
 COMP.               ECOPETROL:  WELL OPERATOR
 FLD .                CASTILLA:  FIELD
 LIC .                 UNKNOWN:  AUTHORIZATION NO
 LOC .                     LLA:  BASIN
 CTRY.                COLOMBIA:  COUNTRY
 STAT.                    META:  STATE
 CNTY.       CASTILLA_LA_NUEVA:  COUNTY
 PROV.                    META:  STATE
 SRVC.                 UNKNOWN:  COMPANY
 DATE.                 UNKNOWN:  LOG RUN DATE
 LONG.           -73.616507528:  LONGITUDE
 LATI.             3.893623539:  LATITUDE
 XCOORD.          1051201.2500:  X COORDINATE
 YCOORD.           922322.7500:  Y COORDINATE
 ELEV.FT             1376.0000:  ELEVATION
 TD  .FT             8280.0000:  TOTAL DEPTH
~Parameter Information Block
#MNEM.UNIT       Value        Description
#---------     -----------    ---------------------------
~Curve Information Block
#MNEM.UNIT                 API CODE     Curve Description
#---------               -----------    ---------------------------
 DEPTH.F                00 000 000 000:  Index Curve
 2019_pPerm_ANS.MD          00 000 000 000:  
 2019_pPhieE_D_ANS.V/V         00 000 000 000:  
~A DEPTH     2019_pPerm_ANS 2019_pPhieE_D_ANS
# ...
 7985.5000  4782.0259     0.2129 
 7986.0000  4524.8267     0.2106 
 7986.5000  4493.0962     0.2111 
 7987.0000  4501.7124     0.2116 
 7987.5000  4487.4951     0.2126 
 7988.0000  4444.4414     0.2136 
 7988.5000  4301.0728     0.2126 
 7989.0000  3805.5176     0.2116 
 7989.5000  1945.8914     0.1869 
 7990.0000  1051.5468     0.1623 
 7990.5000   728.9000     0.1552 
 7991.0000   815.0744     0.1481 
 7991.5000  2050.8015     0.1870 
 7992.0000  5443.4214     0.2258 
 7992.5000  5844.5566     0.2229 
 7993.0000  5483.2300     0.2200 
 7993.5000  4812.8086     0.2155 
 7994.0000  4060.4375     0.2110 
 7994.5000  2842.5989     0.1995 
 7995.0000  1942.6073     0.1879 
 7995.5000  1549.7417     0.1819 
 7996.0000  1318.0194     0.1760 
 7996.5000  1478.2090     0.1810 
 7997.0000  1784.4910     0.1859 
 7997.5000  2988.4158     0.2031 
 7998.0000  4661.2119     0.2202 
 7998.5000  4271.5039     0.2160 
 7999.0000  3770.4458     0.2117 
 7999.5000  3008.4421     0.2037 
 8000.0000  2350.0979     0.1957 
 8000.5000  2342.3049     0.1961 
 8001.0000  2315.5964     0.1966 
 8001.5000  1732.9705     0.1944 
 8002.0000  1242.5520     0.1922 
 8002.5000   701.8099     0.1867 
 8003.0000   144.6528     0.0159 
 8003.5000  1087.2900     0.1922 
 8004.0000  2409.4436     0.2032 
 8004.5000  3530.7424     0.2100 
 8005.0000  4741.6934     0.2167 
 8005.5000  4822.5269     0.2151 
 8006.0000  4519.1821     0.2134 
 8006.5000  3192.4131     0.2006 
 8007.0000  2166.5820     0.1879 
 8007.5000  1581.7687     0.1796 
 8008.0000  1228.7506     0.1714 
 8008.5000  1089.8525     0.1703 
 8009.0000  1112.9122     0.1691 
 8009.5000  1606.3589     0.1845 
 8010.0000  2312.1919     0.1998 
 8010.5000  2078.9524     0.1942 
 8011.0000  1658.0050     0.1887 
 8011.5000  1069.0417     0.1761 
 8012.0000   696.7931     0.1636 
 8012.5000   479.3264     0.1554 
 8013.0000   429.3758     0.1473 
 8013.5000   820.2916     0.1688 
 8014.0000  1557.0482     0.1902 
 8014.5000  1376.5853     0.1829 
 8015.0000  1155.4965     0.1756 
 8015.5000  1452.7875     0.1830 
 8016.0000  1898.1674     0.1905 
 8016.5000  2106.7139     0.1922 
 8017.0000  2229.2104     0.1939 
 8017.5000  1895.3711     0.1870 
 8018.0000  1608.3296     0.1801 
 8018.5000  1946.8314     0.1865 
 8019.0000  2418.7441     0.1930 
 8019.5000  3185.0947     0.2035 
 8020.0000  4085.3093     0.2139 
 8020.5000  3591.9070     0.2096 
 8021.0000  3109.0461     0.2054 
 8021.5000  2507.0667     0.1975 
 8022.0000  2009.3809     0.1895 
 8022.5000  2062.9575     0.1904 
 8023.0000  2153.0435     0.1914 
 8023.5000  2462.9424     0.1949 
 8024.0000  2852.0916     0.1984 
 8024.5000  3596.5984     0.2059 
 8025.0000  4318.1104     0.2134 
 8025.5000  3629.1035     0.2056 
 8026.0000  3250.3845     0.1978 
 8026.5000  5369.9370     0.2171 
 8027.0000  8549.3682     0.2363 
 8027.5000  8180.3472     0.2324 
 8028.0000  7357.3223     0.2284 
 8028.5000  7255.6621     0.2274 
 8029.0000  7343.1421     0.2264 
 8029.5000  7607.4751     0.2290 
 8030.0000  7648.1201     0.2316 
 8030.5000  6548.9927     0.2248 
 8031.0000  5522.4648     0.2180 
 8031.5000  5000.1665     0.2156 
 8032.0000  5355.6050     0.2132 
 8032.5000  8849.5342     0.2329 
 8033.0000 15031.4756     0.2527 
 8033.5000 15553.3516     0.2506 
 8034.0000 14909.0977     0.2486 
 8034.5000 14954.4834     0.2491 
 8035.0000 14176.2568     0.2495 
 8035.5000  8824.1064     0.2312 
 8036.0000  5274.0283     0.2129 
 8036.5000  4829.7368     0.2136 
 8037.0000  4845.8257     0.2143 
 8037.5000  4633.8506     0.2135 
 8038.0000  4272.2324     0.2127 
 8038.5000  2929.4377     0.1981 
 8039.0000  1900.2430     0.1834 
 8039.5000  1595.5292     0.1802 
 8040.0000  1365.1693     0.1770 
 8040.5000  1077.2981     0.1733 
 8041.0000   849.8934     0.1695 
 8041.5000  1583.5490     0.1867 
 8042.0000  2692.5132     0.2039 
 8042.5000  3878.4084     0.2116 
 8043.0000  5254.5181     0.2192 
 8043.5000  4085.9934     0.2097 
 8044.0000  3060.1877     0.2002 
 8044.5000  2504.6809     0.1956 
 8045.0000  2146.1074     0.1910 
 8045.5000  2771.7373     0.2007 
 8046.0000  3570.9448     0.2104 
 8046.5000  3730.5439     0.2122 
 8047.0000  3768.8792     0.2139 
 8047.5000  3630.2349     0.2121 
 8048.0000  3667.5298     0.2104 
 8048.5000  4788.8145     0.2203 
 8049.0000  6263.2334     0.2303 
 8049.5000  6707.6406     0.2294 
 8050.0000  6623.2773     0.2285 
 8050.5000  5226.5737     0.2192 
 8051.0000  4234.3838     0.2098 
 8051.5000  4608.3975     0.2154 
 8052.0000  5297.8521     0.2210 
 8052.5000  5486.7778     0.2204 
 8053.0000  5486.4668     0.2197 
 8053.5000  5211.2090     0.2171 
 8054.0000  5024.4604     0.2144 
 8054.5000  5428.3242     0.2193 
 8055.0000  5359.9194     0.2243 
 8055.5000  2452.5161     0.1935 
 8056.0000   953.0361     0.1627 
 8056.5000   319.5470     0.1304 
 8057.0000   112.5809     0.0981 
 8057.5000    60.1043     0.0889 
 8058.0000    37.9959     0.0797 
 8058.5000    24.8060     0.0822 
 8059.0000     4.2067     0.0093 
 8059.5000     1.9984     0.0108 
 8060.0000     2.3081     0.0125 
 8060.5000     6.0459     0.0321 
 8061.0000    29.3408     0.0677 
 8061.5000   517.3365     0.1551 
 8062.0000  1808.2975     0.2003 
 8062.5000  4468.1387     0.2186 
 8063.0000  8885.8838     0.2369 
 8063.5000  7822.6621     0.2308 
 8064.0000  6795.6938     0.2247 
 8064.5000  6364.7510     0.2235 
 8065.0000  5954.6753     0.2223 
 8065.5000  5283.0332     0.2183 
 8066.0000  4673.1465     0.2143 
 8066.5000  4314.5771     0.2118 
 8067.0000  4142.6240     0.2094 
 8067.5000  5001.2832     0.2170 
 8068.0000  5682.0576     0.2246 
 8068.5000  3603.3772     0.2070 
 8069.0000  2180.1711     0.1893 
 8069.5000  2065.0618     0.1926 
 8070.0000  2332.2603     0.1958 
 8070.5000  3317.4236     0.2077 
 8071.0000  4718.8940     0.2197 
 8071.5000  5255.8804     0.2198 
 8072.0000  5271.5347     0.2199 
 8072.5000  3912.8555     0.2073 
 8073.0000  2990.1077     0.1947 
 8073.5000  3161.1238     0.2002 
 8074.0000  3680.5632     0.2057 
 8074.5000  4276.0596     0.2098 
 8075.0000  4657.7715     0.2139 
 8075.5000  3672.8145     0.2037 
 8076.0000  2717.5168     0.1936 
 8076.5000  1997.2728     0.1856 
 8077.0000  1567.9160     0.1775 
 8077.5000  1686.5663     0.1828 
 8078.0000  1887.4767     0.1881 
 8078.5000  1825.6107     0.1865 
 8079.0000  1726.1880     0.1849 
 8079.5000  1644.3488     0.1845 
 8080.0000  1572.0035     0.1841 
 8080.5000  1540.8845     0.1842 
 8081.0000  1544.7085     0.1843 
 8081.5000  1969.7722     0.1908 
 8082.0000  2469.8110     0.1973 
 8082.5000  2055.3770     0.1911 
 8083.0000  1665.4155     0.1849 
 8083.5000  1944.1935     0.1894 
 8084.0000  2264.7310     0.1938 
 8084.5000  2788.2693     0.1993 
 8085.0000  3351.1758     0.2048 
 8085.5000  3132.3489     0.2015 
 8086.0000  2908.6230     0.1981 
 8086.5000  2970.3455     0.1994 
 8087.0000  3059.1279     0.2007 
 8087.5000  3161.5032     0.2014 
 8088.0000  3241.3545     0.2021 
 8088.5000  3143.3218     0.2009 
 8089.0000  2968.2451     0.1996 
 8089.5000  2493.9412     0.1946 
 8090.0000  2133.0662     0.1896 
 8090.5000  2248.2869     0.1932 
 8091.0000  2470.8740     0.1969 
 8091.5000  2683.3848     0.1982 
 8092.0000  2795.1150     0.1994 
 8092.5000  2421.1897     0.1934 
 8093.0000  2014.8212     0.1874 
 8093.5000  1632.4093     0.1810 
 8094.0000  1402.2113     0.1746 
 8094.5000  1488.8827     0.1784 
 8095.0000  1644.6715     0.1822 
 8095.5000  1686.7373     0.1822 
 8096.0000  1687.3230     0.1822 
 8096.5000  1625.1549     0.1810 
 8097.0000  1571.6112     0.1798 
 8097.5000  1613.9036     0.1806 
 8098.0000  1699.6198     0.1813 
 8098.5000  1903.2170     0.1851 
 8099.0000  2115.1562     0.1889 
 8099.5000  2109.2830     0.1891 
 8100.0000  2052.5312     0.1893 
 8100.5000  1881.9208     0.1874 
 8101.0000  1748.3540     0.1854 
 8101.5000  2024.6361     0.1898 
 8102.0000  2376.0049     0.1942 
 8102.5000  2685.9507     0.1977 
 8103.0000  2989.6975     0.2012 
