~Version Information
 VERS.                  2.0:   CWLS log ASCII Standard -VERSION 2.0
 WRAP.                   NO:   One line per depth step
~Well Information Block
#MNEM.UNIT       Data Type    Information
#---------     -----------    ---------------------------
 STRT.F              7958.5000:
 STOP.F              9186.0000:
 STEP.F                 0.5000:
 NULL.               -999.2500:
 UWI .                CASN0032:  UWI
 API .                CASN0032:  UWI
 WELL.                 CASN-32:  COMMON WELL NAME
 COMP.               ECOPETROL:  WELL OPERATOR
 FLD .                CASTILLA:  FIELD
 LIC .                 UNKNOWN:  AUTHORIZATION NO
 LOC .                     LLA:  BASIN
 CTRY.                COLOMBIA:  COUNTRY
 STAT.                    META:  STATE
 CNTY.       CASTILLA_LA_NUEVA:  COUNTY
 PROV.                    META:  STATE
 SRVC.                 UNKNOWN:  COMPANY
 DATE.                 UNKNOWN:  LOG RUN DATE
 LONG.           -73.616332248:  LONGITUDE
 LATI.             3.893579824:  LATITUDE
 XCOORD.          1051220.7500:  X COORDINATE
 YCOORD.           922317.9375:  Y COORDINATE
 ELEV.FT             1376.0000:  ELEVATION
 TD  .FT             9217.0000:  TOTAL DEPTH
~Parameter Information Block
#MNEM.UNIT       Value        Description
#---------     -----------    ---------------------------
~Curve Information Block
#MNEM.UNIT                 API CODE     Curve Description
#---------               -----------    ---------------------------
 DEPTH.F                00 000 000 000:  Index Curve
 2019_pPerm_ANS.MD          00 000 000 000:  
 2019_pPhieE_D_ANS.V/V         00 000 000 000:  
~A DEPTH     2019_pPerm_ANS 2019_pPhieE_D_ANS
# ...
 8548.5000  1341.0043     0.1924 
 8549.0000  1860.6149     0.2047 
 8549.5000  2177.7217     0.2049 
 8550.0000  3829.3052     0.2294 
 8550.5000  1951.3702     0.2356 
 8551.0000  2200.9192     0.2478 
 8551.5000  1848.1055     0.2358 
 8552.0000  3442.8447     0.2236 
 8552.5000  3145.1379     0.2174 
 8553.0000  3019.4802     0.2172 
 8553.5000  2554.3154     0.2112 
 8554.0000  3015.0410     0.2172 
 8554.5000  3114.7036     0.2172 
 8555.0000  3232.7549     0.2173 
 8555.5000  3635.2126     0.2232 
 8556.0000  2322.5349     0.2416 
 8556.5000  2107.2490     0.2417 
 8557.0000  2274.8086     0.2478 
 8557.5000  1947.3705     0.2357 
 8558.0000  2294.8320     0.2479 
 8558.5000  2083.9602     0.2418 
 8559.0000  1849.5502     0.2358 
 8559.5000  2034.0015     0.2417 
 8560.0000  2060.3179     0.2418 
 8560.5000  1851.7615     0.2360 
 8561.0000  1870.5361     0.2361 
 8561.5000  2820.6716     0.2174 
 8562.0000  2499.1980     0.2112 
 8562.5000  1477.1691     0.1931 
 8563.0000  1275.9127     0.1932 
 8563.5000  1152.9719     0.1871 
 8564.0000  1649.9825     0.1993 
 8564.5000  2748.4951     0.2176 
 8565.0000  2199.7302     0.2418 
 8565.5000  2704.6035     0.2539 
 8566.0000  3063.4238     0.2598 
 8566.5000  2704.4814     0.2538 
 8567.0000  2118.6658     0.2417 
 8567.5000  1860.2296     0.2355 
 8568.0000  2039.4624     0.2417 
 8568.5000  2154.1255     0.2418 
 8569.0000  2710.2114     0.2539 
 8569.5000  3142.4675     0.2598 
 8570.0000  3587.1353     0.2659 
 8570.5000  4006.6990     0.2719 
 8571.0000  3530.6035     0.2659 
 8571.5000  2799.7788     0.2542 
 8572.0000  2827.6335     0.2541 
 8572.5000  3158.7649     0.2603 
 8573.0000  2832.1069     0.2542 
 8573.5000  2746.2102     0.2541 
 8574.0000  2634.2197     0.2421 
 8574.5000  4509.4326     0.2296 
 8575.0000  2544.8218     0.2416 
 8575.5000  2378.6685     0.2480 
 8576.0000  2452.5828     0.2479 
 8576.5000  2696.0684     0.2541 
 8577.0000  2413.9583     0.2481 
 8577.5000  2421.5037     0.2419 
 8578.0000  4434.9360     0.2297 
 8578.5000  4589.2046     0.2300 
 8579.0000  3285.3655     0.2178 
 8579.5000  2640.7822     0.2117 
 8580.0000  2605.0117     0.2117 
 8580.5000  2995.9958     0.2178 
 8581.0000  2644.7512     0.2119 
 8581.5000  3071.3616     0.2176 
 8582.0000  3242.4851     0.2178 
 8582.5000  4514.6016     0.2298 
 8583.0000  4713.8770     0.2295 
 8583.5000  2567.8123     0.2417 
 8584.0000  2398.2817     0.2481 
 8584.5000  2192.0820     0.2420 
 8585.0000  2384.3953     0.2479 
 8585.5000  2344.7905     0.2479 
 8586.0000  2070.2285     0.2416 
 8586.5000  1949.6526     0.2346 
 8587.0000  2419.4067     0.2141 
 8587.5000   385.1044     0.0077 
 8588.0000     0.0031     0.0000 
 8588.5000     0.0000     0.0000 
 8589.0000     0.0000     0.0000 
 8589.5000     0.0000     0.0000 
 8590.0000     0.0000     0.0000 
 8590.5000     0.0000     0.0000 
 8591.0000     0.0000     0.0000 
 8591.5000     0.0000     0.0000 
 8592.0000     0.0000     0.0000 
 8592.5000     0.0000     0.0001 
 8593.0000     0.0000     0.0000 
 8593.5000     0.0000     0.0000 
 8594.0000     0.0000     0.0000 
 8594.5000     0.0000     0.0000 
 8595.0000     0.0000     0.0001 
 8595.5000     0.0011     0.0003 
 8596.0000     0.4081     0.0066 
 8596.5000     2.4013     0.0594 
 8597.0000     2.8786     0.0660 
 8597.5000     0.7078     0.0311 
 8598.0000     0.0635     0.0004 
 8598.5000     0.0189     0.0011 
 8599.0000     0.2023     0.0190 
 8599.5000     1.2016     0.0367 
 8600.0000     9.7002     0.0746 
 8600.5000    46.0450     0.1178 
 8601.0000    56.2259     0.1178 
 8601.5000    81.2035     0.1293 
 8602.0000    64.9925     0.1222 
 8602.5000    34.1092     0.1092 
 8603.0000     2.0077     0.0357 
 8603.5000     4.5057     0.0739 
 8604.0000     6.4324     0.0798 
 8604.5000     7.3666     0.0801 
 8605.0000     9.5341     0.0853 
 8605.5000    10.2972     0.0854 
 8606.0000    13.8132     0.0916 
 8606.5000    18.4282     0.0979 
 8607.0000    18.1800     0.0975 
 8607.5000     8.8792     0.0823 
 8608.0000     3.1391     0.0622 
 8608.5000     0.6176     0.0257 
 8609.0000     0.0955     0.0112 
 8609.5000     0.2144     0.0190 
 8610.0000     1.2591     0.0379 
 8610.5000     5.2084     0.0750 
 8611.0000     8.3620     0.0852 
 8611.5000     5.7562     0.0766 
 8612.0000     3.4328     0.0654 
 8612.5000     1.6808     0.0504 
 8613.0000     1.6123     0.0510 
 8613.5000     1.6259     0.0510 
 8614.0000     1.4623     0.0524 
 8614.5000     0.1399     0.0177 
 8615.0000     1.0543     0.0479 
 8615.5000     0.6931     0.0368 
 8616.0000     0.1934     0.0166 
 8616.5000     0.0177     0.0047 
 8617.0000     0.0187     0.0064 
 8617.5000     0.0202     0.0068 
 8618.0000     0.0060     0.0023 
 8618.5000     0.0042     0.0026 
 8619.0000     0.0323     0.0035 
 8619.5000     0.2824     0.0214 
 8620.0000     0.9000     0.0439 
 8620.5000     0.5378     0.0312 
 8621.0000     0.4051     0.0294 
 8621.5000     0.3647     0.0274 
 8622.0000     0.4582     0.0302 
 8622.5000     0.8311     0.0403 
 8623.0000     1.0387     0.0438 
 8623.5000     0.6983     0.0358 
 8624.0000     0.5502     0.0333 
 8624.5000     0.7477     0.0376 
 8625.0000     1.0301     0.0431 
 8625.5000     3.3098     0.0667 
 8626.0000     4.4023     0.0714 
 8626.5000     4.2390     0.0680 
 8627.0000     5.7093     0.0777 
 8627.5000     5.1657     0.0730 
 8628.0000     5.8582     0.0790 
 8628.5000     3.5456     0.0648 
 8629.0000     2.1529     0.0568 
 8629.5000     0.7773     0.0352 
 8630.0000     0.7310     0.0225 
 8630.5000     4.0487     0.0696 
 8631.0000     6.7626     0.0813 
 8631.5000     4.7391     0.0732 
 8632.0000     1.5979     0.0453 
 8632.5000     0.4687     0.0292 
 8633.0000     0.4786     0.0322 
 8633.5000     0.4551     0.0313 
 8634.0000     0.2673     0.0220 
 8634.5000     0.2999     0.0256 
 8635.0000     0.5461     0.0333 
 8635.5000     0.8222     0.0395 
 8636.0000     1.0938     0.0353 
 8636.5000     3.1771     0.0649 
 8637.0000     2.5290     0.0576 
 8637.5000     2.6537     0.0611 
 8638.0000     1.8266     0.0525 
 8638.5000     1.2215     0.0458 
 8639.0000     0.8450     0.0396 
 8639.5000     0.5697     0.0340 
 8640.0000     0.3307     0.0265 
 8640.5000     0.2613     0.0194 
 8641.0000     0.8834     0.0395 
 8641.5000     2.8732     0.0547 
 8642.0000     8.3302     0.0854 
 8642.5000     4.1277     0.0675 
 8643.0000     1.0628     0.0312 
 8643.5000     4.0472     0.0736 
 8644.0000     3.9306     0.0681 
 8644.5000     4.5979     0.0739 
 8645.0000     3.7945     0.0678 
 8645.5000     3.5990     0.0677 
 8646.0000     2.7945     0.0615 
 8646.5000     2.9205     0.0613 
 8647.0000     3.5967     0.0673 
 8647.5000     2.0537     0.0548 
 8648.0000     0.7848     0.0372 
 8648.5000     0.8063     0.0368 
 8649.0000     1.4692     0.0486 
 8649.5000     2.7220     0.0609 
 8650.0000     3.5484     0.0695 
 8650.5000     0.8704     0.0306 
 8651.0000     0.1150     0.0135 
 8651.5000     0.0131     0.0027 
 8652.0000     0.0093     0.0035 
 8652.5000     0.0224     0.0075 
 8653.0000     0.0078     0.0031 
 8653.5000     0.0008     0.0005 
 8654.0000     0.0008     0.0012 
 8654.5000     0.0001     0.0001 
 8655.0000     0.0000     0.0001 
 8655.5000     0.0000     0.0000 
 8656.0000     0.0000     0.0000 
 8656.5000     0.0000     0.0001 
 8657.0000     0.0000     0.0000 
 8657.5000     0.0000     0.0001 
 8658.0000     0.0000     0.0001 
 8658.5000     0.0001     0.0003 
 8659.0000     0.0001     0.0003 
 8659.5000     0.0000     0.0001 
 8660.0000     0.0004     0.0006 
 8660.5000     0.0018     0.0011 
 8661.0000     0.0088     0.0043 
 8661.5000     0.0127     0.0045 
 8662.0000     0.0291     0.0080 
 8662.5000     0.0486     0.0103 
 8663.0000     0.0707     0.0135 
 8663.5000     0.0307     0.0071 
 8664.0000     0.0177     0.0057 
 8664.5000     0.2405     0.0086 
 8665.0000     4.4232     0.0480 
 8665.5000    99.1382     0.1222 
 8666.0000   373.3817     0.1595 
