~Version Information
 VERS.                  2.0:   CWLS log ASCII Standard -VERSION 2.0
 WRAP.                   NO:   One line per depth step
~Well Information Block
#MNEM.UNIT       Data Type    Information
#---------     -----------    ---------------------------
 STRT.F              8011.0000:
 STOP.F              9260.0000:
 STEP.F                 0.5000:
 NULL.               -999.2500:
 UWI .                CASN0030:  UWI
 API .                CASN0030:  UWI
 WELL.                 CASN-30:  COMMON WELL NAME
 COMP.               ECOPETROL:  WELL OPERATOR
 FLD .                CASTILLA:  FIELD
 LIC .                 UNKNOWN:  AUTHORIZATION NO
 LOC .                     LLA:  BASIN
 CTRY.                COLOMBIA:  COUNTRY
 STAT.                    META:  STATE
 CNTY.       CASTILLA_LA_NUEVA:  COUNTY
 PROV.                    META:  STATE
 SRVC.                 UNKNOWN:  COMPANY
 DATE.                 UNKNOWN:  LOG RUN DATE
 LONG.           -73.616480936:  LONGITUDE
 LATI.             3.893355943:  LATITUDE
 XCOORD.          1051204.2500:  X COORDINATE
 YCOORD.           922293.1875:  Y COORDINATE
 ELEV.FT             1376.0000:  ELEVATION
 TD  .FT             9235.0000:  TOTAL DEPTH
~Parameter Information Block
#MNEM.UNIT       Value        Description
#---------     -----------    ---------------------------
~Curve Information Block
#MNEM.UNIT                 API CODE     Curve Description
#---------               -----------    ---------------------------
 DEPTH.F                00 000 000 000:  Index Curve
 2019_pPerm_ANS.MD          00 000 000 000:  
 2019_pPhieE_D_ANS.V/V         00 000 000 000:  
~A DEPTH     2019_pPerm_ANS 2019_pPhieE_D_ANS
# ...
 8483.0000     0.0007     0.0008 
 8483.5000     0.0185     0.0057 
 8484.0000     0.2554     0.0255 
 8484.5000     1.2876     0.0666 
 8485.0000     1.4190     0.0643 
 8485.5000     1.7743     0.0722 
 8486.0000     1.0848     0.0594 
 8486.5000     0.5481     0.0482 
 8487.0000     0.1332     0.0210 
 8487.5000     0.0059     0.0035 
 8488.0000     0.0004     0.0005 
 8488.5000     0.0000     0.0003 
 8489.0000     0.0000     0.0003 
 8489.5000     0.0000     0.0003 
 8490.0000     0.0000     0.0001 
 8490.5000     0.0000     0.0001 
 8491.0000     0.0000     0.0002 
 8491.5000     0.0000     0.0003 
 8492.0000     0.0000     0.0002 
 8492.5000     0.0000     0.0001 
 8493.0000     0.0000     0.0002 
 8493.5000     0.0000     0.0001 
 8494.0000     0.0000     0.0001 
 8494.5000     0.0000     0.0000 
 8495.0000     0.0000     0.0000 
 8495.5000     0.0000     0.0000 
 8496.0000     0.0000     0.0000 
 8496.5000     0.0000     0.0000 
 8497.0000     0.0000     0.0000 
 8497.5000     0.0000     0.0003 
 8498.0000     0.0000     0.0003 
 8498.5000     0.0000     0.0002 
 8499.0000     0.0000     0.0001 
 8499.5000     0.0000     0.0002 
 8500.0000     0.0000     0.0002 
 8500.5000     0.0000     0.0001 
 8501.0000     0.0000     0.0002 
 8501.5000     0.0002     0.0005 
 8502.0000     0.0009     0.0022 
 8502.5000     0.0011     0.0028 
 8503.0000     0.0003     0.0008 
 8503.5000     0.0000     0.0003 
 8504.0000     0.0000     0.0001 
 8504.5000     0.0000     0.0002 
 8505.0000     0.0000     0.0003 
 8505.5000     0.0000     0.0003 
 8506.0000     0.0000     0.0000 
 8506.5000     0.0000     0.0000 
 8507.0000     0.0000     0.0000 
 8507.5000     0.0000     0.0000 
 8508.0000     0.0000     0.0001 
 8508.5000     0.0000     0.0001 
 8509.0000     0.0000     0.0000 
 8509.5000     0.0000     0.0000 
 8510.0000     0.0000     0.0000 
 8510.5000     0.0000     0.0000 
 8511.0000     0.0000     0.0000 
 8511.5000     0.0000     0.0000 
 8512.0000     0.0000     0.0000 
 8512.5000     0.0000     0.0000 
 8513.0000     0.0000     0.0000 
 8513.5000     0.0000     0.0000 
 8514.0000     0.0000     0.0000 
 8514.5000     0.0004     0.0004 
 8515.0000     0.0068     0.0045 
 8515.5000     0.0657     0.0146 
 8516.0000     0.4484     0.0404 
 8516.5000     4.9169     0.0680 
 8517.0000    26.2207     0.1210 
 8517.5000    33.6479     0.1307 
 8518.0000     3.6574     0.0460 
 8518.5000     0.0875     0.0107 
 8519.0000     0.0072     0.0065 
 8519.5000     0.0309     0.0080 
 8520.0000     0.1626     0.0288 
 8520.5000     1.2731     0.0589 
 8521.0000     3.4984     0.0827 
 8521.5000     1.1358     0.0542 
 8522.0000     0.2546     0.0352 
 8522.5000     0.3434     0.0346 
 8523.0000     0.9528     0.0580 
 8523.5000     1.4626     0.0699 
 8524.0000     0.8085     0.0540 
 8524.5000     0.3527     0.0386 
 8525.0000     0.2307     0.0331 
 8525.5000     0.4652     0.0419 
 8526.0000     1.0808     0.0632 
 8526.5000     2.3314     0.0543 
 8527.0000    10.2788     0.1075 
 8527.5000     4.2520     0.0706 
 8528.0000    14.1542     0.1086 
 8528.5000    20.8050     0.1145 
 8529.0000    25.1936     0.1242 
 8529.5000     1.8975     0.0409 
 8530.0000     0.0695     0.0112 
 8530.5000     0.0010     0.0017 
 8531.0000     0.0002     0.0004 
 8531.5000     0.0000     0.0001 
 8532.0000     0.0001     0.0004 
 8532.5000     0.0075     0.0015 
 8533.0000     0.7227     0.0320 
 8533.5000     4.9471     0.0825 
 8534.0000    33.0133     0.1158 
 8534.5000    90.0393     0.1420 
 8535.0000   126.4565     0.1540 
 8535.5000    69.5127     0.1402 
 8536.0000     9.3018     0.0480 
 8536.5000     0.0709     0.0054 
 8537.0000     0.0006     0.0005 
 8537.5000     0.0000     0.0000 
 8538.0000     0.0000     0.0000 
 8538.5000     0.0002     0.0001 
 8539.0000     0.0046     0.0024 
 8539.5000     0.0405     0.0180 
 8540.0000     0.0374     0.0159 
 8540.5000     0.0148     0.0084 
 8541.0000     0.0122     0.0074 
 8541.5000    27.6311     0.0328 
 8542.0000   172.9259     0.1602 
 8542.5000   921.6240     0.1944 
 8543.0000  2061.7732     0.2145 
 8543.5000  2682.2549     0.2222 
 8544.0000  2649.0884     0.2203 
 8544.5000  2236.5303     0.2164 
 8545.0000  1967.6393     0.2151 
 8545.5000  1702.2367     0.2124 
 8546.0000  1515.7416     0.2107 
 8546.5000  1074.9856     0.2000 
 8547.0000   759.2145     0.1900 
 8547.5000   676.6155     0.1874 
 8548.0000   914.9714     0.1957 
 8548.5000  1325.9352     0.2064 
 8549.0000  1436.4072     0.2081 
 8549.5000  1361.9728     0.2052 
 8550.0000  1518.4703     0.2122 
 8550.5000  1232.5879     0.2042 
 8551.0000   926.0936     0.1959 
 8551.5000   625.7029     0.1844 
 8552.0000   997.4801     0.1949 
 8552.5000  1611.6760     0.2082 
 8553.0000  2251.0605     0.2177 
 8553.5000  2485.1074     0.2198 
 8554.0000  2088.7390     0.2143 
 8554.5000  2184.5691     0.2152 
 8555.0000  2860.4265     0.2261 
 8555.5000  2232.9019     0.2432 
 8556.0000  2046.0930     0.2410 
 8556.5000  1982.9689     0.2395 
 8557.0000  2087.5737     0.2411 
 8557.5000  2389.1790     0.2490 
 8558.0000  2254.4678     0.2462 
 8558.5000  1911.2209     0.2329 
 8559.0000  2552.9631     0.2220 
 8559.5000  2032.5441     0.2138 
 8560.0000  1777.7634     0.2116 
 8560.5000  2012.8239     0.2134 
 8561.0000  2614.8335     0.2214 
 8561.5000  2318.4580     0.2404 
 8562.0000  3210.1309     0.2612 
 8562.5000  2961.0859     0.2598 
 8563.0000  2009.7036     0.2396 
 8563.5000  2767.5527     0.2247 
 8564.0000  1746.0680     0.2324 
 8564.5000  2149.7698     0.2430 
 8565.0000  2656.7803     0.2531 
 8565.5000  2705.4202     0.2521 
 8566.0000  2974.9932     0.2579 
 8566.5000  2965.3704     0.2578 
 8567.0000  2726.3384     0.2540 
 8567.5000  2226.5520     0.2452 
 8568.0000  1793.9146     0.2300 
 8568.5000  2543.3494     0.2203 
 8569.0000  2459.4299     0.2190 
 8569.5000  2225.3958     0.2171 
 8570.0000  1811.2025     0.2119 
 8570.5000  1295.8766     0.2018 
 8571.0000  1157.2017     0.1987 
 8571.5000  1072.3055     0.1964 
 8572.0000   962.9295     0.1896 
 8572.5000  1365.1527     0.2027 
 8573.0000  2297.8840     0.2216 
 8573.5000  1689.9315     0.2318 
 8574.0000  3130.3799     0.2278 
 8574.5000  2953.7156     0.2221 
 8575.0000  2939.8606     0.2239 
 8575.5000  2720.5664     0.2218 
 8576.0000  2849.5100     0.2236 
 8576.5000  2874.0188     0.2230 
 8577.0000  2938.4358     0.2236 
 8577.5000  3005.5627     0.2247 
 8578.0000  3119.8210     0.2254 
 8578.5000  3033.3848     0.2245 
 8579.0000  2730.4412     0.2194 
 8579.5000  3285.4553     0.2267 
 8580.0000  3613.2695     0.2295 
 8580.5000  3295.4067     0.2260 
 8581.0000  2960.1470     0.2222 
 8581.5000  3160.5867     0.2276 
 8582.0000  1948.8359     0.2372 
 8582.5000  2377.7170     0.2489 
 8583.0000  2575.5112     0.2511 
 8583.5000  2273.0935     0.2465 
 8584.0000  1783.1265     0.2352 
 8584.5000  1672.8943     0.2318 
 8585.0000  1734.9243     0.2345 
 8585.5000  1641.7385     0.2316 
 8586.0000  1618.0012     0.2312 
 8586.5000  1743.0774     0.2345 
 8587.0000  2016.3534     0.2375 
 8587.5000  3029.6172     0.2285 
 8588.0000  1991.8970     0.2112 
 8588.5000  1411.0839     0.2028 
 8589.0000  1244.4700     0.1983 
 8589.5000  1644.4188     0.2071 
 8590.0000  2409.9556     0.2176 
 8590.5000  3263.0500     0.2273 
 8591.0000  3065.0876     0.2268 
 8591.5000  1820.0798     0.2330 
 8592.0000  2235.7917     0.2458 
 8592.5000  2550.3848     0.2511 
 8593.0000  2396.7407     0.2416 
 8593.5000  3545.9622     0.2288 
 8594.0000  3126.3767     0.2232 
 8594.5000  3482.8440     0.2291 
 8595.0000  2535.0186     0.2234 
 8595.5000  1383.5929     0.2090 
 8596.0000   917.2916     0.1976 
 8596.5000   847.5291     0.1978 
 8597.0000   988.0755     0.2019 
 8597.5000  1070.4497     0.2038 
 8598.0000  1092.1064     0.2019 
 8598.5000  1418.8053     0.2072 
 8599.0000  2237.4915     0.2228 
 8599.5000  1807.5631     0.2326 
 8600.0000  2061.7290     0.2388 
 8600.5000  3154.6018     0.2297 
