~Version Information
 VERS.                  2.0:   CWLS log ASCII Standard -VERSION 2.0
 WRAP.                   NO:   One line per depth step
~Well Information Block
#MNEM.UNIT       Data Type    Information
#---------     -----------    ---------------------------
 STRT.F              7060.0000:
 STOP.F              8042.5000:
 STEP.F                 0.5000:
 NULL.               -999.2500:
 UWI .                CASN0046:  UWI
 API .                CASN0046:  UWI
 WELL.                 CASN-46:  COMMON WELL NAME
 COMP.               ECOPETROL:  WELL OPERATOR
 FLD .                CASTILLA:  FIELD
 LIC .                 UNKNOWN:  AUTHORIZATION NO
 LOC .                     LLA:  BASIN
 CTRY.                COLOMBIA:  COUNTRY
 STAT.                    META:  STATE
 CNTY.       CASTILLA_LA_NUEVA:  COUNTY
 PROV.                    META:  STATE
 SRVC.                 UNKNOWN:  COMPANY
 DATE.                 UNKNOWN:  LOG RUN DATE
 LONG.           -73.632420309:  LONGITUDE
 LATI.             3.896773166:  LATITUDE
 XCOORD.          1049433.6250:  X COORDINATE
 YCOORD.           922670.1250:  Y COORDINATE
 ELEV.FT             1389.3000:  ELEVATION
 TD  .FT             8065.0000:  TOTAL DEPTH
~Parameter Information Block
#MNEM.UNIT       Value        Description
#---------     -----------    ---------------------------
~Curve Information Block
#MNEM.UNIT                 API CODE     Curve Description
#---------               -----------    ---------------------------
 DEPTH.F                00 000 000 000:  Index Curve
 2019_pPerm_ANS.MD          00 000 000 000:  
 2019_pPhieE_D_ANS.V/V         00 000 000 000:  
~A DEPTH     2019_pPerm_ANS 2019_pPhieE_D_ANS
# ...
 7178.0000     0.0000     0.0007 
 7178.5000     0.0000     0.0004 
 7179.0000     0.0000     0.0006 
 7179.5000     0.0000     0.0014 
 7180.0000     0.6343     0.0072 
 7180.5000     3.4843     0.0658 
 7181.0000     0.8551     0.0316 
 7181.5000     1.2350     0.0213 
 7182.0000    79.3108     0.0812 
 7182.5000  1714.8123     0.1621 
 7183.0000  9868.5156     0.2289 
 7183.5000 15051.3281     0.2400 
 7184.0000 12944.5264     0.2349 
 7184.5000  7049.6758     0.2198 
 7185.0000  1142.9940     0.1682 
 7185.5000   120.0521     0.0034 
 7186.0000     0.0000     0.0000 
 7186.5000     0.0000     0.0000 
 7187.0000     0.0000     0.0000 
 7187.5000     0.0000     0.0000 
 7188.0000     0.0000     0.0000 
 7188.5000     0.0000     0.0001 
 7189.0000     0.0000     0.0001 
 7189.5000     0.0000     0.0001 
 7190.0000     0.0000     0.0001 
 7190.5000     0.0000     0.0001 
 7191.0000     0.0000     0.0001 
 7191.5000     0.0000     0.0006 
 7192.0000     0.0000     0.0032 
 7192.5000     0.0002     0.0072 
 7193.0000     0.0000     0.0019 
 7193.5000     0.0000     0.0003 
 7194.0000     0.0000     0.0003 
 7194.5000     0.0000     0.0007 
 7195.0000     0.0000     0.0013 
 7195.5000     0.0000     0.0009 
 7196.0000     0.0000     0.0006 
 7196.5000     0.0000     0.0009 
 7197.0000     0.0000     0.0011 
 7197.5000     0.0000     0.0010 
 7198.0000     0.0000     0.0004 
 7198.5000     0.0000     0.0001 
 7199.0000     0.0000     0.0002 
 7199.5000     0.0000     0.0004 
 7200.0000     0.0000     0.0020 
 7200.5000     0.0000     0.0033 
 7201.0000     0.0000     0.0018 
 7201.5000     0.0000     0.0007 
 7202.0000     0.0000     0.0008 
 7202.5000     0.0000     0.0013 
 7203.0000     0.0000     0.0023 
 7203.5000     0.0117     0.0040 
 7204.0000     0.1099     0.0264 
 7204.5000     0.2984     0.0323 
 7205.0000     0.2294     0.0251 
 7205.5000     5.4254     0.0376 
 7206.0000    38.9011     0.1025 
 7206.5000   164.9916     0.1344 
 7207.0000   308.5832     0.1494 
 7207.5000   160.4223     0.1305 
 7208.0000   115.2102     0.1278 
 7208.5000    80.8861     0.1211 
 7209.0000    39.4108     0.1061 
 7209.5000    15.8259     0.0858 
 7210.0000     3.1106     0.0590 
 7210.5000     0.4482     0.0104 
 7211.0000     0.1468     0.0285 
 7211.5000     0.7204     0.0402 
 7212.0000     1.4482     0.0491 
 7212.5000     3.8750     0.0598 
 7213.0000    26.9577     0.0838 
 7213.5000   116.1774     0.1334 
 7214.0000    20.7733     0.0462 
 7214.5000    18.2871     0.0508 
 7215.0000   122.3569     0.1344 
 7215.5000    60.7003     0.1127 
 7216.0000    19.6294     0.0888 
 7216.5000     3.0871     0.0519 
 7217.0000     7.0217     0.0793 
 7217.5000     2.5073     0.0565 
 7218.0000     0.4864     0.0324 
 7218.5000     0.0016     0.0114 
 7219.0000     0.0000     0.0032 
 7219.5000     0.0000     0.0024 
 7220.0000    10.7729     0.0224 
 7220.5000    83.0395     0.1164 
 7221.0000   535.6022     0.1577 
 7221.5000  1215.9979     0.1809 
 7222.0000   887.0757     0.1727 
 7222.5000   411.5372     0.1531 
 7223.0000   285.0080     0.1437 
 7223.5000   418.3973     0.1561 
 7224.0000   495.3942     0.1607 
 7224.5000   355.1162     0.1523 
 7225.0000   168.8857     0.1343 
 7225.5000    89.8010     0.1217 
 7226.0000    51.7629     0.1117 
 7226.5000    24.2816     0.0953 
 7227.0000     7.4666     0.0740 
 7227.5000     2.5415     0.0552 
 7228.0000     0.0764     0.0061 
 7228.5000     0.0000     0.0011 
 7229.0000     0.0000     0.0008 
 7229.5000     0.0000     0.0007 
 7230.0000     0.0000     0.0015 
 7230.5000     0.0000     0.0017 
 7231.0000     0.0000     0.0031 
 7231.5000     0.0000     0.0032 
 7232.0000     0.0000     0.0031 
 7232.5000     0.0000     0.0030 
 7233.0000     0.0000     0.0027 
 7233.5000     0.0000     0.0037 
 7234.0000     0.0008     0.0047 
 7234.5000     0.0031     0.0047 
 7235.0000     0.0023     0.0039 
 7235.5000     0.0011     0.0026 
 7236.0000     0.0005     0.0018 
 7236.5000     0.0001     0.0007 
 7237.0000     0.0000     0.0003 
 7237.5000     0.0000     0.0003 
 7238.0000     0.0001     0.0007 
 7238.5000     0.0001     0.0008 
 7239.0000     0.0001     0.0007 
 7239.5000     0.0000     0.0003 
 7240.0000     0.0000     0.0004 
 7240.5000     0.0000     0.0003 
 7241.0000     0.0000     0.0003 
 7241.5000     0.0000     0.0002 
 7242.0000     0.0000     0.0001 
 7242.5000     0.0000     0.0001 
 7243.0000     0.0000     0.0001 
 7243.5000     0.0000     0.0001 
 7244.0000     0.0000     0.0001 
 7244.5000     0.0000     0.0001 
 7245.0000     0.0000     0.0001 
 7245.5000     0.0000     0.0001 
 7246.0000     0.0000     0.0000 
 7246.5000     0.0000     0.0000 
 7247.0000     0.0000     0.0000 
 7247.5000     0.0000     0.0000 
 7248.0000     0.0000     0.0000 
 7248.5000     0.0000     0.0000 
 7249.0000     0.0000     0.0002 
 7249.5000     0.0005     0.0018 
 7250.0000     0.0009     0.0024 
 7250.5000     0.0016     0.0020 
 7251.0000     0.0095     0.0066 
 7251.5000     0.3912     0.0285 
 7252.0000     2.4182     0.0739 
 7252.5000    11.7600     0.1079 
 7253.0000    15.8573     0.1124 
 7253.5000    11.9065     0.1080 
 7254.0000     3.0741     0.0762 
 7254.5000     0.7784     0.0526 
 7255.0000     0.2334     0.0347 
 7255.5000     0.0313     0.0084 
 7256.0000     0.0014     0.0011 
 7256.5000     0.0000     0.0001 
 7257.0000     0.0000     0.0000 
 7257.5000     0.0000     0.0000 
 7258.0000     0.0000     0.0000 
 7258.5000     0.0000     0.0001 
 7259.0000     0.0000     0.0002 
 7259.5000     0.0000     0.0001 
 7260.0000     0.0000     0.0001 
 7260.5000     0.0000     0.0001 
 7261.0000     0.0000     0.0001 
 7261.5000     0.0000     0.0003 
 7262.0000     0.0003     0.0010 
 7262.5000     0.0009     0.0023 
 7263.0000     0.0004     0.0015 
 7263.5000     0.0000     0.0002 
 7264.0000     0.0000     0.0001 
 7264.5000     0.0000     0.0000 
 7265.0000     0.0000     0.0000 
 7265.5000     0.0000     0.0000 
 7266.0000     0.0000     0.0001 
 7266.5000     0.0000     0.0001 
 7267.0000     0.0000     0.0000 
 7267.5000     0.0000     0.0000 
 7268.0000     0.0000     0.0000 
 7268.5000     0.0000     0.0000 
 7269.0000     0.0000     0.0001 
 7269.5000     0.0000     0.0001 
 7270.0000     0.0001     0.0007 
 7270.5000     0.0013     0.0020 
 7271.0000     0.0051     0.0061 
 7271.5000     0.0040     0.0055 
 7272.0000     0.0014     0.0028 
 7272.5000     0.0003     0.0008 
 7273.0000     0.0000     0.0003 
 7273.5000     0.0000     0.0002 
 7274.0000     0.0000     0.0003 
 7274.5000     0.0004     0.0007 
 7275.0000     0.0025     0.0036 
 7275.5000     0.0069     0.0077 
 7276.0000     0.0047     0.0059 
 7276.5000     0.0008     0.0012 
 7277.0000     0.0001     0.0005 
 7277.5000     0.0001     0.0005 
 7278.0000     0.0001     0.0007 
 7278.5000     0.0002     0.0009 
 7279.0000     0.0004     0.0013 
 7279.5000     0.0010     0.0025 
 7280.0000     0.0009     0.0023 
 7280.5000     0.0010     0.0025 
 7281.0000     0.0004     0.0012 
 7281.5000     0.0001     0.0008 
 7282.0000     0.0001     0.0005 
 7282.5000     0.0001     0.0005 
 7283.0000     0.0001     0.0006 
 7283.5000     0.0001     0.0006 
 7284.0000     0.0001     0.0006 
 7284.5000     0.0002     0.0009 
 7285.0000     0.0005     0.0012 
 7285.5000     0.0015     0.0031 
 7286.0000     0.0037     0.0048 
 7286.5000     0.0071     0.0079 
 7287.0000     0.0034     0.0045 
 7287.5000     0.0016     0.0030 
 7288.0000     0.0012     0.0028 
 7288.5000     0.0013     0.0024 
 7289.0000     0.0028     0.0045 
 7289.5000     0.0078     0.0056 
 7290.0000     0.0270     0.0144 
 7290.5000     0.0340     0.0162 
 7291.0000     0.0333     0.0157 
 7291.5000     0.0221     0.0125 
 7292.0000     0.0157     0.0109 
 7292.5000     0.0061     0.0059 
 7293.0000     0.0016     0.0032 
 7293.5000     0.0010     0.0022 
 7294.0000     0.0015     0.0030 
 7294.5000     0.0024     0.0042 
 7295.0000     0.0026     0.0044 
 7295.5000     0.0008     0.0017 
