~Version Information
 VERS.                  2.0:   CWLS log ASCII Standard -VERSION 2.0
 WRAP.                   NO:   One line per depth step
~Well Information Block
#MNEM.UNIT       Data Type    Information
#---------     -----------    ---------------------------
 STRT.F              7060.0000:
 STOP.F              8042.5000:
 STEP.F                 0.5000:
 NULL.               -999.2500:
 UWI .                CASN0046:  UWI
 API .                CASN0046:  UWI
 WELL.                 CASN-46:  COMMON WELL NAME
 COMP.               ECOPETROL:  WELL OPERATOR
 FLD .                CASTILLA:  FIELD
 LIC .                 UNKNOWN:  AUTHORIZATION NO
 LOC .                     LLA:  BASIN
 CTRY.                COLOMBIA:  COUNTRY
 STAT.                    META:  STATE
 CNTY.       CASTILLA_LA_NUEVA:  COUNTY
 PROV.                    META:  STATE
 SRVC.                 UNKNOWN:  COMPANY
 DATE.                 UNKNOWN:  LOG RUN DATE
 LONG.           -73.632420309:  LONGITUDE
 LATI.             3.896773166:  LATITUDE
 XCOORD.          1049433.6250:  X COORDINATE
 YCOORD.           922670.1250:  Y COORDINATE
 ELEV.FT             1389.3000:  ELEVATION
 TD  .FT             8065.0000:  TOTAL DEPTH
~Parameter Information Block
#MNEM.UNIT       Value        Description
#---------     -----------    ---------------------------
~Curve Information Block
#MNEM.UNIT                 API CODE     Curve Description
#---------               -----------    ---------------------------
 DEPTH.F                00 000 000 000:  Index Curve
 2019_pPerm_ANS.MD          00 000 000 000:  
 2019_pPhieE_D_ANS.V/V         00 000 000 000:  
~A DEPTH     2019_pPerm_ANS 2019_pPhieE_D_ANS
# ...
 7414.0000     0.0000     0.0000 
 7414.5000     0.0000     0.0000 
 7415.0000     0.0000     0.0000 
 7415.5000     0.0000     0.0000 
 7416.0000     0.0000     0.0000 
 7416.5000     0.0000     0.0000 
 7417.0000     0.0000     0.0000 
 7417.5000     0.0000     0.0000 
 7418.0000     0.0000     0.0000 
 7418.5000     0.0000     0.0000 
 7419.0000     0.0000     0.0000 
 7419.5000     0.0000     0.0000 
 7420.0000     0.0000     0.0000 
 7420.5000     0.0000     0.0000 
 7421.0000     0.0000     0.0000 
 7421.5000     0.0000     0.0000 
 7422.0000     0.0149     0.0005 
 7422.5000     0.9228     0.0277 
 7423.0000     5.4101     0.0966 
 7423.5000     1.2411     0.0538 
 7424.0000     0.1037     0.0030 
 7424.5000     0.0002     0.0008 
 7425.0000     0.0002     0.0005 
 7425.5000     0.0010     0.0023 
 7426.0000     0.0299     0.0045 
 7426.5000     3.3272     0.0323 
 7427.0000   290.4232     0.1635 
 7427.5000  1076.1887     0.2038 
 7428.0000  1983.4236     0.2386 
 7428.5000  3102.4197     0.2595 
 7429.0000  3830.7185     0.2706 
 7429.5000  3980.7959     0.2708 
 7430.0000  4108.1577     0.2718 
 7430.5000  4493.4214     0.2764 
 7431.0000  5069.3179     0.2829 
 7431.5000  5444.7002     0.2865 
 7432.0000  5449.2090     0.2862 
 7432.5000  5347.5640     0.2850 
 7433.0000  5308.0664     0.2851 
 7433.5000  5092.9883     0.2828 
 7434.0000  4805.2393     0.2805 
 7434.5000  4059.8909     0.2715 
 7435.0000  3413.8818     0.2631 
 7435.5000  3333.1189     0.2620 
 7436.0000  3397.9448     0.2644 
 7436.5000  2024.3489     0.2428 
 7437.0000   531.5107     0.1855 
 7437.5000   105.0699     0.1244 
 7438.0000     0.5475     0.0215 
 7438.5000     0.0110     0.0013 
 7439.0000     0.0036     0.0011 
 7439.5000   162.7991     0.0234 
 7440.0000  1225.7428     0.2380 
 7440.5000  4480.1343     0.2824 
 7441.0000  6004.4438     0.2922 
 7441.5000  5878.5732     0.2905 
 7442.0000  5434.9302     0.2859 
 7442.5000  5761.8813     0.2892 
 7443.0000  5786.7842     0.2913 
 7443.5000  4287.2607     0.2816 
 7444.0000  1826.9241     0.2454 
 7444.5000   606.4288     0.1889 
 7445.0000   134.4691     0.1404 
 7445.5000    17.0975     0.1096 
 7446.0000     2.3026     0.0164 
 7446.5000     0.0015     0.0004 
 7447.0000     0.0000     0.0000 
 7447.5000     0.0000     0.0000 
 7448.0000     0.0000     0.0000 
 7448.5000     0.0000     0.0000 
 7449.0000     0.0000     0.0000 
 7449.5000     0.0000     0.0000 
 7450.0000     0.0000     0.0000 
 7450.5000     0.0000     0.0000 
 7451.0000     0.0000     0.0000 
 7451.5000     0.0000     0.0000 
 7452.0000     0.0002     0.0002 
 7452.5000     0.0148     0.0033 
 7453.0000     0.1206     0.0278 
 7453.5000     0.2016     0.0372 
 7454.0000     0.0496     0.0147 
 7454.5000     0.0074     0.0043 
 7455.0000     0.0092     0.0086 
 7455.5000     0.0077     0.0081 
 7456.0000     0.0008     0.0009 
 7456.5000     0.0001     0.0000 
 7457.0000     0.0000     0.0000 
 7457.5000     0.0049     0.0011 
 7458.0000     0.0443     0.0147 
 7458.5000   140.0328     0.0714 
 7459.0000   872.2578     0.2314 
 7459.5000  2640.4084     0.2600 
 7460.0000  3249.1768     0.2622 
 7460.5000  2615.3562     0.2542 
 7461.0000  2084.1694     0.2477 
 7461.5000  1813.0210     0.2457 
 7462.0000  1500.2468     0.2402 
 7462.5000  1147.5950     0.2327 
 7463.0000   841.0964     0.2011 
 7463.5000   279.5962     0.1667 
 7464.0000   106.0646     0.1461 
 7464.5000   136.8206     0.1552 
 7465.0000   280.7540     0.1699 
 7465.5000   452.9369     0.1801 
 7466.0000   344.5407     0.1703 
 7466.5000   145.3258     0.1498 
 7467.0000    39.1146     0.1190 
 7467.5000     4.6307     0.0535 
 7468.0000   214.0855     0.1480 
 7468.5000   979.6038     0.2030 
 7469.0000  2429.8428     0.2502 
 7469.5000  3516.7788     0.2656 
 7470.0000  2801.9670     0.2558 
 7470.5000  1883.3964     0.2404 
 7471.0000  1645.4725     0.2386 
 7471.5000  1443.5946     0.2365 
 7472.0000  1021.0151     0.2075 
 7472.5000   180.0158     0.1495 
 7473.0000    12.2171     0.0165 
 7473.5000     0.1020     0.0067 
 7474.0000    70.1053     0.0569 
 7474.5000   530.6664     0.1926 
 7475.0000   822.9700     0.2019 
 7475.5000  1058.4696     0.2022 
 7476.0000  2433.5989     0.2290 
 7476.5000  3680.3152     0.2648 
 7477.0000  5522.0098     0.2882 
 7477.5000  5135.0718     0.2838 
 7478.0000  4321.4326     0.2746 
 7478.5000  3905.2549     0.2693 
 7479.0000  3700.4495     0.2676 
 7479.5000  1694.4760     0.2350 
 7480.0000   182.9910     0.1582 
 7480.5000    24.7874     0.0463 
 7481.0000     0.0521     0.0148 
 7481.5000     0.1623     0.0184 
 7482.0000     3.8594     0.0568 
 7482.5000    72.4302     0.1304 
 7483.0000   391.7135     0.1718 
 7483.5000  1461.8401     0.2104 
 7484.0000  2070.3516     0.2223 
 7484.5000  1578.9208     0.2133 
 7485.0000  1431.7574     0.2134 
 7485.5000  1125.8789     0.2061 
 7486.0000   430.1339     0.1783 
 7486.5000    30.4875     0.0229 
 7487.0000     0.0117     0.0005 
 7487.5000     0.0000     0.0002 
 7488.0000     0.0008     0.0020 
 7488.5000     0.0023     0.0040 
 7489.0000     0.0018     0.0027 
 7489.5000     0.0038     0.0051 
 7490.0000     0.0559     0.0129 
 7490.5000     0.2693     0.0373 
 7491.0000     2.8979     0.0661 
 7491.5000    11.6556     0.1056 
 7492.0000    10.6611     0.1052 
 7492.5000     2.4315     0.0718 
 7493.0000     0.2597     0.0081 
 7493.5000     0.0107     0.0046 
 7494.0000     1.5044     0.0226 
 7494.5000    10.5424     0.1028 
 7495.0000    18.2619     0.1133 
 7495.5000    16.9297     0.1110 
 7496.0000    11.2171     0.1034 
 7496.5000     6.5564     0.0929 
 7497.0000     2.7770     0.0786 
 7497.5000     1.1264     0.0617 
 7498.0000     0.0853     0.0142 
 7498.5000     0.0720     0.0119 
 7499.0000     0.3434     0.0421 
 7499.5000     1.1612     0.0530 
 7500.0000     3.6707     0.0839 
 7500.5000     1.7099     0.0705 
 7501.0000     0.1906     0.0303 
 7501.5000     0.1650     0.0283 
 7502.0000     0.3273     0.0429 
 7502.5000     0.0921     0.0195 
 7503.0000     0.0061     0.0038 
 7503.5000     0.0008     0.0012 
 7504.0000     0.0075     0.0035 
 7504.5000     0.2296     0.0206 
 7505.0000    11.2526     0.0674 
 7505.5000    83.1486     0.1447 
 7506.0000   146.5506     0.1547 
 7506.5000   171.2655     0.1542 
 7507.0000   170.9205     0.1533 
 7507.5000   158.6922     0.1506 
 7508.0000   160.4776     0.1521 
 7508.5000   153.9975     0.1510 
 7509.0000   118.9677     0.1466 
 7509.5000    62.6042     0.1336 
 7510.0000    35.0916     0.1238 
 7510.5000    27.0495     0.1229 
 7511.0000    51.2103     0.1333 
 7511.5000    90.7158     0.1435 
 7512.0000   144.0414     0.1522 
 7512.5000   176.7423     0.1563 
 7513.0000   180.7350     0.1578 
 7513.5000   152.6135     0.1549 
 7514.0000   135.1855     0.1520 
 7514.5000   131.9245     0.1506 
 7515.0000   171.4083     0.1573 
 7515.5000   194.3876     0.1604 
 7516.0000   184.3926     0.1598 
 7516.5000   177.4339     0.1581 
 7517.0000   200.3596     0.1616 
 7517.5000   261.7482     0.1680 
 7518.0000   289.9773     0.1691 
 7518.5000   317.3413     0.1689 
 7519.0000   377.0588     0.1735 
 7519.5000   457.9987     0.1790 
 7520.0000   488.8625     0.1802 
 7520.5000   354.9037     0.1720 
 7521.0000   205.5891     0.1597 
 7521.5000   146.0016     0.1519 
 7522.0000   113.6852     0.1487 
 7522.5000    60.3047     0.1409 
 7523.0000     3.8091     0.0040 
 7523.5000     0.0011     0.0003 
 7524.0000     6.5543     0.0056 
 7524.5000    82.8725     0.1466 
 7525.0000   184.2542     0.1627 
 7525.5000   224.6267     0.1648 
 7526.0000   252.4817     0.1680 
 7526.5000   269.4358     0.1706 
 7527.0000   391.7316     0.1800 
 7527.5000   592.5388     0.1904 
 7528.0000   637.0205     0.1901 
 7528.5000   515.9174     0.1835 
 7529.0000   433.8033     0.1792 
 7529.5000   456.3459     0.1809 
 7530.0000   799.5173     0.1935 
 7530.5000  1173.8131     0.2004 
 7531.0000  1258.7124     0.2026 
 7531.5000   795.2822     0.1900 
