~Version Information
 VERS.                  2.0:   CWLS log ASCII Standard -VERSION 2.0
 WRAP.                   NO:   One line per depth step
~Well Information Block
#MNEM.UNIT       Data Type    Information
#---------     -----------    ---------------------------
 STRT.F              7353.0000:
 STOP.F              8528.5000:
 STEP.F                 0.5000:
 NULL.               -999.2500:
 UWI .                CASN0108:  UWI
 API .                CASN0108:  UWI
 WELL.                CASN-108:  COMMON WELL NAME
 COMP.               ECOPETROL:  WELL OPERATOR
 FLD .                CASTILLA:  FIELD
 LIC .                 UNKNOWN:  AUTHORIZATION NO
 LOC .                     LLA:  BASIN
 CTRY.                COLOMBIA:  COUNTRY
 STAT.                    META:  STATE
 CNTY.                 UNKNOWN:  COUNTY
 PROV.                    META:  STATE
 SRVC.                 UNKNOWN:  COMPANY
 DATE.                 UNKNOWN:  LOG RUN DATE
 LONG.           -73.606511044:  LONGITUDE
 LATI.             3.902261590:  LATITUDE
 XCOORD.          1052311.0000:  X COORDINATE
 YCOORD.           923278.6250:  Y COORDINATE
 ELEV.FT             1333.7070:  ELEVATION
 TD  .FT             8565.0000:  TOTAL DEPTH
~Parameter Information Block
#MNEM.UNIT       Value        Description
#---------     -----------    ---------------------------
~Curve Information Block
#MNEM.UNIT                 API CODE     Curve Description
#---------               -----------    ---------------------------
 DEPTH.F                00 000 000 000:  Index Curve
 2019_pPerm_ANS.MD          00 000 000 000:  
 2019_pPhieE_D_ANS.V/V         00 000 000 000:  
~A DEPTH     2019_pPerm_ANS 2019_pPhieE_D_ANS
# ...
 8061.0000  1980.4813     0.2101 
 8061.5000  1597.8152     0.2034 
 8062.0000  1359.5509     0.1998 
 8062.5000  1311.1155     0.1985 
 8063.0000  1441.9377     0.2020 
 8063.5000  2085.0613     0.2118 
 8064.0000  2700.5125     0.2186 
 8064.5000  2420.5962     0.2157 
 8065.0000  1838.8295     0.2082 
 8065.5000  1345.9664     0.2015 
 8066.0000  1086.6420     0.2036 
 8066.5000   712.1533     0.2436 
 8067.0000    85.7666     0.0090 
 8067.5000     0.0012     0.0004 
 8068.0000     0.0000     0.0001 
 8068.5000     0.0000     0.0000 
 8069.0000     0.0002     0.0001 
 8069.5000     0.0813     0.0034 
 8070.0000    22.5496     0.0601 
 8070.5000   135.1467     0.1579 
 8071.0000   137.5335     0.1549 
 8071.5000   103.9435     0.1476 
 8072.0000   203.8068     0.1433 
 8072.5000   164.3644     0.1443 
 8073.0000   150.3385     0.1434 
 8073.5000   146.9161     0.1412 
 8074.0000   165.0254     0.1383 
 8074.5000   193.5602     0.1372 
 8075.0000   282.2100     0.1437 
 8075.5000   474.1913     0.1586 
 8076.0000   936.6906     0.1777 
 8076.5000  1633.2219     0.1938 
 8077.0000  2436.4155     0.2039 
 8077.5000  3095.5525     0.2079 
 8078.0000  3587.3740     0.2101 
 8078.5000  3677.2109     0.2085 
 8079.0000  3424.2366     0.2044 
 8079.5000  3335.4985     0.2032 
 8080.0000  3567.3728     0.2051 
 8080.5000  4227.6484     0.2112 
 8081.0000  4338.9292     0.2107 
 8081.5000  3705.0928     0.2035 
 8082.0000  3460.5178     0.2018 
 8082.5000  3636.2710     0.2030 
 8083.0000  4130.1074     0.2078 
 8083.5000  4635.1011     0.2120 
 8084.0000  5060.9795     0.2150 
 8084.5000  5917.7690     0.2204 
 8085.0000  6393.2256     0.2217 
 8085.5000  6687.6187     0.2225 
 8086.0000  6727.9878     0.2219 
 8086.5000  6210.4346     0.2195 
 8087.0000  5518.7837     0.2169 
 8087.5000  4698.8359     0.2142 
 8088.0000  3846.1240     0.2113 
 8088.5000  3163.2632     0.2084 
 8089.0000  2868.3875     0.2075 
 8089.5000  3134.8115     0.2111 
 8090.0000  3939.7463     0.2168 
 8090.5000  4799.9297     0.2197 
 8091.0000  5359.1978     0.2207 
 8091.5000  5181.8960     0.2178 
 8092.0000  4092.5620     0.2105 
 8092.5000  3046.9612     0.2024 
 8093.0000  2603.5361     0.1975 
 8093.5000  2504.4851     0.1969 
 8094.0000  2497.5322     0.1964 
 8094.5000  2299.9941     0.1917 
 8095.0000  2318.3389     0.1906 
 8095.5000  2566.3792     0.1942 
 8096.0000  3183.5608     0.2027 
 8096.5000  3318.5361     0.2039 
 8097.0000  2734.5320     0.1966 
 8097.5000  2397.2310     0.1918 
 8098.0000  2750.5591     0.1960 
 8098.5000  3505.0906     0.2046 
 8099.0000  3986.4146     0.2088 
 8099.5000  3867.4526     0.2071 
 8100.0000  3473.6077     0.2029 
 8100.5000  3126.5706     0.1992 
 8101.0000  2893.0154     0.1968 
 8101.5000  2709.9949     0.1950 
 8102.0000  2601.4575     0.1943 
 8102.5000  2706.0806     0.1966 
 8103.0000  2931.8071     0.2007 
 8103.5000  3415.6504     0.2078 
 8104.0000  3610.9209     0.2106 
 8104.5000  2765.1060     0.2026 
 8105.0000  2014.1923     0.1929 
 8105.5000  1683.3519     0.1857 
 8106.0000  1617.0691     0.1840 
 8106.5000  1798.1041     0.1866 
 8107.0000  1980.3108     0.1890 
 8107.5000  2193.5786     0.1927 
 8108.0000  2332.8281     0.1950 
 8108.5000  2455.3464     0.1968 
 8109.0000  2627.8743     0.1987 
 8109.5000  2805.7603     0.2005 
 8110.0000  3017.1165     0.2029 
 8110.5000  3242.3687     0.2048 
 8111.0000  3778.4756     0.2096 
 8111.5000  4513.0571     0.2151 
 8112.0000  5034.3931     0.2194 
 8112.5000  4764.6460     0.2164 
 8113.0000  3829.6484     0.2086 
 8113.5000  2954.3499     0.2007 
 8114.0000  2319.9810     0.1928 
 8114.5000  1878.7738     0.1878 
 8115.0000  1858.7959     0.1877 
 8115.5000  2042.5809     0.1924 
 8116.0000  2849.1978     0.2032 
 8116.5000  3814.6470     0.2124 
 8117.0000  3985.1709     0.2131 
 8117.5000  3780.3560     0.2102 
 8118.0000  3450.3948     0.2060 
 8118.5000  3348.3237     0.2049 
 8119.0000  3230.2139     0.2037 
 8119.5000  3011.5295     0.2024 
 8120.0000  2723.5212     0.1998 
 8120.5000  2602.9834     0.1986 
 8121.0000  2530.1001     0.1975 
 8121.5000  2514.2214     0.1969 
 8122.0000  2612.4255     0.1981 
 8122.5000  2935.1331     0.2023 
 8123.0000  3360.7876     0.2071 
 8123.5000  3590.3958     0.2095 
 8124.0000  3673.8955     0.2096 
 8124.5000  3311.7725     0.2054 
 8125.0000  2837.6780     0.2000 
 8125.5000  2079.4312     0.1908 
 8126.0000  1479.8527     0.1821 
 8126.5000  1490.6903     0.1831 
 8127.0000  1805.2852     0.1909 
 8127.5000  2298.8127     0.1994 
 8128.0000  2369.2000     0.1989 
 8128.5000  2112.1875     0.1940 
 8129.0000  2197.2295     0.1958 
 8129.5000  2848.4368     0.2049 
 8130.0000  3361.1477     0.2104 
 8130.5000  3127.7454     0.2069 
 8131.0000  2720.5439     0.2014 
 8131.5000  2853.7764     0.2038 
 8132.0000  3364.3472     0.2093 
 8132.5000  3569.0627     0.2095 
 8133.0000  3448.2781     0.2072 
 8133.5000  3382.0706     0.2060 
 8134.0000  3945.4053     0.2109 
 8134.5000  4547.7871     0.2146 
 8135.0000  5144.3984     0.2172 
 8135.5000  5816.9277     0.2203 
 8136.0000  5532.4097     0.2186 
 8136.5000  4876.6274     0.2143 
 8137.0000  3845.4067     0.2069 
 8137.5000  3105.6450     0.2025 
 8138.0000  2676.3323     0.2014 
 8138.5000  2481.5791     0.2028 
 8139.0000  2563.9958     0.2056 
 8139.5000  2674.3376     0.2063 
 8140.0000  2801.5325     0.2065 
 8140.5000  2760.7532     0.2064 
 8141.0000  2655.9299     0.2090 
 8141.5000  2343.6846     0.2102 
 8142.0000  1915.4781     0.2062 
 8142.5000  1748.0038     0.1998 
 8143.0000  1960.4023     0.1981 
 8143.5000  2703.9819     0.2030 
 8144.0000  3685.0730     0.2101 
 8144.5000  4910.9678     0.2176 
 8145.0000  6107.9604     0.2238 
 8145.5000  6118.3003     0.2254 
 8146.0000  5814.7681     0.2257 
 8146.5000  5674.9941     0.2257 
 8147.0000  5239.1177     0.2216 
 8147.5000  4192.3447     0.2127 
 8148.0000  3154.1494     0.2020 
 8148.5000  2864.1909     0.1972 
 8149.0000  3102.5132     0.1992 
 8149.5000  3718.9985     0.2047 
 8150.0000  4290.4951     0.2096 
 8150.5000  4625.9727     0.2114 
 8151.0000  4987.7607     0.2139 
 8151.5000  5199.4609     0.2157 
 8152.0000  4620.2251     0.2126 
 8152.5000  3229.3135     0.2004 
 8153.0000  2261.1550     0.1888 
 8153.5000  1967.4070     0.1857 
 8154.0000  2529.5798     0.1936 
 8154.5000  3436.6113     0.2040 
 8155.0000  3501.9707     0.2046 
 8155.5000  3347.2292     0.2038 
 8156.0000  3425.1973     0.2044 
 8156.5000  3732.4236     0.2074 
 8157.0000  4285.9707     0.2117 
 8157.5000  4686.1812     0.2147 
 8158.0000  4973.4053     0.2182 
 8158.5000  5248.1421     0.2205 
 8159.0000  5285.8623     0.2200 
 8159.5000  5272.8462     0.2184 
 8160.0000  5047.6338     0.2161 
 8160.5000  4593.3301     0.2141 
 8161.0000  3816.4143     0.2091 
 8161.5000  3207.1702     0.2036 
 8162.0000  3000.0994     0.2013 
 8162.5000  3010.1440     0.2013 
 8163.0000  3234.4377     0.2042 
 8163.5000  4194.3789     0.2132 
 8164.0000  5610.3828     0.2230 
 8164.5000  5748.7710     0.2237 
 8165.0000  4364.9658     0.2123 
 8165.5000  3427.2629     0.2026 
 8166.0000  3409.0088     0.2039 
 8166.5000  4346.7153     0.2112 
 8167.0000  5132.8740     0.2161 
 8167.5000  3627.0806     0.2080 
 8168.0000  1557.5526     0.1865 
 8168.5000   458.1602     0.1524 
 8169.0000    34.8172     0.0772 
 8169.5000     4.9026     0.0220 
 8170.0000    93.5123     0.0473 
 8170.5000  1305.0339     0.1953 
 8171.0000  4309.8979     0.2235 
 8171.5000  8363.8613     0.2369 
 8172.0000  9563.5352     0.2368 
 8172.5000  7707.5815     0.2277 
 8173.0000  6336.0669     0.2216 
 8173.5000  6233.6870     0.2216 
 8174.0000  7344.9790     0.2277 
 8174.5000  8198.4102     0.2313 
 8175.0000  8166.6187     0.2318 
 8175.5000  7626.9858     0.2305 
 8176.0000  6636.8833     0.2273 
 8176.5000  5558.5264     0.2223 
 8177.0000  5013.2520     0.2187 
 8177.5000  4858.9707     0.2175 
 8178.0000  4638.4204     0.2146 
 8178.5000  4788.2559     0.2142 
