~Version Information
 VERS.                  2.0:   CWLS log ASCII Standard -VERSION 2.0
 WRAP.                   NO:   One line per depth step
~Well Information Block
#MNEM.UNIT       Data Type    Information
#---------     -----------    ---------------------------
 STRT.F              7958.5000:
 STOP.F              9186.0000:
 STEP.F                 0.5000:
 NULL.               -999.2500:
 UWI .                CASN0032:  UWI
 API .                CASN0032:  UWI
 WELL.                 CASN-32:  COMMON WELL NAME
 COMP.               ECOPETROL:  WELL OPERATOR
 FLD .                CASTILLA:  FIELD
 LIC .                 UNKNOWN:  AUTHORIZATION NO
 LOC .                     LLA:  BASIN
 CTRY.                COLOMBIA:  COUNTRY
 STAT.                    META:  STATE
 CNTY.       CASTILLA_LA_NUEVA:  COUNTY
 PROV.                    META:  STATE
 SRVC.                 UNKNOWN:  COMPANY
 DATE.                 UNKNOWN:  LOG RUN DATE
 LONG.           -73.616332248:  LONGITUDE
 LATI.             3.893579824:  LATITUDE
 XCOORD.          1051220.7500:  X COORDINATE
 YCOORD.           922317.9375:  Y COORDINATE
 ELEV.FT             1376.0000:  ELEVATION
 TD  .FT             9217.0000:  TOTAL DEPTH
~Parameter Information Block
#MNEM.UNIT       Value        Description
#---------     -----------    ---------------------------
~Curve Information Block
#MNEM.UNIT                 API CODE     Curve Description
#---------               -----------    ---------------------------
 DEPTH.F                00 000 000 000:  Index Curve
 2019_pPerm_ANS.MD          00 000 000 000:  
 2019_pPhieE_D_ANS.V/V         00 000 000 000:  
~A DEPTH     2019_pPerm_ANS 2019_pPhieE_D_ANS
# ...
 8076.5000     0.0098     0.0016 
 8077.0000     0.0077     0.0076 
 8077.5000     0.0012     0.0001 
 8078.0000     0.0000     0.0001 
 8078.5000     0.0009     0.0001 
 8079.0000     0.0134     0.0061 
 8079.5000     0.0562     0.0182 
 8080.0000     0.0138     0.0065 
 8080.5000     0.0121     0.0068 
 8081.0000     0.0413     0.0129 
 8081.5000     0.4516     0.0253 
 8082.0000     2.1558     0.0553 
 8082.5000     5.2101     0.0736 
 8083.0000     3.2403     0.0622 
 8083.5000     2.3469     0.0562 
 8084.0000     2.1857     0.0561 
 8084.5000     3.0032     0.0619 
 8085.0000     3.2680     0.0621 
 8085.5000     4.4479     0.0683 
 8086.0000     4.4961     0.0679 
 8086.5000     3.6477     0.0622 
 8087.0000     4.3475     0.0684 
 8087.5000     2.5444     0.0563 
 8088.0000     2.1028     0.0563 
 8088.5000     1.5020     0.0498 
 8089.0000     1.2446     0.0498 
 8089.5000     0.2965     0.0252 
 8090.0000     0.0890     0.0195 
 8090.5000     0.0078     0.0014 
 8091.0000     0.0052     0.0001 
 8091.5000     0.0401     0.0130 
 8092.0000     0.1182     0.0246 
 8092.5000     0.0142     0.0069 
 8093.0000     0.0015     0.0011 
 8093.5000     0.0001     0.0011 
 8094.0000     0.0000     0.0001 
 8094.5000     0.0000     0.0001 
 8095.0000     1.4977     0.0002 
 8095.5000     8.4027     0.0798 
 8096.0000     2.9476     0.0549 
 8096.5000     0.8810     0.0427 
 8097.0000     0.3745     0.0313 
 8097.5000     0.1760     0.0255 
 8098.0000     0.0246     0.0001 
 8098.5000     0.0095     0.0009 
 8099.0000     0.0718     0.0188 
 8099.5000     1.3075     0.0188 
 8100.0000     7.4426     0.0801 
 8100.5000     1.4225     0.0183 
 8101.0000     0.0702     0.0183 
 8101.5000     0.3874     0.0003 
 8102.0000     2.7917     0.0580 
 8102.5000     7.7684     0.0821 
 8103.0000     1.6130     0.0487 
 8103.5000     0.8240     0.0428 
 8104.0000     0.2968     0.0304 
 8104.5000     0.2703     0.0310 
 8105.0000     0.0876     0.0188 
 8105.5000     0.0749     0.0189 
 8106.0000     0.0349     0.0130 
 8106.5000     0.0053     0.0001 
 8107.0000     0.0405     0.0007 
 8107.5000     0.8275     0.0369 
 8108.0000     2.8499     0.0617 
 8108.5000     3.4532     0.0610 
 8109.0000     6.2721     0.0733 
 8109.5000     8.8101     0.0795 
 8110.0000     9.0612     0.0803 
 8110.5000     6.3380     0.0737 
 8111.0000     2.6772     0.0550 
 8111.5000     2.0459     0.0558 
 8112.0000     1.4457     0.0490 
 8112.5000     1.5157     0.0488 
 8113.0000     3.5291     0.0687 
 8113.5000     0.4352     0.0304 
 8114.0000     0.1873     0.0248 
 8114.5000     0.1663     0.0247 
 8115.0000     0.5984     0.0369 
 8115.5000     1.3214     0.0492 
 8116.0000     1.1178     0.0487 
 8116.5000     0.6834     0.0308 
 8117.0000     6.4876     0.0795 
 8117.5000     2.0299     0.0487 
 8118.0000     2.8916     0.0594 
 8118.5000     5.1730     0.0708 
 8119.0000     4.7935     0.0703 
 8119.5000     1.6723     0.0491 
 8120.0000     1.1496     0.0349 
 8120.5000     6.1953     0.0752 
 8121.0000     7.4140     0.0756 
 8121.5000     8.3065     0.0792 
 8122.0000     6.4813     0.0731 
 8122.5000     5.9838     0.0730 
 8123.0000     4.7785     0.0679 
 8123.5000     6.3801     0.0730 
 8124.0000     8.5792     0.0789 
 8124.5000     4.8770     0.0672 
 8125.0000     2.9432     0.0608 
 8125.5000     2.0400     0.0549 
 8126.0000     1.4950     0.0489 
 8126.5000     5.7933     0.0737 
 8127.0000     6.9607     0.0757 
 8127.5000     2.9920     0.0552 
 8128.0000     2.8730     0.0608 
 8128.5000     3.2343     0.0610 
 8129.0000     4.5921     0.0685 
 8129.5000     4.4053     0.0690 
 8130.0000     1.6078     0.0489 
 8130.5000     0.2894     0.0250 
 8131.0000     0.0565     0.0126 
 8131.5000     0.0803     0.0183 
 8132.0000     1.6781     0.0243 
 8132.5000     9.8132     0.0823 
 8133.0000     8.9722     0.0821 
 8133.5000     1.1784     0.0304 
 8134.0000     4.2725     0.0729 
 8134.5000     0.3409     0.0243 
 8135.0000     0.4532     0.0366 
 8135.5000     0.5186     0.0368 
 8136.0000     2.3097     0.0426 
 8136.5000     9.5833     0.0815 
 8137.0000     2.2133     0.0426 
 8137.5000     0.1719     0.0314 
 8138.0000     0.0223     0.0197 
 8138.5000     0.0006     0.0123 
 8139.0000     0.0002     0.0089 
 8139.5000     0.0004     0.0117 
 8140.0000     0.0141     0.0153 
 8140.5000     0.1074     0.0280 
 8141.0000     0.3834     0.0384 
 8141.5000     1.6917     0.0510 
 8142.0000     3.6875     0.0657 
 8142.5000     3.0910     0.0622 
 8143.0000     2.2504     0.0513 
 8143.5000     6.9953     0.0790 
 8144.0000     4.6648     0.0668 
 8144.5000     5.3553     0.0746 
 8145.0000     0.3471     0.0323 
 8145.5000     1.3774     0.0482 
 8146.0000     3.1041     0.0617 
 8146.5000     2.5601     0.0550 
 8147.0000     4.1032     0.0667 
 8147.5000     2.1621     0.0548 
 8148.0000     0.8511     0.0426 
 8148.5000     1.1559     0.0183 
 8149.0000     5.3521     0.0734 
 8149.5000     2.6050     0.0365 
 8150.0000     7.5199     0.0798 
 8150.5000     2.3302     0.0506 
 8151.0000     0.2820     0.0309 
 8151.5000     0.0161     0.0147 
 8152.0000     0.4209     0.0177 
 8152.5000     2.8140     0.0615 
 8153.0000     2.8980     0.0634 
 8153.5000     0.2596     0.0144 
 8154.0000     0.2751     0.0233 
 8154.5000     1.7006     0.0530 
 8155.0000     2.1092     0.0577 
 8155.5000     1.2524     0.0478 
 8156.0000     2.3078     0.0514 
 8156.5000     6.3533     0.0735 
 8157.0000     5.0887     0.0608 
 8157.5000    11.9487     0.0853 
 8158.0000    10.3766     0.0679 
 8158.5000    31.0497     0.1032 
 8159.0000    31.7030     0.1034 
 8159.5000    22.9378     0.0971 
 8160.0000     6.2301     0.0646 
 8160.5000     1.7601     0.0476 
 8161.0000     4.3087     0.0654 
 8161.5000     8.7216     0.0804 
 8162.0000     9.5840     0.0780 
 8162.5000    15.4665     0.0918 
 8163.0000     9.5440     0.0799 
 8163.5000     3.9156     0.0619 
 8164.0000     2.1571     0.0555 
 8164.5000     1.8937     0.0554 
 8165.0000     0.9684     0.0446 
 8165.5000     0.1561     0.0099 
 8166.0000     0.0000     0.0026 
 8166.5000     0.0000     0.0008 
 8167.0000     0.0000     0.0007 
 8167.5000     0.0135     0.0018 
 8168.0000     0.2570     0.0260 
 8168.5000     3.3449     0.0679 
 8169.0000     1.4435     0.0485 
 8169.5000     0.5855     0.0369 
 8170.0000     0.2225     0.0254 
 8170.5000     0.2899     0.0318 
 8171.0000     0.1768     0.0254 
 8171.5000     0.0423     0.0073 
 8172.0000     0.0777     0.0199 
 8172.5000     0.0681     0.0147 
 8173.0000     0.4586     0.0264 
 8173.5000     1.8234     0.0565 
 8174.0000     0.3321     0.0045 
 8174.5000     0.0000     0.0009 
 8175.0000     0.0000     0.0002 
 8175.5000     0.0000     0.0002 
 8176.0000     0.0000     0.0004 
 8176.5000     0.0000     0.0002 
 8177.0000     0.0000     0.0001 
 8177.5000     0.0000     0.0002 
 8178.0000     0.0000     0.0001 
 8178.5000     0.0000     0.0005 
 8179.0000     0.0000     0.0012 
 8179.5000     0.0000     0.0002 
 8180.0000     0.0000     0.0001 
 8180.5000     0.0000     0.0000 
 8181.0000     0.0000     0.0000 
 8181.5000     0.0000     0.0001 
 8182.0000     0.0000     0.0000 
 8182.5000     0.0000     0.0003 
 8183.0000     0.0000     0.0012 
 8183.5000     0.0001     0.0034 
 8184.0000     0.0004     0.0113 
 8184.5000     0.0197     0.0153 
 8185.0000     0.1098     0.0304 
 8185.5000     0.0210     0.0206 
 8186.0000     0.0005     0.0127 
 8186.5000     0.0002     0.0043 
 8187.0000     0.0004     0.0112 
 8187.5000     0.0273     0.0209 
 8188.0000     0.1608     0.0330 
 8188.5000     0.4456     0.0419 
 8189.0000     1.1283     0.0478 
 8189.5000     0.2724     0.0295 
 8190.0000     0.0087     0.0145 
 8190.5000     0.0003     0.0071 
 8191.0000     0.0089     0.0059 
 8191.5000     0.3435     0.0275 
 8192.0000     1.7522     0.0546 
 8192.5000     1.8482     0.0547 
 8193.0000     1.0103     0.0454 
 8193.5000     0.1124     0.0102 
 8194.0000     0.0001     0.0027 
