~Version Information
 VERS.                  2.0:   CWLS log ASCII Standard -VERSION 2.0
 WRAP.                   NO:   One line per depth step
~Well Information Block
#MNEM.UNIT       Data Type    Information
#---------     -----------    ---------------------------
 STRT.F              7180.5000:
 STOP.F              8032.0000:
 STEP.F                 0.5000:
 NULL.               -999.2500:
 UWI .                CASN0100:  UWI
 API .                CASN0100:  UWI
 WELL.                CASN-100:  COMMON WELL NAME
 COMP.               ECOPETROL:  WELL OPERATOR
 FLD .                CASTILLA:  FIELD
 LIC .                 UNKNOWN:  AUTHORIZATION NO
 LOC .                     LLA:  BASIN
 CTRY.                COLOMBIA:  COUNTRY
 STAT.                    META:  STATE
 CNTY.                 UNKNOWN:  COUNTY
 PROV.                    META:  STATE
 SRVC.                 UNKNOWN:  COMPANY
 DATE.                 UNKNOWN:  LOG RUN DATE
 LONG.           -73.635094741:  LONGITUDE
 LATI.             3.902985680:  LATITUDE
 XCOORD.          1049136.2500:  X COORDINATE
 YCOORD.           923356.9375:  Y COORDINATE
 ELEV.FT             1389.7300:  ELEVATION
 TD  .FT             8083.0000:  TOTAL DEPTH
~Parameter Information Block
#MNEM.UNIT       Value        Description
#---------     -----------    ---------------------------
~Curve Information Block
#MNEM.UNIT                 API CODE     Curve Description
#---------               -----------    ---------------------------
 DEPTH.F                00 000 000 000:  Index Curve
 2019_pPerm_ANS.MD          00 000 000 000:  
 2019_pPhieE_D_ANS.V/V         00 000 000 000:  
~A DEPTH     2019_pPerm_ANS 2019_pPhieE_D_ANS
 7180.5000   319.5553     0.1475 
 7181.0000   238.4715     0.1335 
 7181.5000 20000.0000     0.2146 
 7182.0000 20000.0000     0.3355 
 7182.5000 20000.0000     0.3377 
 7183.0000 20000.0000     0.3363 
 7183.5000 20000.0000     0.3353 
 7184.0000 20000.0000     0.3337 
 7184.5000 20000.0000     0.2896 
 7185.0000 20000.0000     0.2573 
 7185.5000 20000.0000     0.2496 
 7186.0000 20000.0000     0.2590 
 7186.5000 20000.0000     0.2498 
 7187.0000 12207.2529     0.2323 
 7187.5000  8761.5117     0.2225 
 7188.0000 13236.9365     0.2343 
 7188.5000 20000.0000     0.2604 
 7189.0000 20000.0000     0.2874 
 7189.5000 20000.0000     0.3039 
 7190.0000 20000.0000     0.3089 
 7190.5000 20000.0000     0.3072 
 7191.0000 20000.0000     0.3035 
 7191.5000 20000.0000     0.3003 
 7192.0000 20000.0000     0.3005 
 7192.5000 20000.0000     0.3102 
 7193.0000 20000.0000     0.3317 
 7193.5000 20000.0000     0.3350 
 7194.0000 20000.0000     0.0703 
 7194.5000     0.1123     0.0124 
 7195.0000     0.9084     0.0196 
 7195.5000  4996.0508     0.2176 
 7196.0000   279.3710     0.1278 
 7196.5000    18.1157     0.0895 
 7197.0000     7.8967     0.0765 
 7197.5000     2.7017     0.0589 
 7198.0000     0.0377     0.0058 
 7198.5000     0.0000     0.0002 
 7199.0000     0.0000     0.0000 
 7199.5000     0.0000     0.0000 
 7200.0000     0.0000     0.0001 
 7200.5000     0.0000     0.0001 
 7201.0000     0.0000     0.0003 
 7201.5000     0.0024     0.0025 
 7202.0000     2.1189     0.0324 
 7202.5000     3.9392     0.0595 
 7203.0000     3.1876     0.0618 
 7203.5000     2.5590     0.0582 
 7204.0000     1.6132     0.0513 
 7204.5000     0.8235     0.0420 
 7205.0000     0.3080     0.0301 
 7205.5000     1.3079     0.0172 
 7206.0000     0.5719     0.0374 
 7206.5000     0.0249     0.0159 
 7207.0000     0.0002     0.0086 
 7207.5000     0.0001     0.0058 
 7208.0000     0.0000     0.0025 
 7208.5000     0.0000     0.0004 
 7209.0000     0.0000     0.0000 
 7209.5000     0.0000     0.0000 
 7210.0000     0.0000     0.0000 
 7210.5000     0.0000     0.0000 
 7211.0000     0.0000     0.0000 
 7211.5000     0.0000     0.0000 
 7212.0000     0.0430     0.0002 
 7212.5000     6.3852     0.0607 
 7213.0000    20.7432     0.0949 
 7213.5000    17.2154     0.0912 
 7214.0000     8.3885     0.0771 
 7214.5000     2.9648     0.0592 
 7215.0000     0.9737     0.0431 
 7215.5000     0.1991     0.0249 
 7216.0000     0.0093     0.0001 
 7216.5000     0.0000     0.0001 
 7217.0000     0.0000     0.0001 
 7217.5000     0.0000     0.0001 
 7218.0000     0.0000     0.0001 
 7218.5000     0.0000     0.0001 
 7219.0000     0.5598     0.0273 
 7219.5000     5.6548     0.0705 
 7220.0000    26.4579     0.0984 
 7220.5000    54.2073     0.1130 
 7221.0000    70.2661     0.1186 
 7221.5000    70.0880     0.1181 
 7222.0000    61.0205     0.1152 
 7222.5000    50.9040     0.1116 
 7223.0000    45.1460     0.1093 
 7223.5000    46.6483     0.1099 
 7224.0000    58.4467     0.1141 
 7224.5000    90.8076     0.1226 
 7225.0000   163.3640     0.1348 
 7225.5000   338.0658     0.1500 
 7226.0000   715.3003     0.1671 
 7226.5000  1341.8860     0.1818 
 7227.0000  1928.4281     0.1903 
 7227.5000  1773.2677     0.1890 
 7228.0000   968.4263     0.1742 
 7228.5000   285.4128     0.1431 
 7229.0000    28.0014     0.0993 
 7229.5000     3.3237     0.0545 
 7230.0000     0.2271     0.0268 
 7230.5000     0.1088     0.0201 
 7231.0000     0.1475     0.0234 
 7231.5000     0.2032     0.0265 
 7232.0000     0.2114     0.0267 
 7232.5000     0.2142     0.0265 
 7233.0000     1.7085     0.0292 
 7233.5000     6.1883     0.0682 
 7234.0000     5.6685     0.0762 
 7234.5000     0.1518     0.0233 
 7235.0000     0.0808     0.0181 
 7235.5000     0.0348     0.0127 
 7236.0000     0.0106     0.0072 
 7236.5000     0.0027     0.0034 
 7237.0000     0.0068     0.0056 
 7237.5000     6.5916     0.0760 
 7238.0000     3.1440     0.0597 
 7238.5000     1.3133     0.0479 
 7239.0000     1.0952     0.0449 
 7239.5000     1.2244     0.0473 
 7240.0000     1.8946     0.0537 
 7240.5000     2.6182     0.0584 
 7241.0000     3.4746     0.0617 
 7241.5000     5.5872     0.0706 
 7242.0000     7.4106     0.0764 
 7242.5000     7.4360     0.0748 
 7243.0000     2.9090     0.0212 
 7243.5000     0.0468     0.0143 
 7244.0000     0.0302     0.0120 
 7244.5000     0.7751     0.0122 
 7245.0000     0.9421     0.0402 
 7245.5000     0.0225     0.0155 
 7246.0000     0.0006     0.0123 
 7246.5000     0.0645     0.0239 
 7247.0000     1.8847     0.0526 
 7247.5000     7.4106     0.0774 
 7248.0000    11.0986     0.0829 
 7248.5000     8.7953     0.0781 
 7249.0000     6.8321     0.0737 
 7249.5000     8.4787     0.0755 
 7250.0000     0.0123     0.0080 
 7250.5000     0.0001     0.0001 
 7251.0000     0.0000     0.0001 
 7251.5000     0.0000     0.0001 
 7252.0000     0.0006     0.0001 
 7252.5000     0.0250     0.0100 
 7253.0000     0.0896     0.0191 
 7253.5000     0.1954     0.0262 
 7254.0000     0.3119     0.0308 
 7254.5000     0.3766     0.0333 
 7255.0000     0.2773     0.0298 
 7255.5000     0.1121     0.0206 
 7256.0000     0.0273     0.0105 
 7256.5000     0.0085     0.0058 
 7257.0000     0.0727     0.0140 
 7257.5000     0.9223     0.0402 
 7258.0000    11.4752     0.0776 
 7258.5000    59.7694     0.1135 
 7259.0000   183.8995     0.1376 
 7259.5000   317.0718     0.1495 
 7260.0000   393.9756     0.1543 
 7260.5000   417.3330     0.1555 
 7261.0000   346.4753     0.1515 
 7261.5000   250.3649     0.1443 
 7262.0000   181.5459     0.1367 
 7262.5000   188.3637     0.1377 
 7263.0000   384.0544     0.1516 
 7263.5000  1050.5232     0.1750 
 7264.0000  2689.3040     0.1969 
 7264.5000  4881.4751     0.2115 
 7265.0000  6841.8394     0.2193 
 7265.5000  9184.9072     0.2259 
 7266.0000 12690.1738     0.2338 
 7266.5000 16494.5391     0.2405 
 7267.0000 18814.2598     0.2435 
 7267.5000 19246.9922     0.2441 
 7268.0000 17867.3770     0.2422 
 7268.5000 14952.1641     0.2379 
 7269.0000 11358.9863     0.2312 
 7269.5000  8678.8232     0.2246 
 7270.0000  6993.3755     0.2197 
 7270.5000  6104.8901     0.2165 
 7271.0000  5350.4082     0.2134 
 7271.5000  5057.2026     0.2119 
 7272.0000  5231.6943     0.2129 
 7272.5000  6299.3057     0.2173 
 7273.0000  8006.0049     0.2232 
 7273.5000  8049.9316     0.2240 
 7274.0000  4993.9614     0.2116 
 7274.5000  1737.5554     0.1847 
 7275.0000   422.6461     0.1533 
 7275.5000   141.1870     0.1306 
 7276.0000    88.8181     0.1222 
 7276.5000    84.8379     0.1220 
 7277.0000    73.8850     0.1191 
 7277.5000    44.5385     0.1086 
 7278.0000    15.5741     0.0867 
 7278.5000    10.0977     0.0816 
 7279.0000    10.1646     0.0793 
 7279.5000     0.9706     0.0140 
 7280.0000     0.0286     0.0110 
 7280.5000    10.7964     0.0826 
 7281.0000     9.6820     0.0791 
 7281.5000     9.9198     0.0804 
 7282.0000     3.8245     0.0225 
 7282.5000     0.1006     0.0201 
 7283.0000     0.0735     0.0177 
 7283.5000     1.1082     0.0152 
 7284.0000     6.2931     0.0772 
 7284.5000     0.0010     0.0001 
 7285.0000     0.0000     0.0001 
 7285.5000     0.0000     0.0001 
 7286.0000     0.0000     0.0001 
 7286.5000     0.0000     0.0001 
 7287.0000     0.0000     0.0001 
 7287.5000     0.0185     0.0088 
 7288.0000     0.0644     0.0170 
 7288.5000     0.0762     0.0184 
 7289.0000     0.0399     0.0136 
 7289.5000     0.0077     0.0049 
 7290.0000     0.0001     0.0001 
 7290.5000     0.0000     0.0001 
 7291.0000     0.0000     0.0001 
 7291.5000     0.0000     0.0001 
 7292.0000     0.0000     0.0001 
 7292.5000     0.0000     0.0001 
 7293.0000     0.0000     0.0001 
 7293.5000     0.0003     0.0001 
 7294.0000     0.0011     0.0026 
 7294.5000     0.0003     0.0013 
 7295.0000     0.0000     0.0001 
 7295.5000     0.0000     0.0001 
 7296.0000     0.0000     0.0001 
 7296.5000     0.0000     0.0001 
 7297.0000     0.0000     0.0001 
 7297.5000     0.0000     0.0001 
 7298.0000     0.0000     0.0001 
