~Version Information
 VERS.                  2.0:   CWLS log ASCII Standard -VERSION 2.0
 WRAP.                   NO:   One line per depth step
~Well Information Block
#MNEM.UNIT       Data Type    Information
#---------     -----------    ---------------------------
 STRT.F              7125.0000:
 STOP.F              8192.5000:
 STEP.F                 0.5000:
 NULL.               -999.2500:
 UWI .                CASN0029:  UWI
 API .                CASN0029:  UWI
 WELL.                 CASN-29:  COMMON WELL NAME
 COMP.               ECOPETROL:  WELL OPERATOR
 FLD .                CASTILLA:  FIELD
 LIC .                 UNKNOWN:  AUTHORIZATION NO
 LOC .                     LLA:  BASIN
 CTRY.                COLOMBIA:  COUNTRY
 STAT.                    META:  STATE
 CNTY.       CASTILLA_LA_NUEVA:  COUNTY
 PROV.                    META:  STATE
 SRVC.                 UNKNOWN:  COMPANY
 DATE.                 UNKNOWN:  LOG RUN DATE
 LONG.           -73.616655939:  LONGITUDE
 LATI.             3.893399628:  LATITUDE
 XCOORD.          1051184.7500:  X COORDINATE
 YCOORD.           922298.0000:  Y COORDINATE
 ELEV.FT             1376.0000:  ELEVATION
 TD  .FT             8225.0000:  TOTAL DEPTH
~Parameter Information Block
#MNEM.UNIT       Value        Description
#---------     -----------    ---------------------------
~Curve Information Block
#MNEM.UNIT                 API CODE     Curve Description
#---------               -----------    ---------------------------
 DEPTH.F                00 000 000 000:  Index Curve
 2019_pPerm_ANS.MD          00 000 000 000:  
 2019_pPhieE_D_ANS.V/V         00 000 000 000:  
~A DEPTH     2019_pPerm_ANS 2019_pPhieE_D_ANS
# ...
 7243.0000 20000.0000     0.2004 
 7243.5000 20000.0000     0.3066 
 7244.0000 20000.0000     0.3126 
 7244.5000 20000.0000     0.3024 
 7245.0000 20000.0000     0.2858 
 7245.5000 20000.0000     0.3028 
 7246.0000 20000.0000     0.2777 
 7246.5000 20000.0000     0.2435 
 7247.0000 10012.6689     0.2252 
 7247.5000 14335.8096     0.2359 
 7248.0000 20000.0000     0.2476 
 7248.5000 20000.0000     0.3105 
 7249.0000 20000.0000     0.2870 
 7249.5000 20000.0000     0.2383 
 7250.0000 20000.0000     0.2756 
 7250.5000 20000.0000     0.0722 
 7251.0000 20000.0000     0.2828 
 7251.5000 20000.0000     0.3284 
 7252.0000 20000.0000     0.3289 
 7252.5000 20000.0000     0.2783 
 7253.0000  6500.5103     0.0925 
 7253.5000     3.4148     0.0368 
 7254.0000     1.9331     0.0529 
 7254.5000     5.3733     0.0674 
 7255.0000    18.1624     0.0862 
 7255.5000    49.2560     0.1148 
 7256.0000    15.0694     0.0794 
 7256.5000     0.9455     0.0206 
 7257.0000     0.0252     0.0135 
 7257.5000     0.2099     0.0331 
 7258.0000    47.4745     0.0426 
 7258.5000   269.4389     0.1480 
 7259.0000    60.9306     0.0912 
 7259.5000     0.9669     0.0362 
 7260.0000     0.2521     0.0258 
 7260.5000     0.2391     0.0374 
 7261.0000     0.0400     0.0185 
 7261.5000     0.0003     0.0098 
 7262.0000     0.0001     0.0034 
 7262.5000     0.0002     0.0082 
 7263.0000     0.2352     0.0147 
 7263.5000     1.7453     0.0504 
 7264.0000    11.9421     0.0709 
 7264.5000    43.9400     0.1118 
 7265.0000    18.0158     0.0873 
 7265.5000     3.9519     0.0591 
 7266.0000     1.4009     0.0476 
 7266.5000     1.4545     0.0481 
 7267.0000     2.5690     0.0590 
 7267.5000     2.9085     0.0605 
 7268.0000     2.7916     0.0600 
 7268.5000     1.5678     0.0513 
 7269.0000     0.0865     0.0130 
 7269.5000     0.0002     0.0052 
 7270.0000     0.0002     0.0078 
 7270.5000     0.0002     0.0089 
 7271.0000     0.0001     0.0050 
 7271.5000     0.0000     0.0034 
 7272.0000     0.0001     0.0059 
 7272.5000     0.0000     0.0031 
 7273.0000     0.0000     0.0020 
 7273.5000     0.0000     0.0008 
 7274.0000     0.0000     0.0006 
 7274.5000     0.0000     0.0008 
 7275.0000     0.0000     0.0009 
 7275.5000     0.0000     0.0024 
 7276.0000     0.0000     0.0017 
 7276.5000     0.0000     0.0010 
 7277.0000     0.0000     0.0008 
 7277.5000     0.0000     0.0022 
 7278.0000     0.0000     0.0018 
 7278.5000     0.0000     0.0012 
 7279.0000     0.0000     0.0010 
 7279.5000     0.0001     0.0041 
 7280.0000     0.0001     0.0057 
 7280.5000     0.0000     0.0016 
 7281.0000     0.0000     0.0006 
 7281.5000     0.0000     0.0001 
 7282.0000     0.0000     0.0000 
 7282.5000     0.0000     0.0001 
 7283.0000     0.0000     0.0001 
 7283.5000     0.0000     0.0001 
 7284.0000     0.0000     0.0017 
 7284.5000     0.0000     0.0003 
 7285.0000     0.0000     0.0004 
 7285.5000     0.0000     0.0003 
 7286.0000     0.0000     0.0000 
 7286.5000     0.0000     0.0000 
 7287.0000     0.0000     0.0000 
 7287.5000     0.0000     0.0000 
 7288.0000     0.0000     0.0000 
 7288.5000     0.0000     0.0000 
 7289.0000     0.0215     0.0035 
 7289.5000     0.4807     0.0301 
 7290.0000     1.7550     0.0528 
 7290.5000     2.5283     0.0603 
 7291.0000     1.8462     0.0519 
 7291.5000    18.4142     0.0791 
 7292.0000    72.4345     0.1188 
 7292.5000    29.2372     0.0982 
 7293.0000     1.0086     0.0083 
 7293.5000     0.0021     0.0001 
 7294.0000     0.0000     0.0001 
 7294.5000     0.0003     0.0001 
 7295.0000     0.0013     0.0232 
 7295.5000     0.0002     0.0001 
 7296.0000     0.0000     0.0002 
 7296.5000     0.0000     0.0006 
 7297.0000     0.0000     0.0004 
 7297.5000     0.0001     0.0006 
 7298.0000     0.6250     0.0141 
 7298.5000     3.6765     0.0670 
 7299.0000     0.7457     0.0276 
 7299.5000     0.0073     0.0010 
 7300.0000     0.0000     0.0000 
 7300.5000     0.0000     0.0000 
 7301.0000     0.0000     0.0000 
 7301.5000     0.0000     0.0000 
 7302.0000     0.0000     0.0000 
 7302.5000     0.0000     0.0001 
 7303.0000     0.0000     0.0000 
 7303.5000     0.0000     0.0000 
 7304.0000     0.0000     0.0000 
 7304.5000     0.0000     0.0001 
 7305.0000     0.0000     0.0001 
 7305.5000     0.0000     0.0001 
 7306.0000     0.0000     0.0003 
 7306.5000     0.0000     0.0001 
 7307.0000     0.0000     0.0002 
 7307.5000     0.0000     0.0001 
 7308.0000     0.0000     0.0001 
 7308.5000     0.0000     0.0000 
 7309.0000     0.0000     0.0006 
 7309.5000     0.0001     0.0068 
 7310.0000     0.0149     0.0077 
 7310.5000     0.6171     0.0359 
 7311.0000     2.7827     0.0604 
 7311.5000     1.4422     0.0471 
 7312.0000     0.8721     0.0429 
 7312.5000     0.1460     0.0231 
 7313.0000     0.0001     0.0049 
 7313.5000     0.0001     0.0071 
 7314.0000     0.0000     0.0006 
 7314.5000     0.0000     0.0000 
 7315.0000     0.0000     0.0000 
 7315.5000     0.0000     0.0000 
 7316.0000     0.0000     0.0001 
 7316.5000     0.0000     0.0001 
 7317.0000     0.0000     0.0000 
 7317.5000     0.0000     0.0000 
 7318.0000     0.0000     0.0001 
 7318.5000     0.0000     0.0000 
 7319.0000     0.0000     0.0000 
 7319.5000     0.0000     0.0000 
 7320.0000     0.0000     0.0000 
 7320.5000     0.0000     0.0000 
 7321.0000     0.5880     0.0025 
 7321.5000     3.8343     0.0639 
 7322.0000     9.5212     0.0805 
 7322.5000    13.4079     0.0861 
 7323.0000     2.9038     0.0440 
 7323.5000     0.1836     0.0309 
 7324.0000     1.2933     0.0532 
 7324.5000     0.1973     0.0297 
 7325.0000     0.0194     0.0014 
 7325.5000     0.0000     0.0000 
 7326.0000     0.0000     0.0000 
 7326.5000     0.0000     0.0000 
 7327.0000     0.0000     0.0000 
 7327.5000     0.0000     0.0001 
 7328.0000     0.0000     0.0000 
 7328.5000     0.0000     0.0000 
 7329.0000     0.0000     0.0000 
 7329.5000     0.0000     0.0000 
 7330.0000     0.0711     0.0018 
 7330.5000     1.5049     0.0419 
 7331.0000     5.6836     0.0725 
 7331.5000     5.8283     0.0645 
 7332.0000    13.6464     0.0873 
 7332.5000    12.9593     0.0787 
 7333.0000    30.3149     0.1005 
 7333.5000   140.0615     0.1367 
 7334.0000   115.3858     0.1277 
 7334.5000   145.9462     0.1370 
 7335.0000    56.3243     0.1123 
 7335.5000     8.2910     0.0001 
 7336.0000     2.1895     0.0001 
 7336.5000   201.8466     0.1011 
 7337.0000  1468.8693     0.1792 
 7337.5000  5508.2905     0.2117 
 7338.0000 10079.8359     0.2326 
 7338.5000  1524.3326     0.0143 
 7339.0000     0.0001     0.0001 
 7339.5000     0.0000     0.0000 
 7340.0000     0.0000     0.0001 
 7340.5000     0.0000     0.0003 
 7341.0000     0.0000     0.0011 
 7341.5000     0.0000     0.0004 
 7342.0000     0.0000     0.0002 
 7342.5000     0.0000     0.0009 
 7343.0000     0.0000     0.0025 
 7343.5000     0.0073     0.0065 
 7344.0000     0.8429     0.0434 
 7344.5000     1.3738     0.0492 
 7345.0000     1.2960     0.0464 
 7345.5000     1.8713     0.0540 
 7346.0000     3.1256     0.0528 
 7346.5000    11.4936     0.0813 
 7347.0000    40.0882     0.1041 
 7347.5000    94.6970     0.1237 
 7348.0000   170.4982     0.1353 
 7348.5000   271.7296     0.1469 
 7349.0000   262.4627     0.1480 
 7349.5000    39.5508     0.0086 
 7350.0000     0.0000     0.0002 
 7350.5000     0.0000     0.0000 
 7351.0000     0.0000     0.0000 
 7351.5000     0.0000     0.0000 
 7352.0000     0.0000     0.0000 
 7352.5000     0.0000     0.0000 
 7353.0000     0.0000     0.0000 
 7353.5000     0.0000     0.0000 
 7354.0000     0.0000     0.0001 
 7354.5000     0.0000     0.0001 
 7355.0000     0.0000     0.0002 
 7355.5000     0.0000     0.0002 
 7356.0000     0.0000     0.0001 
 7356.5000     0.0000     0.0000 
 7357.0000     0.0000     0.0000 
 7357.5000     0.0000     0.0001 
 7358.0000     0.0000     0.0006 
 7358.5000     0.0000     0.0023 
 7359.0000     0.0000     0.0002 
 7359.5000     0.0000     0.0001 
 7360.0000     0.0000     0.0000 
 7360.5000     0.0000     0.0000 
