~Version Information
 VERS.                  2.0:   CWLS log ASCII Standard -VERSION 2.0
 WRAP.                   NO:   One line per depth step
~Well Information Block
#MNEM.UNIT       Data Type    Information
#---------     -----------    ---------------------------
 STRT.F              7060.0000:
 STOP.F              8042.5000:
 STEP.F                 0.5000:
 NULL.               -999.2500:
 UWI .                CASN0046:  UWI
 API .                CASN0046:  UWI
 WELL.                 CASN-46:  COMMON WELL NAME
 COMP.               ECOPETROL:  WELL OPERATOR
 FLD .                CASTILLA:  FIELD
 LIC .                 UNKNOWN:  AUTHORIZATION NO
 LOC .                     LLA:  BASIN
 CTRY.                COLOMBIA:  COUNTRY
 STAT.                    META:  STATE
 CNTY.       CASTILLA_LA_NUEVA:  COUNTY
 PROV.                    META:  STATE
 SRVC.                 UNKNOWN:  COMPANY
 DATE.                 UNKNOWN:  LOG RUN DATE
 LONG.           -73.632420309:  LONGITUDE
 LATI.             3.896773166:  LATITUDE
 XCOORD.          1049433.6250:  X COORDINATE
 YCOORD.           922670.1250:  Y COORDINATE
 ELEV.FT             1389.3000:  ELEVATION
 TD  .FT             8065.0000:  TOTAL DEPTH
~Parameter Information Block
#MNEM.UNIT       Value        Description
#---------     -----------    ---------------------------
~Curve Information Block
#MNEM.UNIT                 API CODE     Curve Description
#---------               -----------    ---------------------------
 DEPTH.F                00 000 000 000:  Index Curve
 2019_pPerm_ANS.MD          00 000 000 000:  
 2019_pPhieE_D_ANS.V/V         00 000 000 000:  
~A DEPTH     2019_pPerm_ANS 2019_pPhieE_D_ANS
# ...
 7532.0000   410.0425     0.1730 
 7532.5000   183.4904     0.1560 
 7533.0000   121.4153     0.1458 
 7533.5000   109.9046     0.1459 
 7534.0000   117.5878     0.1470 
 7534.5000   146.9317     0.1517 
 7535.0000   231.2222     0.1590 
 7535.5000   461.5990     0.1776 
 7536.0000   735.1523     0.1891 
 7536.5000   782.7872     0.1906 
 7537.0000   431.1837     0.1736 
 7537.5000   199.3013     0.1564 
 7538.0000   106.5878     0.1440 
 7538.5000   124.3495     0.1486 
 7539.0000   188.1161     0.1573 
 7539.5000   293.1085     0.1683 
 7540.0000   340.2413     0.1700 
 7540.5000   287.9082     0.1672 
 7541.0000   168.9771     0.1574 
 7541.5000    28.2416     0.0509 
 7542.0000     0.0056     0.0006 
 7542.5000     0.0000     0.0000 
 7543.0000     0.0005     0.0002 
 7543.5000    62.2175     0.0100 
 7544.0000   430.2983     0.1836 
 7544.5000  1405.5320     0.2080 
 7545.0000  -999.2500  -999.2500 
 7545.5000  4945.1958     0.2159 
 7546.0000  4843.3535     0.2158 
 7546.5000  4571.5366     0.2152 
 7547.0000  4576.3999     0.2155 
 7547.5000  4527.2886     0.2147 
 7548.0000  4589.4678     0.2145 
 7548.5000  4588.4150     0.2138 
 7549.0000  4473.5273     0.2124 
 7549.5000  4250.5342     0.2092 
 7550.0000  4554.1582     0.2094 
 7550.5000  5536.3652     0.2163 
 7551.0000  6690.2534     0.2220 
 7551.5000  7627.5088     0.2261 
 7552.0000  7822.0312     0.2255 
 7552.5000  8356.0293     0.2275 
 7553.0000  8802.5146     0.2288 
 7553.5000  9068.7383     0.2306 
 7554.0000  6428.5503     0.2210 
 7554.5000  3654.3149     0.2072 
 7555.0000  2162.6077     0.1913 
 7555.5000  2085.2925     0.1968 
 7556.0000  2014.5541     0.1985 
 7556.5000  1122.2894     0.1863 
 7557.0000   338.2084     0.1570 
 7557.5000    78.6924     0.0759 
 7558.0000   260.2829     0.1548 
 7558.5000   522.8382     0.1660 
 7559.0000   664.4930     0.1673 
 7559.5000   822.1576     0.1675 
 7560.0000  1154.5951     0.1755 
 7560.5000  1951.7960     0.1906 
 7561.0000  2979.9038     0.2038 
 7561.5000  3649.7644     0.2107 
 7562.0000  3984.4785     0.2130 
 7562.5000  4091.3450     0.2148 
 7563.0000  4927.5444     0.2226 
 7563.5000  7542.8208     0.2332 
 7564.0000 10789.4863     0.2417 
 7564.5000 14477.7812     0.2509 
 7565.0000 13942.8672     0.2485 
 7565.5000 11650.4258     0.2441 
 7566.0000  7724.0396     0.2295 
 7566.5000  6081.5078     0.2232 
 7567.0000  5045.2910     0.2182 
 7567.5000  3757.6624     0.2085 
 7568.0000  2277.3564     0.1888 
 7568.5000  1765.0654     0.1788 
 7569.0000  3167.7834     0.1980 
 7569.5000  6431.3789     0.2234 
 7570.0000  9787.7207     0.2410 
 7570.5000  9271.4160     0.2400 
 7571.0000  6741.2197     0.2372 
 7571.5000  3845.2112     0.2229 
 7572.0000  2064.9927     0.2053 
 7572.5000  1164.1877     0.1908 
 7573.0000  1369.4193     0.1935 
 7573.5000  1993.9395     0.2048 
 7574.0000  3063.8899     0.2172 
 7574.5000  3214.2185     0.2166 
 7575.0000  2700.4607     0.2109 
 7575.5000  2333.2683     0.2037 
 7576.0000  2898.5386     0.2058 
 7576.5000  4179.5576     0.2137 
 7577.0000  5352.2949     0.2192 
 7577.5000  5980.0737     0.2208 
 7578.0000  5934.9771     0.2196 
 7578.5000  6022.2983     0.2203 
 7579.0000  5697.0366     0.2194 
 7579.5000  4888.9746     0.2151 
 7580.0000  4500.7354     0.2139 
 7580.5000  4676.9224     0.2163 
 7581.0000  4772.7271     0.2176 
 7581.5000  4000.0698     0.2121 
 7582.0000  3289.7942     0.2054 
 7582.5000  2951.0349     0.1995 
 7583.0000  2840.0444     0.1978 
 7583.5000  2712.2231     0.1969 
 7584.0000  2713.5535     0.1983 
 7584.5000  2786.2161     0.2010 
 7585.0000  2700.4443     0.2013 
 7585.5000  2505.0688     0.2010 
 7586.0000  2445.6355     0.2023 
 7586.5000  2579.7842     0.2049 
 7587.0000  2878.9360     0.2084 
 7587.5000  3211.0322     0.2104 
 7588.0000  3645.5264     0.2121 
 7588.5000  3732.2322     0.2121 
 7589.0000  2866.4038     0.2031 
 7589.5000  1925.5485     0.1911 
 7590.0000  1578.7384     0.1847 
 7590.5000  1794.7668     0.1897 
 7591.0000  2139.5505     0.1948 
 7591.5000  2289.0632     0.1953 
 7592.0000  2248.8689     0.1933 
 7592.5000  2324.3232     0.1943 
 7593.0000  2703.7529     0.1994 
 7593.5000  3040.9363     0.2041 
 7594.0000  2646.8279     0.2015 
 7594.5000  1633.3302     0.1861 
 7595.0000  1095.2668     0.1730 
 7595.5000  1015.0091     0.1751 
 7596.0000  1490.3867     0.1877 
 7596.5000  1982.0577     0.1956 
 7597.0000  1905.3044     0.1921 
 7597.5000  2021.5945     0.1945 
 7598.0000  2383.6790     0.1995 
 7598.5000  2951.2832     0.2067 
 7599.0000  2993.5061     0.2055 
 7599.5000  2821.8154     0.2033 
 7600.0000  2876.1997     0.2056 
 7600.5000  2914.7729     0.2105 
 7601.0000  2800.7678     0.2135 
 7601.5000  2386.5388     0.2121 
 7602.0000  2388.0151     0.2090 
 7602.5000  3531.6660     0.2137 
 7603.0000  5427.3921     0.2221 
 7603.5000  6229.6963     0.2277 
 7604.0000  5830.9331     0.2284 
 7604.5000  5655.9585     0.2291 
 7605.0000  5707.9717     0.2296 
 7605.5000  6269.6812     0.2298 
 7606.0000  6454.5879     0.2265 
 7606.5000  6532.9429     0.2244 
 7607.0000  6531.2969     0.2240 
 7607.5000  6730.0767     0.2253 
 7608.0000  7082.6318     0.2280 
 7608.5000  7006.6460     0.2286 
 7609.0000  6224.2554     0.2272 
 7609.5000  5928.4937     0.2277 
 7610.0000  5503.7168     0.2253 
 7610.5000  5242.1719     0.2226 
 7611.0000  4490.2158     0.2157 
 7611.5000  4073.1338     0.2132 
 7612.0000  3645.8586     0.2106 
 7612.5000  3125.2012     0.2062 
 7613.0000  2788.5393     0.2021 
 7613.5000  2546.6780     0.1991 
 7614.0000  2584.0967     0.2002 
 7614.5000  2355.0383     0.1977 
 7615.0000  2044.9027     0.1941 
 7615.5000  1599.2277     0.1863 
 7616.0000   913.4810     0.1691 
 7616.5000   357.5806     0.1467 
 7617.0000   222.5225     0.1342 
 7617.5000   278.2755     0.1444 
 7618.0000   551.2148     0.1636 
 7618.5000   913.8000     0.1777 
 7619.0000  1113.6005     0.1828 
 7619.5000  1277.5317     0.1831 
 7620.0000  1581.9747     0.1889 
 7620.5000  2019.3497     0.1941 
 7621.0000  2462.5034     0.1998 
 7621.5000  2201.3701     0.1944 
 7622.0000  1890.3096     0.1890 
 7622.5000  2024.3409     0.1909 
 7623.0000  2163.1794     0.1925 
 7623.5000  2074.4866     0.1920 
 7624.0000  2056.2039     0.1928 
 7624.5000  2428.9768     0.2005 
 7625.0000  2797.8521     0.2078 
 7625.5000  2661.7913     0.2087 
 7626.0000  2881.4114     0.2102 
 7626.5000  4192.9790     0.2153 
 7627.0000  7107.9707     0.2327 
 7627.5000  8849.0312     0.2462 
 7628.0000  8308.7910     0.2523 
 7628.5000  5034.1245     0.2369 
 7629.0000  2963.5090     0.2196 
 7629.5000  2260.6165     0.2050 
 7630.0000  2486.5552     0.2052 
 7630.5000  3101.9617     0.2081 
 7631.0000  3538.1511     0.2103 
 7631.5000  3109.6140     0.2028 
 7632.0000  2711.0315     0.1976 
 7632.5000  2521.0571     0.1948 
 7633.0000  2349.8169     0.1950 
 7633.5000  2082.3916     0.1921 
 7634.0000  2096.1250     0.1909 
 7634.5000  2473.2356     0.1950 
 7635.0000  2790.7456     0.1990 
 7635.5000  2391.6721     0.1931 
 7636.0000  1270.2103     0.1755 
 7636.5000   593.5955     0.1575 
 7637.0000   521.2778     0.1518 
 7637.5000   754.2063     0.1633 
 7638.0000  1275.5983     0.1781 
 7638.5000  1592.4069     0.1843 
 7639.0000  1409.6161     0.1834 
 7639.5000  1123.3727     0.1820 
 7640.0000   801.2374     0.1811 
 7640.5000   584.7125     0.1799 
 7641.0000   595.8849     0.1796 
 7641.5000  1123.5967     0.1893 
 7642.0000  2409.8555     0.2043 
 7642.5000  3955.2576     0.2135 
 7643.0000  4846.5171     0.2172 
 7643.5000  4443.0439     0.2123 
 7644.0000  4235.3867     0.2107 
 7644.5000  3780.3186     0.2073 
 7645.0000  3118.3022     0.2015 
 7645.5000  2228.4211     0.1922 
 7646.0000  1731.2885     0.1862 
 7646.5000  1903.0255     0.1886 
 7647.0000  2519.3103     0.1992 
 7647.5000  3066.0312     0.2070 
 7648.0000  3420.7156     0.2113 
 7648.5000  3335.6001     0.2117 
 7649.0000  3002.3477     0.2091 
 7649.5000  2630.8022     0.2052 
