~Version Information
 VERS.                  2.0:   CWLS log ASCII Standard -VERSION 2.0
 WRAP.                   NO:   One line per depth step
~Well Information Block
#MNEM.UNIT       Data Type    Information
#---------     -----------    ---------------------------
 STRT.F              7375.0000:
 STOP.F              8337.5000:
 STEP.F                 0.5000:
 NULL.               -999.2500:
 UWI .                CASN0038:  UWI
 API .                CASN0038:  UWI
 WELL.                 CASN-38:  COMMON WELL NAME
 COMP.               ECOPETROL:  WELL OPERATOR
 FLD .                CASTILLA:  FIELD
 LIC .                 UNKNOWN:  AUTHORIZATION NO
 LOC .                     LLA:  BASIN
 CTRY.                COLOMBIA:  COUNTRY
 STAT.                    META:  STATE
 CNTY.       CASTILLA_LA_NUEVA:  COUNTY
 PROV.                    META:  STATE
 SRVC.                 UNKNOWN:  COMPANY
 DATE.                 UNKNOWN:  LOG RUN DATE
 LONG.           -73.615687866:  LONGITUDE
 LATI.             3.887258472:  LATITUDE
 XCOORD.          1051292.6250:  X COORDINATE
 YCOORD.           921618.9375:  Y COORDINATE
 ELEV.FT             1369.0000:  ELEVATION
 TD  .FT             8358.0000:  TOTAL DEPTH
~Parameter Information Block
#MNEM.UNIT       Value        Description
#---------     -----------    ---------------------------
~Curve Information Block
#MNEM.UNIT                 API CODE     Curve Description
#---------               -----------    ---------------------------
 DEPTH.F                00 000 000 000:  Index Curve
 2019_pPerm_ANS.MD          00 000 000 000:  
 2019_pPhieE_D_ANS.V/V         00 000 000 000:  
~A DEPTH     2019_pPerm_ANS 2019_pPhieE_D_ANS
# ...
 7965.0000   447.3698     0.1861 
 7965.5000   214.2812     0.1558 
 7966.0000   326.4891     0.1809 
 7966.5000   101.7995     0.1337 
 7967.0000   658.3193     0.1764 
 7967.5000  2303.5569     0.2486 
 7968.0000  3038.7449     0.2600 
 7968.5000  3259.8450     0.2618 
 7969.0000  1600.9530     0.2226 
 7969.5000    34.3628     0.0339 
 7970.0000     0.0314     0.0090 
 7970.5000     0.0017     0.0027 
 7971.0000     0.0069     0.0096 
 7971.5000     0.0013     0.0022 
 7972.0000     0.0003     0.0012 
 7972.5000     0.0000     0.0004 
 7973.0000     0.0375     0.0006 
 7973.5000    11.6162     0.0420 
 7974.0000   295.4709     0.1463 
 7974.5000  1469.4287     0.2488 
 7975.0000   902.5113     0.2080 
 7975.5000   128.9926     0.0094 
 7976.0000     0.0008     0.0004 
 7976.5000     0.0013     0.0008 
 7977.0000     0.0092     0.0085 
 7977.5000     0.0291     0.0192 
 7978.0000     0.0023     0.0029 
 7978.5000     0.0407     0.0012 
 7979.0000     0.3589     0.0405 
 7979.5000    21.5950     0.1227 
 7980.0000    33.4441     0.1329 
 7980.5000     5.5722     0.0027 
 7981.0000     0.0001     0.0001 
 7981.5000     0.0000     0.0000 
 7982.0000     0.0000     0.0000 
 7982.5000     0.0000     0.0000 
 7983.0000     0.0082     0.0008 
 7983.5000     6.2924     0.0261 
 7984.0000    36.7077     0.1375 
 7984.5000    23.1169     0.1106 
 7985.0000    63.3801     0.1438 
 7985.5000   174.9527     0.1589 
 7986.0000   465.0487     0.1939 
 7986.5000   124.2732     0.1433 
 7987.0000   114.6653     0.1479 
 7987.5000   225.9457     0.1643 
 7988.0000   372.5179     0.1803 
 7988.5000   284.1632     0.1745 
 7989.0000   160.2649     0.1689 
 7989.5000     0.3469     0.0094 
 7990.0000     0.0038     0.0040 
 7990.5000     0.0312     0.0077 
 7991.0000   235.3773     0.0622 
 7991.5000  1322.9857     0.2207 
 7992.0000   507.9560     0.1825 
 7992.5000    86.3550     0.1380 
 7993.0000    39.6403     0.1291 
 7993.5000    20.9458     0.1168 
 7994.0000     9.4147     0.0978 
 7994.5000     8.6184     0.1057 
 7995.0000     1.3257     0.0203 
 7995.5000     0.4491     0.0552 
 7996.0000     0.0614     0.0001 
 7996.5000     0.0000     0.0001 
 7997.0000     0.0007     0.0001 
 7997.5000     0.0060     0.0090 
 7998.0000     0.0007     0.0011 
 7998.5000     0.0001     0.0002 
 7999.0000     0.0000     0.0001 
 7999.5000     0.0000     0.0000 
 8000.0000     0.0001     0.0008 
 8000.5000  1086.9574     0.2171 
 8001.0000  1971.6520     0.2199 
 8001.5000  1227.7632     0.2052 
 8002.0000   308.9074     0.1716 
 8002.5000   169.0051     0.1305 
 8003.0000   628.0785     0.1878 
 8003.5000   825.4567     0.1926 
 8004.0000   832.1111     0.1947 
 8004.5000   412.5133     0.1849 
 8005.0000    49.1020     0.0713 
 8005.5000     0.3153     0.0353 
 8006.0000     0.0748     0.0192 
 8006.5000     0.1221     0.0321 
 8007.0000     0.0512     0.0182 
 8007.5000     0.0282     0.0146 
 8008.0000     0.0589     0.0235 
 8008.5000     0.0552     0.0220 
 8009.0000     0.0158     0.0065 
 8009.5000     1.8928     0.0137 
 8010.0000    79.1833     0.1469 
 8010.5000   203.7038     0.1669 
 8011.0000   200.7969     0.1767 
 8011.5000     7.9557     0.0134 
 8012.0000     0.0032     0.0001 
 8012.5000     0.0000     0.0000 
 8013.0000     0.0003     0.0012 
 8013.5000     0.0859     0.0027 
 8014.0000     4.8603     0.0642 
 8014.5000    24.1020     0.1262 
 8015.0000    14.4377     0.1082 
 8015.5000     9.9541     0.1078 
 8016.0000     1.3060     0.0059 
 8016.5000     0.0040     0.0065 
 8017.0000     0.0007     0.0009 
 8017.5000     0.0025     0.0040 
 8018.0000     0.0161     0.0082 
 8018.5000     0.1416     0.0305 
 8019.0000     0.3362     0.0449 
 8019.5000    16.1210     0.0464 
 8020.0000    96.5639     0.1531 
 8020.5000   178.8542     0.1563 
 8021.0000   466.4911     0.1839 
 8021.5000  1903.9243     0.2398 
 8022.0000  2987.8396     0.2581 
 8022.5000  3193.3870     0.2595 
 8023.0000  3501.4373     0.2675 
 8023.5000  1422.4944     0.2399 
 8024.0000  1499.9286     0.2309 
 8024.5000  1128.1312     0.2027 
 8025.0000   510.0524     0.1875 
 8025.5000    64.2215     0.0271 
 8026.0000     0.0136     0.0045 
 8026.5000     0.0026     0.0047 
 8027.0000     0.0038     0.0049 
 8027.5000     0.0088     0.0097 
 8028.0000     0.0028     0.0037 
 8028.5000     0.0008     0.0019 
 8029.0000     0.0022     0.0049 
 8029.5000     0.0012     0.0030 
 8030.0000     0.0015     0.0036 
 8030.5000     0.0016     0.0037 
 8031.0000     0.0027     0.0045 
 8031.5000     0.0050     0.0067 
 8032.0000     0.0009     0.0007 
 8032.5000     0.0035     0.0015 
 8033.0000     0.0580     0.0259 
 8033.5000     0.0059     0.0024 
 8034.0000    52.3598     0.0006 
 8034.5000   312.0016     0.1853 
 8035.0000   307.1716     0.1859 
 8035.5000   192.1857     0.1673 
 8036.0000   264.9601     0.1729 
 8036.5000   162.1526     0.1612 
 8037.0000    77.7982     0.1484 
 8037.5000    10.8649     0.0257 
 8038.0000     0.0084     0.0018 
 8038.5000     0.0002     0.0006 
 8039.0000     0.0004     0.0006 
 8039.5000   103.6321     0.0049 
 8040.0000   628.5743     0.1975 
 8040.5000   528.0689     0.1909 
 8041.0000   116.2986     0.1523 
 8041.5000    17.9184     0.0346 
 8042.0000     1.2761     0.0340 
 8042.5000   308.6462     0.1563 
 8043.0000  1436.4102     0.2146 
 8043.5000  -999.2500  -999.2500 
 8044.0000 13860.4932     0.2573 
 8044.5000 16374.1348     0.2599 
 8045.0000 10603.4707     0.2384 
 8045.5000 16176.2852     0.2569 
 8046.0000 20000.0000     0.2688 
 8046.5000 20000.0000     0.2760 
 8047.0000 20000.0000     0.2701 
 8047.5000 15315.0879     0.2495 
 8048.0000 11917.3281     0.2419 
 8048.5000 11925.1045     0.2367 
 8049.0000 20000.0000     0.2694 
 8049.5000 20000.0000     0.2672 
 8050.0000 10677.0498     0.2259 
 8050.5000 11902.6562     0.2423 
 8051.0000 14376.0059     0.2442 
 8051.5000 20000.0000     0.2629 
 8052.0000 20000.0000     0.2658 
 8052.5000 20000.0000     0.2683 
 8053.0000 16127.9434     0.2628 
 8053.5000  7312.0249     0.2390 
 8054.0000  5589.2148     0.2386 
 8054.5000  1868.9795     0.2009 
 8055.0000  2202.7966     0.2092 
 8055.5000  5342.4146     0.2295 
 8056.0000 16670.2500     0.2674 
 8056.5000 20000.0000     0.2680 
 8057.0000 14611.1260     0.2577 
 8057.5000 11876.4580     0.2576 
 8058.0000  3693.0356     0.1914 
 8058.5000  6031.1562     0.2301 
 8059.0000  7282.8799     0.2446 
 8059.5000  5308.8262     0.2253 
 8060.0000 11781.8623     0.2547 
 8060.5000 12197.7617     0.2522 
 8061.0000 12169.3438     0.2513 
 8061.5000 12107.0762     0.2505 
 8062.0000  9872.1904     0.2422 
 8062.5000  8263.4268     0.2439 
 8063.0000  4836.0610     0.2215 
 8063.5000  1170.1439     0.1709 
 8064.0000    29.9098     0.0476 
 8064.5000     1.9163     0.0041 
 8065.0000   284.6539     0.0191 
 8065.5000  4203.8735     0.2234 
 8066.0000  8673.3994     0.2455 
 8066.5000  8012.1201     0.2421 
 8067.0000  4937.9429     0.2247 
 8067.5000  2921.7495     0.2078 
 8068.0000  2012.2513     0.1969 
 8068.5000  2429.2273     0.1884 
 8069.0000  7881.9258     0.2371 
 8069.5000  9629.4873     0.2376 
 8070.0000  7464.4404     0.2308 
 8070.5000  6822.0171     0.2347 
 8071.0000  5145.9629     0.2347 
 8071.5000   460.9217     0.1346 
 8072.0000  1476.4625     0.1879 
 8072.5000  3870.2888     0.2239 
 8073.0000  4983.4204     0.2288 
 8073.5000  5478.8604     0.2299 
 8074.0000  6508.0288     0.2336 
 8074.5000  6292.8848     0.2344 
 8075.0000  6109.7690     0.2317 
 8075.5000  7812.1924     0.2326 
 8076.0000 12963.7783     0.2543 
 8076.5000 10291.7373     0.2451 
 8077.0000  6433.9048     0.2298 
 8077.5000  3516.5398     0.2269 
 8078.0000  3005.4619     0.2273 
 8078.5000  1939.0612     0.2091 
 8079.0000  2212.8743     0.2057 
 8079.5000  3570.3618     0.2166 
 8080.0000  5443.3335     0.2283 
 8080.5000  7090.3076     0.2343 
 8081.0000  9972.3486     0.2424 
 8081.5000 12336.4014     0.2428 
 8082.0000 19271.7559     0.2591 
 8082.5000 18497.3945     0.2591 
