~Version Information
 VERS.                  2.0:   CWLS log ASCII Standard -VERSION 2.0
 WRAP.                   NO:   One line per depth step
~Well Information Block
#MNEM.UNIT       Data Type    Information
#---------     -----------    ---------------------------
 STRT.F              7180.5000:
 STOP.F              8032.0000:
 STEP.F                 0.5000:
 NULL.               -999.2500:
 UWI .                CASN0100:  UWI
 API .                CASN0100:  UWI
 WELL.                CASN-100:  COMMON WELL NAME
 COMP.               ECOPETROL:  WELL OPERATOR
 FLD .                CASTILLA:  FIELD
 LIC .                 UNKNOWN:  AUTHORIZATION NO
 LOC .                     LLA:  BASIN
 CTRY.                COLOMBIA:  COUNTRY
 STAT.                    META:  STATE
 CNTY.                 UNKNOWN:  COUNTY
 PROV.                    META:  STATE
 SRVC.                 UNKNOWN:  COMPANY
 DATE.                 UNKNOWN:  LOG RUN DATE
 LONG.           -73.635094741:  LONGITUDE
 LATI.             3.902985680:  LATITUDE
 XCOORD.          1049136.2500:  X COORDINATE
 YCOORD.           923356.9375:  Y COORDINATE
 ELEV.FT             1389.7300:  ELEVATION
 TD  .FT             8083.0000:  TOTAL DEPTH
~Parameter Information Block
#MNEM.UNIT       Value        Description
#---------     -----------    ---------------------------
~Curve Information Block
#MNEM.UNIT                 API CODE     Curve Description
#---------               -----------    ---------------------------
 DEPTH.F                00 000 000 000:  Index Curve
 2019_pPerm_ANS.MD          00 000 000 000:  
 2019_pPhieE_D_ANS.V/V         00 000 000 000:  
~A DEPTH     2019_pPerm_ANS 2019_pPhieE_D_ANS
# ...
 7770.5000  4053.2690     0.2066 
 7771.0000  3963.9929     0.2054 
 7771.5000  3729.1907     0.2035 
 7772.0000  3323.3804     0.1998 
 7772.5000  2827.8069     0.1954 
 7773.0000  2317.3667     0.1902 
 7773.5000  1972.7106     0.1863 
 7774.0000  1820.3434     0.1849 
 7774.5000  1887.3822     0.1861 
 7775.0000  2176.8091     0.1905 
 7775.5000  2618.5615     0.1961 
 7776.0000  2971.7336     0.1993 
 7776.5000  3249.7451     0.2014 
 7777.0000  3331.5747     0.2009 
 7777.5000  3299.5159     0.1998 
 7778.0000  3166.6951     0.1980 
 7778.5000  3047.2954     0.1962 
 7779.0000  2975.1704     0.1957 
 7779.5000  2831.6636     0.1938 
 7780.0000  2669.0095     0.1930 
 7780.5000  2482.0823     0.1937 
 7781.0000  2093.7678     0.1935 
 7781.5000  1658.7693     0.1915 
 7782.0000  1427.6853     0.1870 
 7782.5000  1341.0459     0.1826 
 7783.0000  1520.7871     0.1825 
 7783.5000  1868.3489     0.1861 
 7784.0000  2316.6926     0.1908 
 7784.5000  2634.6519     0.1935 
 7785.0000  2727.7769     0.1941 
 7785.5000  2734.5879     0.1941 
 7786.0000  2723.4199     0.1941 
 7786.5000  2750.8713     0.1947 
 7787.0000  2851.0330     0.1959 
 7787.5000  2962.8103     0.1972 
 7788.0000  2900.1868     0.1966 
 7788.5000  2559.9092     0.1934 
 7789.0000  2195.2961     0.1889 
 7789.5000  2061.1702     0.1871 
 7790.0000  2089.6191     0.1871 
 7790.5000  2255.1990     0.1890 
 7791.0000  2405.4253     0.1909 
 7791.5000  2508.2175     0.1928 
 7792.0000  2613.6436     0.1951 
 7792.5000  2704.6443     0.1978 
 7793.0000  2979.1155     0.2020 
 7793.5000  3357.4988     0.2053 
 7794.0000  3529.8706     0.2065 
 7794.5000  3430.5186     0.2069 
 7795.0000  3369.4473     0.2084 
 7795.5000  3400.0464     0.2101 
 7796.0000  3522.0095     0.2102 
 7796.5000  3998.7952     0.2113 
 7797.0000  4603.4214     0.2130 
 7797.5000  4724.5054     0.2121 
 7798.0000  3997.0735     0.2065 
 7798.5000  2832.7627     0.1964 
 7799.0000  1704.6047     0.1831 
 7799.5000   846.8406     0.1666 
 7800.0000   381.2344     0.1502 
 7800.5000   175.9473     0.1415 
 7801.0000     9.2835     0.0343 
 7801.5000    17.2124     0.0446 
 7802.0000   460.1407     0.1627 
 7802.5000  1010.5846     0.1744 
 7803.0000  1686.6665     0.1831 
 7803.5000  2161.3740     0.1883 
 7804.0000  2365.2942     0.1920 
 7804.5000  2487.5986     0.1943 
 7805.0000  2547.3962     0.1955 
 7805.5000  2309.6609     0.1935 
 7806.0000  1642.9487     0.1855 
 7806.5000  1113.7849     0.1773 
 7807.0000  1036.5203     0.1754 
 7807.5000  1377.7820     0.1805 
 7808.0000  1939.8055     0.1868 
 7808.5000  2362.2197     0.1909 
 7809.0000  2473.7087     0.1916 
 7809.5000  2284.3027     0.1891 
 7810.0000  1963.1501     0.1847 
 7810.5000  1683.4246     0.1803 
 7811.0000  1463.7129     0.1776 
 7811.5000  1295.3021     0.1754 
 7812.0000  1239.8153     0.1758 
 7812.5000  1354.4775     0.1777 
 7813.0000  1609.9382     0.1817 
 7813.5000  1991.6360     0.1864 
 7814.0000  2341.8105     0.1908 
 7814.5000  2441.4661     0.1937 
 7815.0000  2249.1157     0.1923 
 7815.5000  1857.6965     0.1861 
 7816.0000  1521.2788     0.1787 
 7816.5000  1415.0497     0.1752 
 7817.0000  1553.0046     0.1778 
 7817.5000  1844.5684     0.1834 
 7818.0000  2142.0449     0.1878 
 7818.5000  2436.0398     0.1909 
 7819.0000  2838.9136     0.1954 
 7819.5000  3263.1394     0.1997 
 7820.0000  3684.7664     0.2034 
 7820.5000  4032.7827     0.2060 
 7821.0000  4217.1523     0.2067 
 7821.5000  4139.6030     0.2056 
 7822.0000  3914.7502     0.2049 
 7822.5000  3617.4001     0.2028 
 7823.0000  3020.9365     0.1978 
 7823.5000  2317.6472     0.1897 
 7824.0000  1792.9291     0.1810 
 7824.5000  1589.8488     0.1774 
 7825.0000  1643.9829     0.1786 
 7825.5000  1665.9703     0.1797 
 7826.0000  1506.1215     0.1766 
 7826.5000  1271.0118     0.1710 
 7827.0000  1172.8291     0.1680 
 7827.5000  1245.7018     0.1699 
 7828.0000  1285.9938     0.1723 
 7828.5000  1054.2800     0.1693 
 7829.0000   700.8743     0.1605 
 7829.5000   466.5623     0.1506 
 7830.0000   378.0915     0.1455 
 7830.5000   385.3187     0.1462 
 7831.0000   437.6475     0.1510 
 7831.5000   538.6838     0.1578 
 7832.0000   643.2079     0.1617 
 7832.5000   761.5259     0.1641 
 7833.0000   862.7120     0.1646 
 7833.5000   976.6851     0.1662 
 7834.0000  1176.3745     0.1713 
 7834.5000  1554.0297     0.1794 
 7835.0000  2014.1421     0.1864 
 7835.5000  2302.4688     0.1898 
 7836.0000  2274.0408     0.1880 
 7836.5000  2000.6454     0.1843 
 7837.0000  1753.9679     0.1815 
 7837.5000  1663.3564     0.1818 
 7838.0000  1757.4414     0.1847 
 7838.5000  1947.2563     0.1868 
 7839.0000  2110.3123     0.1877 
 7839.5000  2076.8325     0.1861 
 7840.0000  1809.9719     0.1823 
 7840.5000  1361.4791     0.1751 
 7841.0000   822.2372     0.1633 
 7841.5000   414.2780     0.1475 
 7842.0000   243.8674     0.1349 
 7842.5000   216.4091     0.1330 
 7843.0000   410.9415     0.1472 
 7843.5000   977.8001     0.1727 
 7844.0000  2480.7761     0.1974 
 7844.5000  4527.7529     0.2135 
 7845.0000  6288.5435     0.2213 
 7845.5000  6985.3770     0.2228 
 7846.0000  6700.8101     0.2210 
 7846.5000  5945.8027     0.2173 
 7847.0000  4519.8882     0.2097 
 7847.5000  2871.9268     0.1975 
 7848.0000  1628.2108     0.1822 
 7848.5000  1039.1952     0.1701 
 7849.0000   989.5491     0.1694 
 7849.5000  1238.3748     0.1769 
 7850.0000  1381.5919     0.1833 
 7850.5000  1070.2383     0.1822 
 7851.0000   614.4377     0.1728 
 7851.5000   325.7878     0.1577 
 7852.0000   182.4899     0.1414 
 7852.5000   167.9550     0.1344 
 7853.0000   262.7434     0.1424 
 7853.5000   620.2838     0.1599 
 7854.0000  1232.9291     0.1763 
 7854.5000  1706.5217     0.1837 
 7855.0000  1872.7019     0.1840 
 7855.5000  1902.7792     0.1835 
 7856.0000  2013.5902     0.1843 
 7856.5000  2152.4092     0.1862 
 7857.0000  2287.0229     0.1880 
 7857.5000  2465.1680     0.1899 
 7858.0000  2585.3525     0.1912 
 7858.5000  2448.1484     0.1900 
 7859.0000  1985.5762     0.1848 
 7859.5000  1394.0728     0.1762 
 7860.0000   962.7237     0.1671 
 7860.5000   858.1785     0.1650 
 7861.0000  1144.9656     0.1732 
 7861.5000  1815.8782     0.1870 
 7862.0000  2532.9399     0.1977 
 7862.5000  2724.9163     0.2007 
 7863.0000  2074.6753     0.1952 
 7863.5000  1223.5607     0.1832 
 7864.0000   724.7447     0.1690 
 7864.5000   487.7633     0.1574 
 7865.0000   411.2208     0.1491 
 7865.5000   386.4411     0.1462 
 7866.0000   520.5542     0.1515 
 7866.5000   925.4431     0.1659 
 7867.0000  1783.7318     0.1827 
 7867.5000  2654.0903     0.1936 
 7868.0000  2730.2456     0.1948 
 7868.5000  2061.7600     0.1860 
 7869.0000  1319.5978     0.1733 
 7869.5000   936.6409     0.1649 
 7870.0000   871.8206     0.1652 
 7870.5000   842.7762     0.1674 
 7871.0000   596.1788     0.1615 
 7871.5000   269.1355     0.1434 
 7872.0000   104.2329     0.1221 
 7872.5000    86.6467     0.1164 
 7873.0000   166.7991     0.1312 
 7873.5000   469.6868     0.1545 
 7874.0000   925.4448     0.1719 
 7874.5000  1212.3936     0.1806 
 7875.0000  1347.2209     0.1836 
 7875.5000  1326.1230     0.1836 
 7876.0000  1239.5374     0.1817 
 7876.5000  1026.5283     0.1783 
 7877.0000   766.1816     0.1732 
 7877.5000   616.5177     0.1679 
 7878.0000   652.4886     0.1666 
 7878.5000   979.1040     0.1726 
 7879.0000  1560.0862     0.1816 
 7879.5000  2206.9297     0.1890 
 7880.0000  2640.2227     0.1935 
 7880.5000  2680.5681     0.1946 
 7881.0000  2373.8337     0.1925 
 7881.5000  1898.9807     0.1878 
 7882.0000  1574.4535     0.1848 
 7882.5000  1647.0697     0.1893 
 7883.0000  2255.9614     0.1998 
 7883.5000  3070.3718     0.2081 
 7884.0000  3267.1814     0.2090 
 7884.5000  2782.2144     0.2023 
 7885.0000  2217.2368     0.1943 
 7885.5000  1856.9103     0.1877 
 7886.0000  1827.9966     0.1855 
 7886.5000  1930.4637     0.1863 
 7887.0000  1967.2029     0.1869 
 7887.5000  1846.8571     0.1850 
 7888.0000  1679.2474     0.1813 
