~Version Information
 VERS.                  2.0:   CWLS log ASCII Standard -VERSION 2.0
 WRAP.                   NO:   One line per depth step
~Well Information Block
#MNEM.UNIT       Data Type    Information
#---------     -----------    ---------------------------
 STRT.F              7125.0000:
 STOP.F              8192.5000:
 STEP.F                 0.5000:
 NULL.               -999.2500:
 UWI .                CASN0029:  UWI
 API .                CASN0029:  UWI
 WELL.                 CASN-29:  COMMON WELL NAME
 COMP.               ECOPETROL:  WELL OPERATOR
 FLD .                CASTILLA:  FIELD
 LIC .                 UNKNOWN:  AUTHORIZATION NO
 LOC .                     LLA:  BASIN
 CTRY.                COLOMBIA:  COUNTRY
 STAT.                    META:  STATE
 CNTY.       CASTILLA_LA_NUEVA:  COUNTY
 PROV.                    META:  STATE
 SRVC.                 UNKNOWN:  COMPANY
 DATE.                 UNKNOWN:  LOG RUN DATE
 LONG.           -73.616655939:  LONGITUDE
 LATI.             3.893399628:  LATITUDE
 XCOORD.          1051184.7500:  X COORDINATE
 YCOORD.           922298.0000:  Y COORDINATE
 ELEV.FT             1376.0000:  ELEVATION
 TD  .FT             8225.0000:  TOTAL DEPTH
~Parameter Information Block
#MNEM.UNIT       Value        Description
#---------     -----------    ---------------------------
~Curve Information Block
#MNEM.UNIT                 API CODE     Curve Description
#---------               -----------    ---------------------------
 DEPTH.F                00 000 000 000:  Index Curve
 2019_pPerm_ANS.MD          00 000 000 000:  
 2019_pPhieE_D_ANS.V/V         00 000 000 000:  
~A DEPTH     2019_pPerm_ANS 2019_pPhieE_D_ANS
# ...
 7597.0000     1.9448     0.0783 
 7597.5000     0.2664     0.0096 
 7598.0000     0.0019     0.0000 
 7598.5000     0.0000     0.0000 
 7599.0000     0.0000     0.0002 
 7599.5000     0.0000     0.0000 
 7600.0000     0.0000     0.0000 
 7600.5000     0.0000     0.0000 
 7601.0000     0.0009     0.0004 
 7601.5000     0.1668     0.0081 
 7602.0000     1.1010     0.0600 
 7602.5000     2.3518     0.0802 
 7603.0000     1.4157     0.0582 
 7603.5000     9.7759     0.1054 
 7604.0000     8.3402     0.0955 
 7604.5000    13.7550     0.0941 
 7605.0000    44.4815     0.1258 
 7605.5000   215.8067     0.1654 
 7606.0000   391.1790     0.1817 
 7606.5000   409.2507     0.1817 
 7607.0000   432.6787     0.1842 
 7607.5000   280.9226     0.1736 
 7608.0000   186.6539     0.1611 
 7608.5000   235.3312     0.1702 
 7609.0000   193.9650     0.1694 
 7609.5000    26.3281     0.0290 
 7610.0000     0.0193     0.0005 
 7610.5000     0.0000     0.0000 
 7611.0000     0.0000     0.0000 
 7611.5000     0.0000     0.0000 
 7612.0000     0.0000     0.0000 
 7612.5000     0.0000     0.0000 
 7613.0000     0.0016     0.0002 
 7613.5000     0.0176     0.0080 
 7614.0000     0.2668     0.0365 
 7614.5000     0.5638     0.0489 
 7615.0000     0.0950     0.0045 
 7615.5000     0.0001     0.0002 
 7616.0000     0.0000     0.0000 
 7616.5000     0.0000     0.0000 
 7617.0000     0.0014     0.0002 
 7617.5000     0.0321     0.0078 
 7618.0000     0.2759     0.0391 
 7618.5000     0.3459     0.0428 
 7619.0000     0.0787     0.0148 
 7619.5000     0.0158     0.0102 
 7620.0000     0.0036     0.0037 
 7620.5000     0.0003     0.0001 
 7621.0000     0.0000     0.0000 
 7621.5000     0.0000     0.0001 
 7622.0000     0.0002     0.0009 
 7622.5000     0.0007     0.0013 
 7623.0000     0.0027     0.0040 
 7623.5000     0.0073     0.0061 
 7624.0000     0.0172     0.0110 
 7624.5000     0.0046     0.0039 
 7625.0000     0.0000     0.0003 
 7625.5000     0.0000     0.0001 
 7626.0000     0.0001     0.0003 
 7626.5000     0.0092     0.0036 
 7627.0000     0.0434     0.0178 
 7627.5000     0.0180     0.0101 
 7628.0000     0.0014     0.0009 
 7628.5000     0.0000     0.0001 
 7629.0000     0.0000     0.0003 
 7629.5000     0.0001     0.0008 
 7630.0000     0.0001     0.0005 
 7630.5000     0.0003     0.0011 
 7631.0000     0.0003     0.0014 
 7631.5000     0.0000     0.0001 
 7632.0000     0.0000     0.0000 
 7632.5000     0.0000     0.0000 
 7633.0000     0.0001     0.0005 
 7633.5000     0.0007     0.0011 
 7634.0000     0.0078     0.0068 
 7634.5000     0.0225     0.0129 
 7635.0000     0.0880     0.0224 
 7635.5000     0.2284     0.0367 
 7636.0000     9.7052     0.0479 
 7636.5000    56.3167     0.1404 
 7637.0000    73.9259     0.1464 
 7637.5000    55.0262     0.1378 
 7638.0000    39.4709     0.1274 
 7638.5000    43.6404     0.1331 
 7639.0000    27.8005     0.1226 
 7639.5000    18.3788     0.1145 
 7640.0000    18.6035     0.1141 
 7640.5000    23.7840     0.1244 
 7641.0000     3.4849     0.0316 
 7641.5000     0.1296     0.0294 
 7642.0000     0.0854     0.0248 
 7642.5000     0.0233     0.0105 
 7643.0000     0.0022     0.0029 
 7643.5000     0.0004     0.0013 
 7644.0000     0.0000     0.0003 
 7644.5000     0.0000     0.0001 
 7645.0000     0.0001     0.0003 
 7645.5000     0.0045     0.0051 
 7646.0000     0.0122     0.0097 
 7646.5000     0.0176     0.0131 
 7647.0000     0.0045     0.0053 
 7647.5000     0.0013     0.0018 
 7648.0000     0.0023     0.0035 
 7648.5000     0.0082     0.0091 
 7649.0000     0.0032     0.0041 
 7649.5000     0.0028     0.0049 
 7650.0000     0.0011     0.0018 
 7650.5000     0.0312     0.0044 
 7651.0000     1.8343     0.0362 
 7651.5000    12.7578     0.1094 
 7652.0000    16.5798     0.1165 
 7652.5000     2.8741     0.0644 
 7653.0000     0.2128     0.0206 
 7653.5000     0.0109     0.0072 
 7654.0000     0.0087     0.0082 
 7654.5000     0.0098     0.0087 
 7655.0000     0.0096     0.0083 
 7655.5000     0.0111     0.0093 
 7656.0000     0.0782     0.0069 
 7656.5000     0.4363     0.0467 
 7657.0000     0.4168     0.0482 
 7657.5000     0.1473     0.0294 
 7658.0000     0.1573     0.0343 
 7658.5000     0.0421     0.0156 
 7659.0000     0.0532     0.0156 
 7659.5000     0.1880     0.0327 
 7660.0000     0.4038     0.0491 
 7660.5000     0.1510     0.0285 
 7661.0000     0.0189     0.0055 
 7661.5000     0.0005     0.0002 
 7662.0000     0.0000     0.0000 
 7662.5000     0.0192     0.0013 
 7663.0000     0.5517     0.0299 
 7663.5000     4.7318     0.0880 
 7664.0000     8.7603     0.1009 
 7664.5000     2.3034     0.0639 
 7665.0000     0.0561     0.0037 
 7665.5000     0.0140     0.0063 
 7666.0000     0.0943     0.0212 
 7666.5000     4.1464     0.0730 
 7667.0000    18.1154     0.1148 
 7667.5000    52.8520     0.1262 
 7668.0000   132.1114     0.1551 
 7668.5000    61.5841     0.1385 
 7669.0000     4.6081     0.0601 
 7669.5000     0.8609     0.0524 
 7670.0000     6.1824     0.0753 
 7670.5000    37.3314     0.1367 
 7671.0000     5.6324     0.0218 
 7671.5000     0.0130     0.0004 
 7672.0000    23.3514     0.0164 
 7672.5000   149.9374     0.1632 
 7673.0000    54.4530     0.1189 
 7673.5000    50.2032     0.1044 
 7674.0000   554.7781     0.1683 
 7674.5000  2154.0938     0.2458 
 7675.0000  3926.4377     0.2803 
 7675.5000  3262.8962     0.2626 
 7676.0000  2801.4248     0.2625 
 7676.5000  2636.8262     0.2707 
 7677.0000  1320.3668     0.2368 
 7677.5000   972.0514     0.2029 
 7678.0000  1170.3619     0.2074 
 7678.5000  1384.5394     0.2138 
 7679.0000  1070.5200     0.2083 
 7679.5000   745.2582     0.2000 
 7680.0000   578.2852     0.1975 
 7680.5000   264.8047     0.1733 
 7681.0000   152.0160     0.1591 
 7681.5000   123.8101     0.1569 
 7682.0000    91.0961     0.1541 
 7682.5000    17.2082     0.0572 
 7683.0000    28.3963     0.1265 
 7683.5000    41.6243     0.1269 
 7684.0000    75.6606     0.1433 
 7684.5000    88.1432     0.1481 
 7685.0000    77.9398     0.1423 
 7685.5000    75.1454     0.1449 
 7686.0000    51.5533     0.1378 
 7686.5000     8.6594     0.0300 
 7687.0000     0.0022     0.0004 
 7687.5000     0.0000     0.0002 
 7688.0000     0.0003     0.0007 
 7688.5000     0.0191     0.0096 
 7689.0000     0.0661     0.0221 
 7689.5000     0.0695     0.0238 
 7690.0000     0.0289     0.0133 
 7690.5000     0.0447     0.0200 
 7691.0000     0.0225     0.0127 
 7691.5000     0.0070     0.0064 
 7692.0000     0.0015     0.0027 
 7692.5000     0.0009     0.0025 
 7693.0000     0.0002     0.0011 
 7693.5000     0.0000     0.0001 
 7694.0000     0.0000     0.0000 
 7694.5000     0.0002     0.0002 
 7695.0000     0.0056     0.0040 
 7695.5000     0.0237     0.0141 
 7696.0000     0.0248     0.0107 
 7696.5000     0.1399     0.0219 
 7697.0000     1.4388     0.0744 
 7697.5000     1.0406     0.0624 
 7698.0000     0.1898     0.0144 
 7698.5000     0.0063     0.0067 
 7699.0000     0.0013     0.0016 
 7699.5000     0.0001     0.0005 
 7700.0000     0.0015     0.0003 
 7700.5000     0.1020     0.0085 
 7701.0000     0.9611     0.0670 
 7701.5000     0.3553     0.0400 
 7702.0000     0.0413     0.0036 
 7702.5000     0.0016     0.0021 
 7703.0000     0.0231     0.0077 
 7703.5000     0.3056     0.0299 
 7704.0000     1.3469     0.0707 
 7704.5000     0.8927     0.0602 
 7705.0000     0.1147     0.0169 
 7705.5000     2.5240     0.0140 
 7706.0000    17.0800     0.1131 
 7706.5000    31.7613     0.1278 
 7707.0000     4.3615     0.0807 
 7707.5000     0.4854     0.0074 
 7708.0000     0.0002     0.0006 
 7708.5000     0.0000     0.0003 
 7709.0000     0.0000     0.0002 
 7709.5000     0.0007     0.0019 
 7710.0000     0.0020     0.0037 
 7710.5000     0.0039     0.0060 
 7711.0000     0.0021     0.0038 
 7711.5000     0.0004     0.0005 
 7712.0000     0.0005     0.0002 
 7712.5000     0.3225     0.0060 
 7713.0000     3.4275     0.0791 
 7713.5000    11.4746     0.1095 
 7714.0000     4.1829     0.0804 
 7714.5000     1.1515     0.0629 
