~Version Information
 VERS.                  2.0:   CWLS log ASCII Standard -VERSION 2.0
 WRAP.                   NO:   One line per depth step
~Well Information Block
#MNEM.UNIT       Data Type    Information
#---------     -----------    ---------------------------
 STRT.F              7353.0000:
 STOP.F              8528.5000:
 STEP.F                 0.5000:
 NULL.               -999.2500:
 UWI .                CASN0108:  UWI
 API .                CASN0108:  UWI
 WELL.                CASN-108:  COMMON WELL NAME
 COMP.               ECOPETROL:  WELL OPERATOR
 FLD .                CASTILLA:  FIELD
 LIC .                 UNKNOWN:  AUTHORIZATION NO
 LOC .                     LLA:  BASIN
 CTRY.                COLOMBIA:  COUNTRY
 STAT.                    META:  STATE
 CNTY.                 UNKNOWN:  COUNTY
 PROV.                    META:  STATE
 SRVC.                 UNKNOWN:  COMPANY
 DATE.                 UNKNOWN:  LOG RUN DATE
 LONG.           -73.606511044:  LONGITUDE
 LATI.             3.902261590:  LATITUDE
 XCOORD.          1052311.0000:  X COORDINATE
 YCOORD.           923278.6250:  Y COORDINATE
 ELEV.FT             1333.7070:  ELEVATION
 TD  .FT             8565.0000:  TOTAL DEPTH
~Parameter Information Block
#MNEM.UNIT       Value        Description
#---------     -----------    ---------------------------
~Curve Information Block
#MNEM.UNIT                 API CODE     Curve Description
#---------               -----------    ---------------------------
 DEPTH.F                00 000 000 000:  Index Curve
 2019_pPerm_ANS.MD          00 000 000 000:  
 2019_pPhieE_D_ANS.V/V         00 000 000 000:  
~A DEPTH     2019_pPerm_ANS 2019_pPhieE_D_ANS
# ...
 7589.0000     0.0001     0.0006 
 7589.5000     0.0001     0.0006 
 7590.0000     0.0001     0.0007 
 7590.5000     0.0001     0.0008 
 7591.0000     0.0002     0.0008 
 7591.5000     0.0003     0.0011 
 7592.0000     0.0006     0.0018 
 7592.5000     0.0011     0.0026 
 7593.0000     0.0009     0.0023 
 7593.5000     0.0004     0.0014 
 7594.0000     0.0002     0.0009 
 7594.5000     0.0001     0.0007 
 7595.0000     0.0001     0.0005 
 7595.5000     0.0000     0.0003 
 7596.0000     0.0000     0.0002 
 7596.5000     0.0000     0.0003 
 7597.0000     0.0000     0.0003 
 7597.5000     0.0000     0.0003 
 7598.0000     0.0000     0.0003 
 7598.5000     0.0000     0.0003 
 7599.0000     0.0000     0.0004 
 7599.5000     0.0000     0.0004 
 7600.0000     0.0000     0.0004 
 7600.5000     0.0001     0.0005 
 7601.0000     0.0002     0.0010 
 7601.5000     0.0004     0.0014 
 7602.0000     0.0002     0.0011 
 7602.5000     0.0001     0.0005 
 7603.0000     0.0000     0.0002 
 7603.5000     0.0000     0.0002 
 7604.0000     0.0000     0.0002 
 7604.5000     0.0000     0.0002 
 7605.0000     0.0000     0.0001 
 7605.5000     0.0000     0.0001 
 7606.0000     0.0000     0.0001 
 7606.5000     0.0005     0.0006 
 7607.0000     0.0061     0.0041 
 7607.5000     0.0798     0.0185 
 7608.0000     0.3062     0.0394 
 7608.5000     0.5805     0.0508 
 7609.0000     0.6654     0.0533 
 7609.5000     0.4941     0.0470 
 7610.0000     0.3327     0.0410 
 7610.5000     0.1775     0.0318 
 7611.0000     0.0646     0.0191 
 7611.5000     0.0131     0.0085 
 7612.0000     0.0034     0.0039 
 7612.5000     0.0013     0.0026 
 7613.0000     0.0011     0.0024 
 7613.5000     0.0012     0.0027 
 7614.0000     0.0010     0.0025 
 7614.5000     0.0005     0.0016 
 7615.0000     0.0004     0.0014 
 7615.5000     0.0004     0.0013 
 7616.0000     0.0003     0.0014 
 7616.5000     0.0002     0.0010 
 7617.0000     0.0001     0.0005 
 7617.5000     0.0000     0.0003 
 7618.0000     0.0000     0.0003 
 7618.5000     0.0000     0.0003 
 7619.0000     0.0000     0.0002 
 7619.5000     0.0000     0.0003 
 7620.0000     0.0001     0.0007 
 7620.5000     0.0004     0.0013 
 7621.0000     0.0010     0.0024 
 7621.5000     0.0017     0.0032 
 7622.0000     0.0024     0.0041 
 7622.5000     0.0015     0.0030 
 7623.0000     0.0005     0.0014 
 7623.5000     0.0002     0.0008 
 7624.0000     0.0001     0.0008 
 7624.5000     0.0002     0.0011 
 7625.0000     0.0004     0.0013 
 7625.5000     0.0003     0.0012 
 7626.0000     0.0002     0.0010 
 7626.5000     0.0002     0.0008 
 7627.0000     0.0001     0.0007 
 7627.5000     0.0001     0.0005 
 7628.0000     0.0000     0.0003 
 7628.5000     0.0000     0.0002 
 7629.0000     0.0000     0.0003 
 7629.5000     0.0004     0.0010 
 7630.0000     0.0023     0.0031 
 7630.5000     0.0102     0.0079 
 7631.0000     0.0301     0.0139 
 7631.5000     0.0638     0.0211 
 7632.0000     0.0713     0.0227 
 7632.5000     0.0434     0.0172 
 7633.0000     0.0178     0.0103 
 7633.5000     0.0054     0.0058 
 7634.0000     0.0027     0.0040 
 7634.5000     0.0015     0.0030 
 7635.0000     0.0010     0.0022 
 7635.5000     0.0006     0.0017 
 7636.0000     0.0003     0.0013 
 7636.5000     0.0002     0.0008 
 7637.0000     0.0000     0.0004 
 7637.5000     0.0000     0.0001 
 7638.0000     0.0000     0.0001 
 7638.5000     0.0000     0.0000 
 7639.0000     0.0000     0.0001 
 7639.5000     0.0001     0.0005 
 7640.0000     0.0002     0.0009 
 7640.5000     0.0001     0.0006 
 7641.0000     0.0000     0.0001 
 7641.5000     0.0000     0.0000 
 7642.0000     0.0000     0.0000 
 7642.5000     0.0000     0.0000 
 7643.0000     0.0000     0.0000 
 7643.5000     0.0000     0.0000 
 7644.0000     0.0000     0.0000 
 7644.5000     0.0000     0.0000 
 7645.0000     0.0000     0.0001 
 7645.5000     0.0000     0.0001 
 7646.0000     0.0000     0.0001 
 7646.5000     0.0000     0.0001 
 7647.0000     0.0000     0.0001 
 7647.5000     0.0000     0.0001 
 7648.0000     0.0000     0.0000 
 7648.5000     0.0000     0.0000 
 7649.0000     0.0000     0.0000 
 7649.5000     0.0000     0.0000 
 7650.0000     0.0000     0.0000 
 7650.5000     0.0000     0.0000 
 7651.0000     0.0000     0.0000 
 7651.5000     0.0000     0.0000 
 7652.0000     0.0000     0.0000 
 7652.5000     0.0000     0.0000 
 7653.0000     0.0000     0.0000 
 7653.5000     0.0000     0.0000 
 7654.0000     0.0000     0.0000 
 7654.5000     0.0000     0.0000 
 7655.0000     0.0000     0.0001 
 7655.5000     0.0000     0.0001 
 7656.0000     0.0000     0.0001 
 7656.5000     0.0000     0.0001 
 7657.0000     0.0000     0.0002 
 7657.5000     0.0000     0.0004 
 7658.0000     0.0003     0.0011 
 7658.5000     0.0012     0.0027 
 7659.0000     0.0017     0.0033 
 7659.5000     0.0015     0.0030 
 7660.0000     0.0016     0.0030 
 7660.5000     0.0017     0.0033 
 7661.0000     0.0011     0.0026 
 7661.5000     0.0003     0.0011 
 7662.0000     0.0000     0.0003 
 7662.5000     0.0000     0.0001 
 7663.0000     0.0000     0.0001 
 7663.5000     0.0000     0.0000 
 7664.0000     0.0000     0.0000 
 7664.5000     0.0000     0.0000 
 7665.0000     0.0000     0.0000 
 7665.5000     0.0000     0.0000 
 7666.0000     0.0000     0.0000 
 7666.5000     0.0000     0.0000 
 7667.0000     0.0000     0.0000 
 7667.5000     0.0000     0.0001 
 7668.0000     0.0000     0.0002 
 7668.5000     0.0000     0.0002 
 7669.0000     0.0000     0.0001 
 7669.5000     0.0000     0.0000 
 7670.0000     0.0000     0.0000 
 7670.5000     0.0000     0.0000 
 7671.0000     0.0000     0.0000 
 7671.5000     0.0000     0.0000 
 7672.0000     0.0000     0.0000 
 7672.5000     0.0000     0.0000 
 7673.0000     0.0000     0.0000 
 7673.5000     0.0000     0.0000 
 7674.0000     0.0000     0.0000 
 7674.5000     0.0000     0.0000 
 7675.0000     0.0000     0.0000 
 7675.5000     0.0000     0.0000 
 7676.0000     0.0000     0.0000 
 7676.5000     0.0000     0.0000 
 7677.0000     0.0000     0.0001 
 7677.5000     0.0000     0.0004 
 7678.0000     0.0001     0.0005 
 7678.5000     0.0000     0.0004 
 7679.0000     0.0000     0.0003 
 7679.5000     0.0000     0.0004 
 7680.0000     0.0004     0.0011 
 7680.5000     0.0010     0.0025 
 7681.0000     0.0008     0.0022 
 7681.5000     0.0003     0.0009 
 7682.0000     0.0000     0.0004 
 7682.5000     0.0000     0.0002 
 7683.0000     0.0000     0.0001 
 7683.5000     0.0000     0.0001 
 7684.0000     0.0000     0.0001 
 7684.5000     0.0000     0.0000 
 7685.0000     0.0000     0.0000 
 7685.5000     0.0000     0.0000 
 7686.0000     0.0000     0.0002 
 7686.5000     0.0001     0.0008 
 7687.0000     0.0001     0.0008 
 7687.5000     0.0000     0.0002 
 7688.0000     0.0000     0.0001 
 7688.5000     0.0000     0.0000 
 7689.0000     0.0000     0.0000 
 7689.5000     0.0000     0.0000 
 7690.0000     0.0000     0.0000 
 7690.5000     0.0000     0.0000 
 7691.0000     0.0000     0.0000 
 7691.5000     0.0000     0.0001 
 7692.0000     0.0000     0.0003 
 7692.5000     0.0001     0.0007 
 7693.0000     0.0001     0.0008 
 7693.5000     0.0001     0.0007 
 7694.0000     0.0001     0.0006 
 7694.5000     0.0001     0.0006 
 7695.0000     0.0001     0.0005 
 7695.5000     0.0001     0.0005 
 7696.0000     0.0001     0.0006 
 7696.5000     0.0002     0.0009 
 7697.0000     0.0002     0.0008 
 7697.5000     0.0001     0.0004 
 7698.0000     0.0000     0.0003 
 7698.5000     0.0000     0.0003 
 7699.0000     0.0001     0.0006 
 7699.5000     0.0001     0.0007 
 7700.0000     0.0000     0.0003 
 7700.5000     0.0000     0.0001 
 7701.0000     0.0000     0.0001 
 7701.5000     0.0000     0.0000 
 7702.0000     0.0000     0.0000 
 7702.5000     0.0000     0.0001 
 7703.0000     0.0001     0.0003 
 7703.5000     0.0004     0.0013 
 7704.0000     0.0010     0.0025 
 7704.5000     0.0009     0.0023 
 7705.0000     0.0006     0.0017 
 7705.5000     0.0009     0.0023 
 7706.0000     0.0013     0.0028 
 7706.5000     0.0005     0.0014 
