~Version Information
 VERS.                  2.0:   CWLS log ASCII Standard -VERSION 2.0
 WRAP.                   NO:   One line per depth step
~Well Information Block
#MNEM.UNIT       Data Type    Information
#---------     -----------    ---------------------------
 STRT.F              7180.5000:
 STOP.F              8032.0000:
 STEP.F                 0.5000:
 NULL.               -999.2500:
 UWI .                CASN0100:  UWI
 API .                CASN0100:  UWI
 WELL.                CASN-100:  COMMON WELL NAME
 COMP.               ECOPETROL:  WELL OPERATOR
 FLD .                CASTILLA:  FIELD
 LIC .                 UNKNOWN:  AUTHORIZATION NO
 LOC .                     LLA:  BASIN
 CTRY.                COLOMBIA:  COUNTRY
 STAT.                    META:  STATE
 CNTY.                 UNKNOWN:  COUNTY
 PROV.                    META:  STATE
 SRVC.                 UNKNOWN:  COMPANY
 DATE.                 UNKNOWN:  LOG RUN DATE
 LONG.           -73.635094741:  LONGITUDE
 LATI.             3.902985680:  LATITUDE
 XCOORD.          1049136.2500:  X COORDINATE
 YCOORD.           923356.9375:  Y COORDINATE
 ELEV.FT             1389.7300:  ELEVATION
 TD  .FT             8083.0000:  TOTAL DEPTH
~Parameter Information Block
#MNEM.UNIT       Value        Description
#---------     -----------    ---------------------------
~Curve Information Block
#MNEM.UNIT                 API CODE     Curve Description
#---------               -----------    ---------------------------
 DEPTH.F                00 000 000 000:  Index Curve
 2019_pPerm_ANS.MD          00 000 000 000:  
 2019_pPhieE_D_ANS.V/V         00 000 000 000:  
~A DEPTH     2019_pPerm_ANS 2019_pPhieE_D_ANS
# ...
 7534.5000     0.0130     0.0093 
 7535.0000     0.0173     0.0124 
 7535.5000     0.0042     0.0048 
 7536.0000     0.0002     0.0005 
 7536.5000     0.0000     0.0000 
 7537.0000     0.0000     0.0000 
 7537.5000     0.0000     0.0000 
 7538.0000     0.0000     0.0000 
 7538.5000     0.0000     0.0000 
 7539.0000     0.0000     0.0000 
 7539.5000     0.0000     0.0000 
 7540.0000     0.0000     0.0000 
 7540.5000     0.0000     0.0000 
 7541.0000     0.0000     0.0000 
 7541.5000     0.0000     0.0000 
 7542.0000     0.0000     0.0000 
 7542.5000     0.0000     0.0000 
 7543.0000     0.0000     0.0000 
 7543.5000     0.0000     0.0000 
 7544.0000     0.0000     0.0000 
 7544.5000     0.0000     0.0000 
 7545.0000     0.0000     0.0000 
 7545.5000     0.0000     0.0000 
 7546.0000     0.0000     0.0000 
 7546.5000     0.0000     0.0000 
 7547.0000     0.0000     0.0000 
 7547.5000     0.0000     0.0000 
 7548.0000     0.0000     0.0000 
 7548.5000     0.0000     0.0000 
 7549.0000     0.0000     0.0000 
 7549.5000     0.0000     0.0000 
 7550.0000     0.0000     0.0000 
 7550.5000     0.0000     0.0000 
 7551.0000     0.0000     0.0000 
 7551.5000     0.0000     0.0000 
 7552.0000     0.0000     0.0000 
 7552.5000     0.0000     0.0000 
 7553.0000     0.0000     0.0000 
 7553.5000     0.0000     0.0000 
 7554.0000     0.0000     0.0000 
 7554.5000     0.0000     0.0001 
 7555.0000     0.0000     0.0003 
 7555.5000     0.0001     0.0005 
 7556.0000     0.0001     0.0007 
 7556.5000     0.0002     0.0010 
 7557.0000     0.0004     0.0013 
 7557.5000     0.0003     0.0012 
 7558.0000     0.0001     0.0007 
 7558.5000     0.0001     0.0006 
 7559.0000     0.0002     0.0009 
 7559.5000     0.0002     0.0009 
 7560.0000     0.0001     0.0006 
 7560.5000     0.0001     0.0003 
 7561.0000     0.0000     0.0002 
 7561.5000     0.0000     0.0002 
 7562.0000     0.0000     0.0001 
 7562.5000     0.0000     0.0000 
 7563.0000     0.0000     0.0000 
 7563.5000     0.0000     0.0000 
 7564.0000     0.0000     0.0000 
 7564.5000     0.0001     0.0000 
 7565.0000     1.1403     0.0072 
 7565.5000    51.6010     0.1341 
 7566.0000   155.7171     0.1522 
 7566.5000   255.5922     0.1621 
 7567.0000   320.9061     0.1672 
 7567.5000   347.2409     0.1696 
 7568.0000   320.1815     0.1681 
 7568.5000   244.3326     0.1618 
 7569.0000   150.1261     0.1499 
 7569.5000    74.5195     0.1343 
 7570.0000    31.6913     0.1165 
 7570.5000    13.6969     0.1026 
 7571.0000     9.7612     0.0976 
 7571.5000    11.5050     0.1018 
 7572.0000    16.8001     0.1092 
 7572.5000    20.5765     0.1135 
 7573.0000    20.3145     0.1134 
 7573.5000    18.0706     0.1114 
 7574.0000    14.2011     0.1074 
 7574.5000    10.2603     0.1016 
 7575.0000     6.1917     0.0923 
 7575.5000     2.7951     0.0801 
 7576.0000     0.1857     0.0235 
 7576.5000     0.0012     0.0011 
 7577.0000     0.0000     0.0000 
 7577.5000     0.0000     0.0000 
 7578.0000     0.0000     0.0000 
 7578.5000     0.0000     0.0000 
 7579.0000     0.0000     0.0000 
 7579.5000     0.0000     0.0000 
 7580.0000     0.0000     0.0000 
 7580.5000     0.0000     0.0000 
 7581.0000     0.0000     0.0000 
 7581.5000     0.0000     0.0000 
 7582.0000     0.0000     0.0000 
 7582.5000     0.0003     0.0006 
 7583.0000     0.0074     0.0069 
 7583.5000     0.0220     0.0151 
 7584.0000     0.0070     0.0066 
 7584.5000     0.0003     0.0007 
 7585.0000     0.0000     0.0000 
 7585.5000     0.0000     0.0000 
 7586.0000     0.0000     0.0000 
 7586.5000     0.0000     0.0000 
 7587.0000     0.0000     0.0000 
 7587.5000     0.0000     0.0000 
 7588.0000     0.0000     0.0000 
 7588.5000     0.0000     0.0000 
 7589.0000     0.0000     0.0000 
 7589.5000     0.0000     0.0000 
 7590.0000     0.0000     0.0000 
 7590.5000     0.0000     0.0000 
 7591.0000     0.0000     0.0000 
 7591.5000     0.0000     0.0000 
 7592.0000     0.0000     0.0000 
 7592.5000     0.0000     0.0000 
 7593.0000     0.0000     0.0000 
 7593.5000     0.0000     0.0001 
 7594.0000     0.0000     0.0002 
 7594.5000     0.0001     0.0006 
 7595.0000     0.0001     0.0008 
 7595.5000     0.0001     0.0006 
 7596.0000     0.0000     0.0004 
 7596.5000     0.0000     0.0003 
 7597.0000     0.0001     0.0005 
 7597.5000     0.0005     0.0015 
 7598.0000     0.0025     0.0040 
 7598.5000     0.0045     0.0057 
 7599.0000     0.0030     0.0043 
 7599.5000     0.0016     0.0027 
 7600.0000     0.0021     0.0034 
 7600.5000     0.0029     0.0048 
 7601.0000     0.0010     0.0021 
 7601.5000     0.0004     0.0008 
 7602.0000     0.0105     0.0042 
 7602.5000    21.4257     0.0673 
 7603.0000   204.9303     0.1607 
 7603.5000  1532.7988     0.2056 
 7604.0000  1987.4410     0.2397 
 7604.5000  2830.7336     0.2562 
 7605.0000  3002.6721     0.2580 
 7605.5000  2535.0396     0.2504 
 7606.0000  2021.5690     0.2404 
 7606.5000  1800.0367     0.2354 
 7607.0000  1746.0457     0.2347 
 7607.5000  1915.8804     0.2311 
 7608.0000  1839.1915     0.2166 
 7608.5000   698.0545     0.1912 
 7609.0000   236.6413     0.1648 
 7609.5000   138.4141     0.1519 
 7610.0000   212.6743     0.1601 
 7610.5000   478.4179     0.1789 
 7611.0000   863.4261     0.1945 
 7611.5000  1075.6035     0.2005 
 7612.0000  1023.4678     0.1998 
 7612.5000   748.0820     0.1916 
 7613.0000   373.3544     0.1740 
 7613.5000   106.2469     0.1450 
 7614.0000    20.6925     0.1060 
 7614.5000     1.5319     0.0675 
 7615.0000     0.0118     0.0020 
 7615.5000     0.0000     0.0000 
 7616.0000     0.0000     0.0000 
 7616.5000     0.0000     0.0000 
 7617.0000     0.0000     0.0000 
 7617.5000     0.0009     0.0005 
 7618.0000     0.1302     0.0146 
 7618.5000    20.4147     0.1170 
 7619.0000    49.6708     0.1323 
 7619.5000    58.5543     0.1362 
 7620.0000    28.9249     0.1256 
 7620.5000     0.1057     0.0129 
 7621.0000     0.0136     0.0054 
 7621.5000     7.4191     0.0426 
 7622.0000    50.8131     0.1306 
 7622.5000   124.9702     0.1501 
 7623.0000   178.1654     0.1581 
 7623.5000   213.9025     0.1612 
 7624.0000   351.2108     0.1723 
 7624.5000   974.5917     0.1947 
 7625.0000  2164.2390     0.2163 
 7625.5000  2336.5061     0.2206 
 7626.0000  1124.9382     0.2002 
 7626.5000   245.0252     0.1582 
 7627.0000    17.4569     0.1064 
 7627.5000     1.3635     0.0430 
 7628.0000     0.0473     0.0156 
 7628.5000     0.0132     0.0082 
 7629.0000     0.0302     0.0094 
 7629.5000     6.1701     0.0462 
 7630.0000   102.3980     0.1405 
 7630.5000   742.6311     0.1875 
 7631.0000  2086.9846     0.2224 
 7631.5000  2010.6700     0.2407 
 7632.0000  2260.1091     0.2457 
 7632.5000  2254.2786     0.2452 
 7633.0000  2226.0374     0.2449 
 7633.5000  2216.4346     0.2445 
 7634.0000  2156.1790     0.2439 
 7634.5000  1851.2245     0.2371 
 7635.0000  1961.8820     0.2206 
 7635.5000   764.6949     0.1903 
 7636.0000   140.8505     0.1457 
 7636.5000     2.9577     0.0646 
 7637.0000     0.0903     0.0154 
 7637.5000     0.0276     0.0120 
 7638.0000     0.3322     0.0306 
 7638.5000    11.6431     0.1064 
 7639.0000    18.4288     0.1139 
 7639.5000     4.1504     0.0641 
 7640.0000     0.0085     0.0019 
 7640.5000     0.0000     0.0000 
 7641.0000     0.0000     0.0000 
 7641.5000     0.0000     0.0000 
 7642.0000     0.0000     0.0000 
 7642.5000     0.0004     0.0005 
 7643.0000     0.0429     0.0099 
 7643.5000     5.6356     0.0822 
 7644.0000    13.8881     0.1067 
 7644.5000     6.2974     0.0904 
 7645.0000     1.6899     0.0697 
 7645.5000     0.0920     0.0150 
 7646.0000     0.0035     0.0045 
 7646.5000     0.0496     0.0102 
 7647.0000     1.1134     0.0609 
 7647.5000     6.3713     0.0865 
 7648.0000    26.1125     0.1143 
 7648.5000    54.4704     0.1300 
 7649.0000    49.5123     0.1272 
 7649.5000    25.3284     0.1148 
 7650.0000    18.4472     0.1096 
 7650.5000    42.7969     0.1231 
 7651.0000   162.3694     0.1491 
 7651.5000   476.5927     0.1743 
 7652.0000   862.5995     0.1897 
