~Version Information
 VERS.                  2.0:   CWLS log ASCII Standard -VERSION 2.0
 WRAP.                   NO:   One line per depth step
~Well Information Block
#MNEM.UNIT       Data Type    Information
#---------     -----------    ---------------------------
 STRT.F              7267.0000:
 STOP.F              8234.0000:
 STEP.F                 0.5000:
 NULL.               -999.2500:
 UWI .                CASN0087:  UWI
 API .                CASN0087:  UWI
 WELL.                 CASN-87:  COMMON WELL NAME
 COMP.               ECOPETROL:  WELL OPERATOR
 FLD .                CASTILLA:  FIELD
 LIC .                 UNKNOWN:  AUTHORIZATION NO
 LOC .                     LLA:  BASIN
 CTRY.                COLOMBIA:  COUNTRY
 STAT.                    META:  STATE
 CNTY.                 UNKNOWN:  COUNTY
 PROV.                    META:  STATE
 SRVC.                 UNKNOWN:  COMPANY
 DATE.                 UNKNOWN:  LOG RUN DATE
 LONG.           -73.612780838:  LONGITUDE
 LATI.             3.904697520:  LATITUDE
 XCOORD.          1051614.5000:  X COORDINATE
 YCOORD.           923547.6250:  Y COORDINATE
 ELEV.FT             1354.7550:  ELEVATION
 TD  .FT             8220.0000:  TOTAL DEPTH
~Parameter Information Block
#MNEM.UNIT       Value        Description
#---------     -----------    ---------------------------
~Curve Information Block
#MNEM.UNIT                 API CODE     Curve Description
#---------               -----------    ---------------------------
 DEPTH.F                00 000 000 000:  Index Curve
 2019_pPerm_ANS.MD          00 000 000 000:  
 2019_pPhieE_D_ANS.V/V         00 000 000 000:  
~A DEPTH     2019_pPerm_ANS 2019_pPhieE_D_ANS
# ...
 7739.0000  3205.3540     0.2606 
 7739.5000  3442.4299     0.2632 
 7740.0000  2305.2834     0.2401 
 7740.5000  1153.5404     0.2065 
 7741.0000   491.2399     0.1801 
 7741.5000   236.5079     0.1679 
 7742.0000   184.3719     0.1637 
 7742.5000   121.0672     0.1351 
 7743.0000    35.9359     0.0781 
 7743.5000     1.8671     0.0399 
 7744.0000   113.0437     0.0687 
 7744.5000   742.0887     0.1560 
 7745.0000  1744.7247     0.2241 
 7745.5000  3004.5798     0.2567 
 7746.0000  4919.7539     0.2812 
 7746.5000  6841.2798     0.2971 
 7747.0000  7883.9619     0.3052 
 7747.5000  7873.3042     0.3050 
 7748.0000  6885.8105     0.2979 
 7748.5000  4768.1255     0.2793 
 7749.0000  2023.7045     0.2007 
 7749.5000   353.9502     0.0740 
 7750.0000     0.0268     0.0071 
 7750.5000     0.0147     0.0063 
 7751.0000     8.0659     0.0400 
 7751.5000    98.3186     0.1082 
 7752.0000   344.7960     0.1650 
 7752.5000   560.5537     0.1863 
 7753.0000   489.9215     0.1832 
 7753.5000   237.3066     0.1405 
 7754.0000    61.4782     0.0941 
 7754.5000    30.4481     0.1067 
 7755.0000    74.6432     0.1368 
 7755.5000   207.3332     0.1558 
 7756.0000   519.9905     0.1781 
 7756.5000  1083.6797     0.1976 
 7757.0000  1928.0057     0.2138 
 7757.5000  2363.6501     0.2265 
 7758.0000  1895.8618     0.2334 
 7758.5000  1490.3967     0.2307 
 7759.0000  1404.7715     0.2188 
 7759.5000  1048.6018     0.2054 
 7760.0000   716.0910     0.1975 
 7760.5000   565.4320     0.1918 
 7761.0000   337.1124     0.1457 
 7761.5000    94.7361     0.0585 
 7762.0000     0.0297     0.0106 
 7762.5000     0.1972     0.0123 
 7763.0000     8.9600     0.0457 
 7763.5000    80.6353     0.1101 
 7764.0000   219.1446     0.1581 
 7764.5000   284.0154     0.1691 
 7765.0000   222.9415     0.1628 
 7765.5000   143.4381     0.1529 
 7766.0000   105.8959     0.1462 
 7766.5000   111.0079     0.1460 
 7767.0000   173.1797     0.1537 
 7767.5000   299.1111     0.1659 
 7768.0000   392.1927     0.1745 
 7768.5000   314.1436     0.1681 
 7769.0000   131.3189     0.1194 
 7769.5000    21.5375     0.0428 
 7770.0000     0.2282     0.0034 
 7770.5000     0.0000     0.0001 
 7771.0000     0.0000     0.0000 
 7771.5000     0.0000     0.0001 
 7772.0000     0.1876     0.0036 
 7772.5000    13.8507     0.0411 
 7773.0000    27.5276     0.0804 
 7773.5000    13.9876     0.0525 
 7774.0000     0.0623     0.0124 
 7774.5000     0.0062     0.0060 
 7775.0000     0.0067     0.0063 
 7775.5000     0.0043     0.0048 
 7776.0000     0.0029     0.0038 
 7776.5000     0.0079     0.0062 
 7777.0000     0.2845     0.0218 
 7777.5000    35.4452     0.0715 
 7778.0000    69.3507     0.1079 
 7778.5000    34.2756     0.0721 
 7779.0000     0.3292     0.0273 
 7779.5000     0.2203     0.0277 
 7780.0000     4.4829     0.0584 
 7780.5000    15.0368     0.0975 
 7781.0000    23.2654     0.1171 
 7781.5000    18.6261     0.1002 
 7782.0000     6.2969     0.0621 
 7782.5000     0.3909     0.0415 
 7783.0000     0.4308     0.0424 
 7783.5000     8.0929     0.0661 
 7784.0000    30.5405     0.1091 
 7784.5000    59.5553     0.1370 
 7785.0000    59.3143     0.1200 
 7785.5000    22.4749     0.0674 
 7786.0000     0.2071     0.0267 
 7786.5000     0.0351     0.0091 
 7787.0000     0.0009     0.0012 
 7787.5000     0.0000     0.0001 
 7788.0000     0.0000     0.0000 
 7788.5000     0.0000     0.0000 
 7789.0000     0.0000     0.0000 
 7789.5000     0.0012     0.0014 
 7790.0000     0.0819     0.0123 
 7790.5000    15.4950     0.0550 
 7791.0000    40.5927     0.1103 
 7791.5000    41.9165     0.1284 
 7792.0000    30.1156     0.1222 
 7792.5000    31.3079     0.1230 
 7793.0000    49.8391     0.1314 
 7793.5000    80.5143     0.1414 
 7794.0000   101.4586     0.1461 
 7794.5000   103.1099     0.1460 
 7795.0000   107.6253     0.1468 
 7795.5000   133.0693     0.1515 
 7796.0000   175.8271     0.1576 
 7796.5000   236.3074     0.1635 
 7797.0000   319.1596     0.1690 
 7797.5000   422.1746     0.1740 
 7798.0000   534.2570     0.1784 
 7798.5000   611.6705     0.1811 
 7799.0000   606.6603     0.1805 
 7799.5000   511.2345     0.1761 
 7800.0000   391.8375     0.1700 
 7800.5000   302.4299     0.1652 
 7801.0000   211.8818     0.1575 
 7801.5000   111.4689     0.1432 
 7802.0000    41.1132     0.1052 
 7802.5000     8.9051     0.0457 
 7803.0000     0.0474     0.0134 
 7803.5000     0.5045     0.0247 
 7804.0000    16.2623     0.0685 
 7804.5000    47.1433     0.1191 
 7805.0000    47.9893     0.1199 
 7805.5000    16.9231     0.0778 
 7806.0000     0.6389     0.0465 
 7806.5000     0.2202     0.0279 
 7807.0000     0.0445     0.0152 
 7807.5000     0.0304     0.0136 
 7808.0000     0.1210     0.0217 
 7808.5000     6.9190     0.0548 
 7809.0000    13.4565     0.0772 
 7809.5000     6.7789     0.0440 
 7810.0000     0.1514     0.0087 
 7810.5000     0.0010     0.0015 
 7811.0000     0.0000     0.0002 
 7811.5000     0.0000     0.0000 
 7812.0000     0.0000     0.0000 
 7812.5000     0.0000     0.0000 
 7813.0000     0.0000     0.0000 
 7813.5000     0.0006     0.0010 
 7814.0000     0.0025     0.0033 
 7814.5000     0.0057     0.0056 
 7815.0000     1.2918     0.0153 
 7815.5000    62.9773     0.0649 
 7816.0000   203.2617     0.1400 
 7816.5000   311.8000     0.1768 
 7817.0000   370.3525     0.1815 
 7817.5000   438.3881     0.1855 
 7818.0000   586.1796     0.1908 
 7818.5000   877.3037     0.1981 
 7819.0000  1258.0557     0.2047 
 7819.5000  1532.4307     0.2080 
 7820.0000  1439.3766     0.2065 
 7820.5000   873.0101     0.1650 
 7821.0000   243.1511     0.0756 
 7821.5000     3.7743     0.0129 
 7822.0000  -999.2500  -999.2500 
 7822.5000     0.6223     0.0000 
 7823.0000     0.8526     0.0006 
 7823.5000     4.6164     0.0159 
 7824.0000   129.0774     0.0733 
 7824.5000   379.0992     0.1442 
 7825.0000   542.9581     0.1729 
 7825.5000   675.8550     0.1762 
 7826.0000  1020.8237     0.1845 
 7826.5000  1718.1957     0.1958 
 7827.0000  2654.7153     0.2060 
 7827.5000  3364.2690     0.2110 
 7828.0000  3407.7737     0.2090 
 7828.5000  2975.9958     0.2032 
 7829.0000  2606.4155     0.1988 
 7829.5000  2478.4543     0.1980 
 7830.0000  2347.2258     0.1979 
 7830.5000  2050.7498     0.1954 
 7831.0000  1829.2465     0.1936 
 7831.5000  1918.4564     0.1957 
 7832.0000  2312.1951     0.2010 
 7832.5000  2670.0667     0.2046 
 7833.0000  2610.1084     0.2027 
 7833.5000  2199.3853     0.1967 
 7834.0000  1809.6592     0.1912 
 7834.5000  1658.5742     0.1894 
 7835.0000  1755.5697     0.1913 
 7835.5000  1981.2572     0.1946 
 7836.0000  2052.6750     0.1952 
 7836.5000  1830.1910     0.1912 
 7837.0000  1519.9888     0.1865 
 7837.5000  1348.5083     0.1848 
 7838.0000  1331.7273     0.1863 
 7838.5000  1392.8352     0.1885 
 7839.0000  1565.5226     0.1917 
 7839.5000  2064.9329     0.1982 
 7840.0000  3019.8740     0.2078 
 7840.5000  4104.0146     0.2158 
 7841.0000  4560.5049     0.2179 
 7841.5000  4060.2283     0.2137 
 7842.0000  3210.1274     0.2068 
 7842.5000  2454.9456     0.1992 
 7843.0000  1796.8501     0.1903 
 7843.5000  1360.9272     0.1833 
 7844.0000  1229.0375     0.1811 
 7844.5000  1252.6176     0.1816 
 7845.0000  1281.2606     0.1819 
 7845.5000  1347.3704     0.1829 
 7846.0000  1597.1865     0.1875 
 7846.5000  1966.0685     0.1938 
 7847.0000  2178.5042     0.1970 
 7847.5000  2189.2776     0.1974 
 7848.0000  2207.6104     0.1978 
 7848.5000  2307.1482     0.1986 
 7849.0000  2438.9211     0.1992 
 7849.5000  2640.9675     0.2007 
 7850.0000  2972.1836     0.2040 
 7850.5000  3245.6384     0.2072 
 7851.0000  3200.7263     0.2077 
 7851.5000  2953.2988     0.2059 
 7852.0000  2853.2112     0.2050 
 7852.5000  3063.4834     0.2068 
 7853.0000  3385.1370     0.2095 
 7853.5000  3571.0100     0.2112 
 7854.0000  3669.7458     0.2121 
 7854.5000  3992.4231     0.2144 
 7855.0000  4547.0889     0.2182 
 7855.5000  5015.2168     0.2213 
 7856.0000  5189.5566     0.2226 
 7856.5000  5182.9302     0.2226 
