~Version Information
 VERS.                  2.0:   CWLS log ASCII Standard -VERSION 2.0
 WRAP.                   NO:   One line per depth step
~Well Information Block
#MNEM.UNIT       Data Type    Information
#---------     -----------    ---------------------------
 STRT.F              7958.5000:
 STOP.F              9186.0000:
 STEP.F                 0.5000:
 NULL.               -999.2500:
 UWI .                CASN0032:  UWI
 API .                CASN0032:  UWI
 WELL.                 CASN-32:  COMMON WELL NAME
 COMP.               ECOPETROL:  WELL OPERATOR
 FLD .                CASTILLA:  FIELD
 LIC .                 UNKNOWN:  AUTHORIZATION NO
 LOC .                     LLA:  BASIN
 CTRY.                COLOMBIA:  COUNTRY
 STAT.                    META:  STATE
 CNTY.       CASTILLA_LA_NUEVA:  COUNTY
 PROV.                    META:  STATE
 SRVC.                 UNKNOWN:  COMPANY
 DATE.                 UNKNOWN:  LOG RUN DATE
 LONG.           -73.616332248:  LONGITUDE
 LATI.             3.893579824:  LATITUDE
 XCOORD.          1051220.7500:  X COORDINATE
 YCOORD.           922317.9375:  Y COORDINATE
 ELEV.FT             1376.0000:  ELEVATION
 TD  .FT             9217.0000:  TOTAL DEPTH
~Parameter Information Block
#MNEM.UNIT       Value        Description
#---------     -----------    ---------------------------
~Curve Information Block
#MNEM.UNIT                 API CODE     Curve Description
#---------               -----------    ---------------------------
 DEPTH.F                00 000 000 000:  Index Curve
 2019_pPerm_ANS.MD          00 000 000 000:  
 2019_pPhieE_D_ANS.V/V         00 000 000 000:  
~A DEPTH     2019_pPerm_ANS 2019_pPhieE_D_ANS
# ...
 8194.5000     0.0000     0.0002 
 8195.0000     0.0000     0.0000 
 8195.5000     0.0000     0.0000 
 8196.0000     0.0000     0.0001 
 8196.5000     0.0000     0.0001 
 8197.0000     0.0113     0.0022 
 8197.5000     0.1423     0.0243 
 8198.0000     4.0404     0.0722 
 8198.5000     0.3237     0.0373 
 8199.0000     0.0375     0.0107 
 8199.5000     0.0000     0.0028 
 8200.0000     0.0000     0.0004 
 8200.5000     0.0000     0.0001 
 8201.0000     0.0000     0.0000 
 8201.5000     0.0000     0.0001 
 8202.0000     0.0000     0.0000 
 8202.5000     0.0000     0.0000 
 8203.0000     0.0000     0.0001 
 8203.5000     0.0000     0.0001 
 8204.0000     0.0000     0.0000 
 8204.5000     0.0001     0.0006 
 8205.0000     0.2649     0.0155 
 8205.5000     2.0752     0.0610 
 8206.0000     0.1909     0.0001 
 8206.5000     0.0000     0.0001 
 8207.0000     0.0648     0.0001 
 8207.5000     4.6069     0.0522 
 8208.0000    22.5302     0.0951 
 8208.5000  1095.6437     0.1318 
 8209.0000  6841.3320     0.2169 
 8209.5000 20000.0000     0.2652 
 8210.0000 20000.0000     0.2711 
 8210.5000 20000.0000     0.2651 
 8211.0000 20000.0000     0.2586 
 8211.5000 14881.2412     0.2340 
 8212.0000  6470.0205     0.2157 
 8212.5000  5916.0527     0.2162 
 8213.0000  7007.5239     0.2160 
 8213.5000 14404.7754     0.2393 
 8214.0000 14065.4316     0.2384 
 8214.5000  6694.4614     0.2182 
 8215.0000   924.4163     0.0332 
 8215.5000     0.0143     0.0021 
 8216.0000     0.0000     0.0001 
 8216.5000     0.0000     0.0002 
 8217.0000     0.0001     0.0017 
 8217.5000     0.6431     0.0141 
 8218.0000    17.9239     0.0916 
 8218.5000    36.2752     0.1052 
 8219.0000    32.8682     0.1061 
 8219.5000     8.7621     0.0767 
 8220.0000    37.1749     0.0952 
 8220.5000   140.4152     0.1312 
 8221.0000   349.3259     0.1554 
 8221.5000   288.4174     0.1485 
 8222.0000    81.8960     0.1112 
 8222.5000    24.6519     0.0926 
 8223.0000    66.9298     0.1108 
 8223.5000   246.6283     0.1413 
 8224.0000   611.2416     0.1661 
 8224.5000   664.0758     0.1660 
 8225.0000   632.5027     0.1659 
 8225.5000   412.7157     0.1541 
 8226.0000   295.9078     0.1482 
 8226.5000   241.1300     0.1418 
 8227.0000   298.9377     0.1479 
 8227.5000   419.8442     0.1597 
 8228.0000   217.3499     0.1411 
 8228.5000   111.0105     0.1223 
 8229.0000   113.3182     0.1281 
 8229.5000    41.0147     0.1032 
 8230.0000     2.5541     0.0531 
 8230.5000     0.9268     0.0444 
 8231.0000     0.0506     0.0176 
 8231.5000     0.0002     0.0042 
 8232.0000     0.0000     0.0031 
 8232.5000     0.0000     0.0005 
 8233.0000     0.0000     0.0004 
 8233.5000     0.0001     0.0019 
 8234.0000     0.1376     0.0165 
 8234.5000     1.9659     0.0473 
 8235.0000     6.7267     0.0791 
 8235.5000     1.2024     0.0313 
 8236.0000     0.4899     0.0319 
 8236.5000     1.7429     0.0499 
 8237.0000     6.7211     0.0738 
 8237.5000    12.3949     0.0857 
 8238.0000     9.7319     0.0829 
 8238.5000     1.4603     0.0472 
 8239.0000     0.1909     0.0091 
 8239.5000     0.0000     0.0017 
 8240.0000     0.0000     0.0002 
 8240.5000     0.0000     0.0000 
 8241.0000     0.0000     0.0000 
 8241.5000     0.0000     0.0000 
 8242.0000     0.0000     0.0001 
 8242.5000     0.0000     0.0003 
 8243.0000     0.0000     0.0002 
 8243.5000     0.0000     0.0002 
 8244.0000     0.0000     0.0001 
 8244.5000     0.0000     0.0001 
 8245.0000     0.0000     0.0001 
 8245.5000     0.0000     0.0001 
 8246.0000     0.0000     0.0000 
 8246.5000     0.0000     0.0001 
 8247.0000     0.0000     0.0002 
 8247.5000     0.0000     0.0003 
 8248.0000     0.0000     0.0002 
 8248.5000     0.0000     0.0001 
 8249.0000     0.0000     0.0010 
 8249.5000     0.0000     0.0014 
 8250.0000     0.0000     0.0003 
 8250.5000     0.0002     0.0005 
 8251.0000     0.0001     0.0003 
 8251.5000     0.0001     0.0002 
 8252.0000     0.0001     0.0003 
 8252.5000     0.0000     0.0001 
 8253.0000     0.0000     0.0001 
 8253.5000     0.0003     0.0003 
 8254.0000     0.0012     0.0014 
 8254.5000     0.0007     0.0005 
 8255.0000     0.0116     0.0019 
 8255.5000     0.0643     0.0138 
 8256.0000     0.0208     0.0050 
 8256.5000     0.0048     0.0027 
 8257.0000     0.0010     0.0007 
 8257.5000     0.0001     0.0002 
 8258.0000     0.0000     0.0001 
 8258.5000     0.0000     0.0002 
 8259.0000     0.0001     0.0003 
 8259.5000     0.0002     0.0004 
 8260.0000     0.0005     0.0009 
 8260.5000     0.0000     0.0001 
 8261.0000     0.0000     0.0001 
 8261.5000     0.0001     0.0002 
 8262.0000     0.0002     0.0006 
 8262.5000     0.0001     0.0002 
 8263.0000     0.0002     0.0004 
 8263.5000     0.0000     0.0002 
 8264.0000     0.0001     0.0002 
 8264.5000     0.0000     0.0000 
 8265.0000     0.0000     0.0000 
 8265.5000     0.0000     0.0001 
 8266.0000     0.0000     0.0000 
 8266.5000     0.0000     0.0000 
 8267.0000     0.0000     0.0000 
 8267.5000     0.0001     0.0002 
 8268.0000     0.0001     0.0003 
 8268.5000     0.0004     0.0007 
 8269.0000     0.0000     0.0001 
 8269.5000     0.0000     0.0001 
 8270.0000     0.0000     0.0002 
 8270.5000     0.0000     0.0001 
 8271.0000     0.0001     0.0003 
 8271.5000     0.0000     0.0001 
 8272.0000     0.0000     0.0000 
 8272.5000     0.0000     0.0002 
 8273.0000     0.0000     0.0001 
 8273.5000     0.0003     0.0004 
 8274.0000     0.0008     0.0010 
 8274.5000     0.0004     0.0005 
 8275.0000     0.0002     0.0004 
 8275.5000     0.0000     0.0001 
 8276.0000     0.0000     0.0001 
 8276.5000     0.0000     0.0001 
 8277.0000     0.0000     0.0001 
 8277.5000     0.0000     0.0001 
 8278.0000     0.0001     0.0003 
 8278.5000     0.0002     0.0005 
 8279.0000     0.0001     0.0001 
 8279.5000     0.0000     0.0001 
 8280.0000     0.0000     0.0001 
 8280.5000     0.0000     0.0000 
 8281.0000     0.0000     0.0001 
 8281.5000     0.0000     0.0000 
 8282.0000     0.0000     0.0000 
 8282.5000     0.0000     0.0001 
 8283.0000     0.0008     0.0013 
 8283.5000     0.0003     0.0005 
 8284.0000     0.0000     0.0001 
 8284.5000     0.0000     0.0001 
 8285.0000     0.0000     0.0000 
 8285.5000     0.0000     0.0000 
 8286.0000     0.0000     0.0000 
 8286.5000     0.0000     0.0000 
 8287.0000     0.0000     0.0000 
 8287.5000     0.0000     0.0000 
 8288.0000     0.0000     0.0001 
 8288.5000     0.0000     0.0001 
 8289.0000     0.0000     0.0001 
 8289.5000     0.0000     0.0000 
 8290.0000     0.0000     0.0000 
 8290.5000     0.0000     0.0000 
 8291.0000     0.0000     0.0002 
 8291.5000     0.0001     0.0003 
 8292.0000     0.0000     0.0001 
 8292.5000     0.0000     0.0001 
 8293.0000     0.0000     0.0000 
 8293.5000     0.0000     0.0001 
 8294.0000     0.0000     0.0001 
 8294.5000     0.0000     0.0000 
 8295.0000     0.0000     0.0000 
 8295.5000     0.0000     0.0001 
 8296.0000     0.0000     0.0001 
 8296.5000     0.0000     0.0000 
 8297.0000     0.0000     0.0001 
 8297.5000     0.0000     0.0001 
 8298.0000     0.0001     0.0002 
 8298.5000     0.0003     0.0006 
 8299.0000     0.0001     0.0000 
 8299.5000     0.0000     0.0000 
 8300.0000     0.0000     0.0001 
 8300.5000     0.0001     0.0002 
 8301.0000     0.0000     0.0000 
 8301.5000     0.0000     0.0001 
 8302.0000     0.0000     0.0000 
 8302.5000     0.0000     0.0001 
 8303.0000     0.0000     0.0002 
 8303.5000     0.0000     0.0001 
 8304.0000     0.0000     0.0001 
 8304.5000     0.0000     0.0001 
 8305.0000     0.0000     0.0001 
 8305.5000     0.0000     0.0000 
 8306.0000     0.0000     0.0000 
 8306.5000     0.0000     0.0000 
 8307.0000     0.0000     0.0001 
 8307.5000     0.0000     0.0000 
 8308.0000     0.0000     0.0000 
 8308.5000     0.0000     0.0000 
 8309.0000     0.0001     0.0002 
 8309.5000     0.0001     0.0001 
 8310.0000     0.0007     0.0009 
 8310.5000     0.0128     0.0017 
 8311.0000     0.0888     0.0128 
 8311.5000     0.4461     0.0333 
 8312.0000     0.4192     0.0300 
