~Version Information
 VERS.                  2.0:   CWLS log ASCII Standard -VERSION 2.0
 WRAP.                   NO:   One line per depth step
~Well Information Block
#MNEM.UNIT       Data Type    Information
#---------     -----------    ---------------------------
 STRT.F              7180.5000:
 STOP.F              8032.0000:
 STEP.F                 0.5000:
 NULL.               -999.2500:
 UWI .                CASN0100:  UWI
 API .                CASN0100:  UWI
 WELL.                CASN-100:  COMMON WELL NAME
 COMP.               ECOPETROL:  WELL OPERATOR
 FLD .                CASTILLA:  FIELD
 LIC .                 UNKNOWN:  AUTHORIZATION NO
 LOC .                     LLA:  BASIN
 CTRY.                COLOMBIA:  COUNTRY
 STAT.                    META:  STATE
 CNTY.                 UNKNOWN:  COUNTY
 PROV.                    META:  STATE
 SRVC.                 UNKNOWN:  COMPANY
 DATE.                 UNKNOWN:  LOG RUN DATE
 LONG.           -73.635094741:  LONGITUDE
 LATI.             3.902985680:  LATITUDE
 XCOORD.          1049136.2500:  X COORDINATE
 YCOORD.           923356.9375:  Y COORDINATE
 ELEV.FT             1389.7300:  ELEVATION
 TD  .FT             8083.0000:  TOTAL DEPTH
~Parameter Information Block
#MNEM.UNIT       Value        Description
#---------     -----------    ---------------------------
~Curve Information Block
#MNEM.UNIT                 API CODE     Curve Description
#---------               -----------    ---------------------------
 DEPTH.F                00 000 000 000:  Index Curve
 2019_pPerm_ANS.MD          00 000 000 000:  
 2019_pPhieE_D_ANS.V/V         00 000 000 000:  
~A DEPTH     2019_pPerm_ANS 2019_pPhieE_D_ANS
# ...
 7298.5000     0.0000     0.0001 
 7299.0000     0.0074     0.0051 
 7299.5000     0.0334     0.0128 
 7300.0000     0.0424     0.0149 
 7300.5000     0.0113     0.0074 
 7301.0000     0.0000     0.0001 
 7301.5000     0.0000     0.0001 
 7302.0000     0.0000     0.0001 
 7302.5000     0.0004     0.0001 
 7303.0000     0.0616     0.0152 
 7303.5000     0.2214     0.0272 
 7304.0000     0.4591     0.0348 
 7304.5000     0.9405     0.0435 
 7305.0000     2.1448     0.0553 
 7305.5000     3.7596     0.0647 
 7306.0000     4.3174     0.0671 
 7306.5000     3.6053     0.0637 
 7307.0000     2.5738     0.0583 
 7307.5000     1.7030     0.0521 
 7308.0000     0.9081     0.0434 
 7308.5000     0.2313     0.0256 
 7309.0000     0.0066     0.0001 
 7309.5000     0.0000     0.0001 
 7310.0000     0.0000     0.0001 
 7310.5000     0.0000     0.0001 
 7311.0000     6.0451     0.0727 
 7311.5000     6.1130     0.0806 
 7312.0000     0.0785     0.0072 
 7312.5000     0.0349     0.0132 
 7313.0000     0.0404     0.0138 
 7313.5000     0.0485     0.0148 
 7314.0000     0.1003     0.0197 
 7314.5000     0.4191     0.0324 
 7315.0000     1.4648     0.0497 
 7315.5000     3.2264     0.0625 
 7316.0000     3.5405     0.0637 
 7316.5000     2.1820     0.0555 
 7317.0000     1.0876     0.0454 
 7317.5000     0.6764     0.0394 
 7318.0000     0.6304     0.0388 
 7318.5000     0.6233     0.0389 
 7319.0000     0.4514     0.0347 
 7319.5000     0.2701     0.0286 
 7320.0000     0.3666     0.0308 
 7320.5000     1.4818     0.0478 
 7321.0000    16.7066     0.0824 
 7321.5000   132.9542     0.1284 
 7322.0000  1150.3396     0.1742 
 7322.5000  3801.2190     0.2054 
 7323.0000  5847.5000     0.2168 
 7323.5000  5589.8960     0.2144 
 7324.0000  4967.8833     0.2108 
 7324.5000  5409.5029     0.2135 
 7325.0000  7527.6582     0.2210 
 7325.5000 11320.7393     0.2310 
 7326.0000 16717.4473     0.2408 
 7326.5000 19894.5801     0.2450 
 7327.0000 18880.9668     0.2438 
 7327.5000 16154.6670     0.2396 
 7328.0000 14706.2725     0.2372 
 7328.5000 14412.7812     0.2372 
 7329.0000 13759.2090     0.2359 
 7329.5000 12771.1484     0.2341 
 7330.0000 11952.1826     0.2323 
 7330.5000 12934.3936     0.2342 
 7331.0000 15290.1094     0.2385 
 7331.5000 17514.2559     0.2421 
 7332.0000 17254.2031     0.2414 
 7332.5000 14001.1211     0.2365 
 7333.0000  9673.6162     0.2275 
 7333.5000  6693.7710     0.2184 
 7334.0000  5210.0850     0.2128 
 7334.5000  5248.9111     0.2128 
 7335.0000  5783.6880     0.2154 
 7335.5000  6067.9399     0.2167 
 7336.0000  5795.0151     0.2155 
 7336.5000  4636.2412     0.2105 
 7337.0000  3001.5149     0.1999 
 7337.5000  1645.8677     0.1856 
 7338.0000   768.7557     0.1681 
 7338.5000   317.3059     0.1483 
 7339.0000   142.6403     0.1313 
 7339.5000   109.0838     0.1260 
 7340.0000   178.8144     0.1359 
 7340.5000   393.8941     0.1536 
 7341.0000   823.4166     0.1704 
 7341.5000  1316.8351     0.1811 
 7342.0000  1727.6890     0.1875 
 7342.5000  2106.8867     0.1918 
 7343.0000  2788.3887     0.1983 
 7343.5000  3720.3564     0.2050 
 7344.0000  5012.8257     0.2118 
 7344.5000  7172.4224     0.2203 
 7345.0000 12211.6494     0.2325 
 7345.5000 20000.0000     0.2459 
 7346.0000 20000.0000     0.2550 
 7346.5000 20000.0000     0.2581 
 7347.0000 20000.0000     0.2587 
 7347.5000 20000.0000     0.2588 
 7348.0000 20000.0000     0.2595 
 7348.5000 20000.0000     0.2576 
 7349.0000 20000.0000     0.2540 
 7349.5000 20000.0000     0.2497 
 7350.0000 20000.0000     0.2465 
 7350.5000 20000.0000     0.2465 
 7351.0000 20000.0000     0.2489 
 7351.5000 20000.0000     0.2495 
 7352.0000 20000.0000     0.2489 
 7352.5000 20000.0000     0.2464 
 7353.0000 18296.1562     0.2428 
 7353.5000 14482.9268     0.2374 
 7354.0000  9425.1240     0.2269 
 7354.5000  4971.1411     0.2109 
 7355.0000  2232.5371     0.1929 
 7355.5000  1313.0430     0.1800 
 7356.0000  1100.5962     0.1769 
 7356.5000  1080.1418     0.1771 
 7357.0000   854.8091     0.1714 
 7357.5000   504.7575     0.1591 
 7358.0000   260.0068     0.1447 
 7358.5000   149.4010     0.1331 
 7359.0000    88.6037     0.1224 
 7359.5000    46.8906     0.1094 
 7360.0000    21.4203     0.0936 
 7360.5000    10.9885     0.0817 
 7361.0000     7.9040     0.0762 
 7361.5000     8.1201     0.0804 
 7362.0000     0.4950     0.0257 
 7362.5000     0.7266     0.0408 
 7363.0000     4.9615     0.0688 
 7363.5000     6.3891     0.0732 
 7364.0000     3.5948     0.0659 
 7364.5000     0.0062     0.0100 
 7365.0000     0.0000     0.0006 
 7365.5000     0.0000     0.0003 
 7366.0000     0.0000     0.0006 
 7366.5000     0.0000     0.0017 
 7367.0000     0.0002     0.0060 
 7367.5000     1.5821     0.0339 
 7368.0000    31.0512     0.0961 
 7368.5000   165.2210     0.1338 
 7369.0000   437.1812     0.1574 
 7369.5000   479.8804     0.1594 
 7370.0000   246.5892     0.1433 
 7370.5000    75.4968     0.1169 
 7371.0000    15.5337     0.0859 
 7371.5000     3.1704     0.0587 
 7372.0000     1.3901     0.0519 
 7372.5000     0.0251     0.0107 
 7373.0000     0.0000     0.0022 
 7373.5000     0.0000     0.0017 
 7374.0000     0.0000     0.0038 
 7374.5000     0.0001     0.0073 
 7375.0000     0.0001     0.0064 
 7375.5000     0.0000     0.0028 
 7376.0000     0.0000     0.0012 
 7376.5000     0.0000     0.0010 
 7377.0000     0.0000     0.0009 
 7377.5000     0.0000     0.0007 
 7378.0000     0.0000     0.0006 
 7378.5000     0.0000     0.0006 
 7379.0000     0.0000     0.0005 
 7379.5000     0.0000     0.0005 
 7380.0000     0.0000     0.0005 
 7380.5000     0.0000     0.0005 
 7381.0000     0.0000     0.0005 
 7381.5000     0.0000     0.0006 
 7382.0000     0.0000     0.0010 
 7382.5000     0.0000     0.0016 
 7383.0000     0.0000     0.0013 
 7383.5000     0.0000     0.0006 
 7384.0000     0.0000     0.0002 
 7384.5000     0.0000     0.0002 
 7385.0000     0.0000     0.0002 
 7385.5000     0.0000     0.0002 
 7386.0000     0.0000     0.0003 
 7386.5000     0.0000     0.0003 
 7387.0000     0.0000     0.0004 
 7387.5000     0.0000     0.0006 
 7388.0000     0.0000     0.0008 
 7388.5000     0.0000     0.0006 
 7389.0000     0.0000     0.0002 
 7389.5000     0.0000     0.0000 
 7390.0000     0.0000     0.0000 
 7390.5000     0.0000     0.0000 
 7391.0000     0.0000     0.0000 
 7391.5000     0.0000     0.0001 
 7392.0000     0.0000     0.0004 
 7392.5000     0.0000     0.0010 
 7393.0000     0.0000     0.0010 
 7393.5000     0.0000     0.0004 
 7394.0000     0.0000     0.0002 
 7394.5000     0.0000     0.0001 
 7395.0000     0.0000     0.0001 
 7395.5000     0.0000     0.0001 
 7396.0000     0.0000     0.0001 
 7396.5000     0.0000     0.0008 
 7397.0000     0.0001     0.0043 
 7397.5000     0.0002     0.0081 
 7398.0000     0.0003     0.0100 
 7398.5000     0.0004     0.0107 
 7399.0000     0.0003     0.0091 
 7399.5000     0.0001     0.0067 
 7400.0000     0.0001     0.0046 
 7400.5000     0.0000     0.0038 
 7401.0000     0.0001     0.0056 
 7401.5000     0.0004     0.0114 
 7402.0000     0.0010     0.0196 
 7402.5000     0.0012     0.0206 
 7403.0000     0.0006     0.0140 
 7403.5000     0.0001     0.0058 
 7404.0000     0.0000     0.0011 
 7404.5000     0.0000     0.0001 
 7405.0000     0.0000     0.0000 
 7405.5000     0.0000     0.0000 
 7406.0000     0.0000     0.0000 
 7406.5000     0.0000     0.0000 
 7407.0000     0.0000     0.0001 
 7407.5000     0.0000     0.0010 
 7408.0000     0.0000     0.0026 
 7408.5000     0.0000     0.0024 
 7409.0000     0.0000     0.0010 
 7409.5000     0.0000     0.0002 
 7410.0000     0.0000     0.0000 
 7410.5000     0.0000     0.0000 
 7411.0000     0.0000     0.0000 
 7411.5000     0.0000     0.0000 
 7412.0000     0.0000     0.0000 
 7412.5000     0.0000     0.0000 
 7413.0000     0.0000     0.0000 
 7413.5000     0.0000     0.0000 
 7414.0000     0.0000     0.0000 
 7414.5000     0.0000     0.0000 
 7415.0000     0.0000     0.0000 
 7415.5000     0.0000     0.0000 
 7416.0000     0.0000     0.0000 
