~Version Information
 VERS.                  2.0:   CWLS log ASCII Standard -VERSION 2.0
 WRAP.                   NO:   One line per depth step
~Well Information Block
#MNEM.UNIT       Data Type    Information
#---------     -----------    ---------------------------
 STRT.F              8011.0000:
 STOP.F              9260.0000:
 STEP.F                 0.5000:
 NULL.               -999.2500:
 UWI .                CASN0030:  UWI
 API .                CASN0030:  UWI
 WELL.                 CASN-30:  COMMON WELL NAME
 COMP.               ECOPETROL:  WELL OPERATOR
 FLD .                CASTILLA:  FIELD
 LIC .                 UNKNOWN:  AUTHORIZATION NO
 LOC .                     LLA:  BASIN
 CTRY.                COLOMBIA:  COUNTRY
 STAT.                    META:  STATE
 CNTY.       CASTILLA_LA_NUEVA:  COUNTY
 PROV.                    META:  STATE
 SRVC.                 UNKNOWN:  COMPANY
 DATE.                 UNKNOWN:  LOG RUN DATE
 LONG.           -73.616480936:  LONGITUDE
 LATI.             3.893355943:  LATITUDE
 XCOORD.          1051204.2500:  X COORDINATE
 YCOORD.           922293.1875:  Y COORDINATE
 ELEV.FT             1376.0000:  ELEVATION
 TD  .FT             9235.0000:  TOTAL DEPTH
~Parameter Information Block
#MNEM.UNIT       Value        Description
#---------     -----------    ---------------------------
~Curve Information Block
#MNEM.UNIT                 API CODE     Curve Description
#---------               -----------    ---------------------------
 DEPTH.F                00 000 000 000:  Index Curve
 2019_pPerm_ANS.MD          00 000 000 000:  
 2019_pPhieE_D_ANS.V/V         00 000 000 000:  
~A DEPTH     2019_pPerm_ANS 2019_pPhieE_D_ANS
# ...
 8837.0000 12381.0361     0.2465 
 8837.5000 11958.2275     0.2453 
 8838.0000  9595.8486     0.2388 
 8838.5000  7333.3491     0.2315 
 8839.0000  5797.6919     0.2236 
 8839.5000  5928.8252     0.2256 
 8840.0000  7959.1406     0.2360 
 8840.5000 10998.0781     0.2490 
 8841.0000 10829.7344     0.2485 
 8841.5000  9806.4609     0.2448 
 8842.0000  9434.7139     0.2426 
 8842.5000 11288.0449     0.2492 
 8843.0000 13493.2383     0.2541 
 8843.5000 14794.9004     0.2558 
 8844.0000 13272.7236     0.2538 
 8844.5000 10467.2637     0.2459 
 8845.0000  9941.9707     0.2428 
 8845.5000 11196.7676     0.2452 
 8846.0000 14542.7490     0.2533 
 8846.5000 16046.3066     0.2562 
 8847.0000 13057.7832     0.2507 
 8847.5000 11520.0303     0.2493 
 8848.0000 10466.7715     0.2452 
 8848.5000 10923.9941     0.2467 
 8849.0000  9785.7178     0.2402 
 8849.5000  9648.0537     0.2402 
 8850.0000 10634.1201     0.2460 
 8850.5000 10587.7998     0.2481 
 8851.0000  9731.9883     0.2467 
 8851.5000  7204.0220     0.2356 
 8852.0000  6548.4609     0.2338 
 8852.5000  7440.9150     0.2354 
 8853.0000  9312.1387     0.2404 
 8853.5000  9648.5205     0.2404 
 8854.0000  9706.1846     0.2398 
 8854.5000 11123.4912     0.2432 
 8855.0000 12883.9141     0.2477 
 8855.5000 10897.4072     0.2421 
 8856.0000 10404.2207     0.2415 
 8856.5000  9253.6182     0.2369 
 8857.0000  8538.2217     0.2348 
 8857.5000  6940.1665     0.2280 
 8858.0000  6807.2256     0.2298 
 8858.5000  7834.6445     0.2370 
 8859.0000  7442.4082     0.2348 
 8859.5000  7944.3135     0.2381 
 8860.0000  8722.8848     0.2393 
 8860.5000 11135.7754     0.2486 
 8861.0000 10450.6279     0.2438 
 8861.5000  9811.7109     0.2412 
 8862.0000  9586.8672     0.2410 
 8862.5000  9400.4355     0.2431 
 8863.0000  8325.3955     0.2421 
 8863.5000  6716.8179     0.2393 
 8864.0000  6986.6035     0.2410 
 8864.5000  7228.0698     0.2459 
 8865.0000  6980.1665     0.2476 
 8865.5000  4108.4238     0.2355 
 8866.0000   672.7878     0.0479 
 8866.5000     1.4886     0.0019 
 8867.0000     0.6395     0.0000 
 8867.5000     0.4285     0.0000 
 8868.0000     0.3485     0.0000 
 8868.5000     0.3308     0.0000 
 8869.0000     0.3111     0.0000 
 8869.5000     0.2760     0.0000 
 8870.0000     0.2714     0.0000 
 8870.5000     0.2519     0.0000 
 8871.0000     0.2517     0.0000 
 8871.5000     0.2347     0.0000 
 8872.0000     0.2328     0.0000 
 8872.5000     0.2659     0.0000 
 8873.0000     0.3881     0.0000 
 8873.5000     0.9331     0.0000 
 8874.0000     8.0513     0.0165 
 8874.5000   195.9745     0.1422 
 8875.0000   419.5350     0.1607 
 8875.5000   802.6269     0.1768 
 8876.0000  1367.5558     0.1928 
 8876.5000  2961.1270     0.2090 
 8877.0000  6196.8013     0.2301 
 8877.5000 14922.1299     0.2526 
 8878.0000 20000.0000     0.2708 
 8878.5000 20000.0000     0.2730 
 8879.0000 20000.0000     0.2682 
 8879.5000 20000.0000     0.2617 
 8880.0000 17185.2559     0.2571 
 8880.5000 12208.9268     0.2447 
 8881.0000  8560.4238     0.2324 
 8881.5000  8159.6392     0.2295 
 8882.0000  9160.8418     0.2333 
 8882.5000  9317.7061     0.2337 
 8883.0000  8566.1846     0.2312 
 8883.5000  8972.7637     0.2332 
 8884.0000 10901.5176     0.2385 
 8884.5000 13387.6416     0.2451 
 8885.0000 13935.1045     0.2467 
 8885.5000 13340.6914     0.2457 
 8886.0000 10493.9238     0.2387 
 8886.5000  8182.4966     0.2324 
 8887.0000  7537.4297     0.2302 
 8887.5000  6895.1235     0.2318 
 8888.0000  6577.3286     0.2351 
 8888.5000  5702.8608     0.2335 
 8889.0000  4760.1719     0.2274 
 8889.5000  3654.2339     0.2172 
 8890.0000  3291.6006     0.2132 
 8890.5000  3518.6082     0.2161 
 8891.0000  3829.8296     0.2201 
 8891.5000  3570.3279     0.2170 
 8892.0000  3691.5676     0.2164 
 8892.5000  4663.6304     0.2200 
 8893.0000  7371.8530     0.2371 
 8893.5000  9727.7549     0.2496 
 8894.0000 10249.8584     0.2529 
 8894.5000  7556.0254     0.2417 
 8895.0000  5091.3057     0.2263 
 8895.5000  3841.5952     0.2151 
 8896.0000  2970.6177     0.2075 
 8896.5000  3294.0564     0.2125 
 8897.0000  4156.4072     0.2199 
 8897.5000  5983.7764     0.2326 
 8898.0000  7388.5996     0.2385 
 8898.5000  7501.9912     0.2390 
 8899.0000  6768.6709     0.2321 
 8899.5000  6103.6646     0.2240 
 8900.0000  6233.9038     0.2228 
 8900.5000  7083.3760     0.2268 
 8901.0000  7773.5986     0.2305 
 8901.5000  7439.9399     0.2296 
 8902.0000  6103.7095     0.2238 
 8902.5000  4610.9189     0.2145 
 8903.0000  4654.2041     0.2144 
 8903.5000  5754.0757     0.2212 
 8904.0000  7730.2573     0.2304 
 8904.5000  7328.6616     0.2262 
 8905.0000  6547.7944     0.2222 
 8905.5000  5492.4985     0.2187 
 8906.0000  5297.4941     0.2205 
 8906.5000  4828.7969     0.2181 
 8907.0000  5156.6538     0.2198 
 8907.5000  5728.4155     0.2219 
 8908.0000  5972.5356     0.2238 
 8908.5000  5588.7188     0.2199 
 8909.0000  4415.1665     0.2115 
 8909.5000  3894.5920     0.2090 
 8910.0000  2780.9138     0.2002 
 8910.5000  1306.8949     0.1708 
 8911.0000   849.5999     0.1587 
 8911.5000  1169.3445     0.1676 
 8912.0000  2582.1128     0.1992 
 8912.5000  3785.5835     0.2098 
 8913.0000  5598.6875     0.2213 
 8913.5000  8795.6543     0.2382 
 8914.0000  9147.4111     0.2373 
 8914.5000  5380.9707     0.2164 
 8915.0000  2718.7649     0.1955 
 8915.5000  3185.2551     0.1981 
 8916.0000  5493.0571     0.2207 
 8916.5000  4055.4529     0.2147 
 8917.0000   737.8735     0.1555 
 8917.5000   120.8150     0.0077 
 8918.0000     5.7022     0.0001 
 8918.5000    63.9849     0.0014 
 8919.0000   475.8279     0.1326 
 8919.5000  1703.2659     0.1911 
 8920.0000   392.3676     0.1150 
 8920.5000   200.7034     0.1102 
 8921.0000   569.9664     0.1294 
 8921.5000  2490.8804     0.2011 
 8922.0000  2985.1948     0.2012 
 8922.5000  4327.1489     0.2162 
 8923.0000  4934.6982     0.2158 
 8923.5000  6998.3579     0.2298 
 8924.0000  6467.2383     0.2302 
 8924.5000  2706.1006     0.1956 
 8925.0000  1897.3530     0.1866 
 8925.5000  1935.5620     0.1855 
 8926.0000  4394.3184     0.2148 
 8926.5000  5794.7070     0.2220 
 8927.0000  5701.8110     0.2231 
 8927.5000  5498.4668     0.2221 
 8928.0000  4058.9631     0.2119 
 8928.5000  2579.3840     0.1973 
 8929.0000  1505.0302     0.1778 
 8929.5000  1240.8750     0.1738 
 8930.0000  1866.7799     0.1850 
 8930.5000  3056.6504     0.2032 
 8931.0000  4242.4492     0.2155 
 8931.5000  4804.3335     0.2185 
 8932.0000  5130.8228     0.2202 
 8932.5000  5131.2593     0.2185 
 8933.0000  5323.3911     0.2181 
 8933.5000  6230.4058     0.2215 
 8934.0000  7437.0244     0.2289 
 8934.5000  7505.0186     0.2316 
 8935.0000  6070.3184     0.2259 
 8935.5000  4339.2036     0.2181 
 8936.0000  3202.6375     0.2152 
 8936.5000  3112.3391     0.2178 
 8937.0000  3844.1907     0.2269 
 8937.5000  4032.0598     0.2269 
 8938.0000  3312.6199     0.2133 
 8938.5000  2502.2656     0.1973 
 8939.0000  2558.9988     0.1976 
 8939.5000  3385.6108     0.2059 
 8940.0000  4394.5815     0.2138 
 8940.5000  5184.7817     0.2158 
 8941.0000  7161.0898     0.2252 
 8941.5000 10686.6641     0.2388 
 8942.0000 13856.8389     0.2484 
 8942.5000 15771.1270     0.2555 
 8943.0000 14000.6240     0.2544 
 8943.5000 11643.0020     0.2519 
 8944.0000  8568.9561     0.2416 
 8944.5000  6138.7495     0.2295 
 8945.0000  4477.1411     0.2173 
 8945.5000  4154.1958     0.2168 
 8946.0000  4626.6841     0.2201 
 8946.5000  5474.7314     0.2271 
 8947.0000  5056.8467     0.2236 
 8947.5000  4796.7217     0.2207 
 8948.0000  5076.6616     0.2189 
 8948.5000  6476.6167     0.2284 
 8949.0000  8825.1094     0.2390 
 8949.5000 11824.9287     0.2515 
 8950.0000 11182.3711     0.2561 
 8950.5000  8544.3359     0.2576 
 8951.0000  5055.1821     0.2518 
 8951.5000   504.0286     0.0227 
 8952.0000     3.6723     0.0261 
 8952.5000   343.3488     0.0353 
 8953.0000  2561.5068     0.2302 
 8953.5000  2304.3975     0.2173 
 8954.0000  1162.6580     0.1904 
 8954.5000   284.6591     0.1330 
