~Version Information
 VERS.                  2.0:   CWLS log ASCII Standard -VERSION 2.0
 WRAP.                   NO:   One line per depth step
~Well Information Block
#MNEM.UNIT       Data Type    Information
#---------     -----------    ---------------------------
 STRT.F              7125.0000:
 STOP.F              8192.5000:
 STEP.F                 0.5000:
 NULL.               -999.2500:
 UWI .                CASN0029:  UWI
 API .                CASN0029:  UWI
 WELL.                 CASN-29:  COMMON WELL NAME
 COMP.               ECOPETROL:  WELL OPERATOR
 FLD .                CASTILLA:  FIELD
 LIC .                 UNKNOWN:  AUTHORIZATION NO
 LOC .                     LLA:  BASIN
 CTRY.                COLOMBIA:  COUNTRY
 STAT.                    META:  STATE
 CNTY.       CASTILLA_LA_NUEVA:  COUNTY
 PROV.                    META:  STATE
 SRVC.                 UNKNOWN:  COMPANY
 DATE.                 UNKNOWN:  LOG RUN DATE
 LONG.           -73.616655939:  LONGITUDE
 LATI.             3.893399628:  LATITUDE
 XCOORD.          1051184.7500:  X COORDINATE
 YCOORD.           922298.0000:  Y COORDINATE
 ELEV.FT             1376.0000:  ELEVATION
 TD  .FT             8225.0000:  TOTAL DEPTH
~Parameter Information Block
#MNEM.UNIT       Value        Description
#---------     -----------    ---------------------------
~Curve Information Block
#MNEM.UNIT                 API CODE     Curve Description
#---------               -----------    ---------------------------
 DEPTH.F                00 000 000 000:  Index Curve
 2019_pPerm_ANS.MD          00 000 000 000:  
 2019_pPhieE_D_ANS.V/V         00 000 000 000:  
~A DEPTH     2019_pPerm_ANS 2019_pPhieE_D_ANS
# ...
 7833.0000     0.5262     0.0000 
 7833.5000     0.6455     0.0000 
 7834.0000     0.9653     0.0007 
 7834.5000     1.0693     0.0019 
 7835.0000     0.8941     0.0003 
 7835.5000     0.7830     0.0000 
 7836.0000     0.9348     0.0005 
 7836.5000     1.8534     0.0028 
 7837.0000   448.6617     0.0397 
 7837.5000  4336.7036     0.2342 
 7838.0000  6657.4902     0.2348 
 7838.5000  6378.6284     0.2301 
 7839.0000  6695.0591     0.2301 
 7839.5000  7345.1064     0.2343 
 7840.0000  9052.4971     0.2391 
 7840.5000  8868.7920     0.2398 
 7841.0000  4300.9780     0.2123 
 7841.5000  3155.2454     0.2140 
 7842.0000  2734.8376     0.2063 
 7842.5000  3217.7141     0.2086 
 7843.0000  4318.2139     0.2096 
 7843.5000  6734.7144     0.2257 
 7844.0000  8520.7725     0.2338 
 7844.5000  7981.3379     0.2296 
 7845.0000  8487.7236     0.2327 
 7845.5000  9312.7002     0.2360 
 7846.0000 11960.6387     0.2450 
 7846.5000  8809.4785     0.2306 
 7847.0000 10448.7959     0.2372 
 7847.5000 11014.0420     0.2391 
 7848.0000  8589.6670     0.2309 
 7848.5000  8165.5659     0.2308 
 7849.0000  8821.4756     0.2334 
 7849.5000  9678.6250     0.2373 
 7850.0000  9402.4834     0.2356 
 7850.5000  8646.9355     0.2331 
 7851.0000  7040.6582     0.2261 
 7851.5000  6793.4355     0.2262 
 7852.0000  6407.2900     0.2232 
 7852.5000  7848.0454     0.2303 
 7853.0000  8098.3022     0.2314 
 7853.5000  7467.3984     0.2287 
 7854.0000  5565.9146     0.2185 
 7854.5000  4577.3398     0.2134 
 7855.0000  3774.5706     0.2076 
 7855.5000  2856.3652     0.1983 
 7856.0000  2183.7874     0.1890 
 7856.5000  4889.3848     0.2226 
 7857.0000  5321.9092     0.2194 
 7857.5000  5344.3809     0.2204 
 7858.0000  5081.7920     0.2174 
 7858.5000  5611.8125     0.2238 
 7859.0000  4186.6030     0.2122 
 7859.5000  4165.0430     0.2138 
 7860.0000  3989.6265     0.2162 
 7860.5000  4181.4111     0.2173 
 7861.0000  4397.2080     0.2199 
 7861.5000  3422.6477     0.2080 
 7862.0000  1949.4103     0.1879 
 7862.5000  1027.7423     0.1754 
 7863.0000   689.3934     0.1685 
 7863.5000   670.3046     0.1725 
 7864.0000  1252.7332     0.1911 
 7864.5000  1123.5403     0.1837 
 7865.0000   819.8680     0.1707 
 7865.5000   970.1488     0.1796 
 7866.0000  1425.7067     0.1833 
 7866.5000  2384.5276     0.1975 
 7867.0000  2414.4944     0.2034 
 7867.5000   237.0027     0.0001 
 7868.0000     4.5765     0.0001 
 7868.5000    74.7168     0.0001 
 7869.0000   975.4587     0.1602 
 7869.5000  3189.7756     0.2147 
 7870.0000  4165.7100     0.2230 
 7870.5000  4368.4414     0.2213 
 7871.0000  3431.5269     0.2059 
 7871.5000  3945.5820     0.2116 
 7872.0000  4178.6709     0.2157 
 7872.5000  3714.2366     0.2164 
 7873.0000  2558.3506     0.2104 
 7873.5000  1669.0469     0.2041 
 7874.0000  1247.9186     0.2048 
 7874.5000  1833.9141     0.2082 
 7875.0000  3041.1921     0.2180 
 7875.5000  2644.4971     0.2132 
 7876.0000  2052.5640     0.2068 
 7876.5000  1883.4423     0.2044 
 7877.0000  1552.1021     0.1993 
 7877.5000  1510.9713     0.1986 
 7878.0000  2022.5834     0.2053 
 7878.5000  2794.4067     0.2112 
 7879.0000  1976.8099     0.1934 
 7879.5000   313.3102     0.0753 
 7880.0000    29.1279     0.0001 
 7880.5000   365.0561     0.1200 
 7881.0000  1891.9539     0.2004 
 7881.5000  2921.2134     0.2071 
 7882.0000  2928.5815     0.2038 
 7882.5000  1908.6578     0.1870 
 7883.0000   312.2570     0.0001 
 7883.5000     5.4788     0.0001 
 7884.0000    26.5880     0.0001 
 7884.5000   195.0161     0.0996 
 7885.0000  2143.0938     0.1936 
 7885.5000  2795.7839     0.1981 
 7886.0000  3749.6306     0.2068 
 7886.5000  4627.9121     0.2158 
 7887.0000  2258.9468     0.1884 
 7887.5000   642.7593     0.1344 
 7888.0000  2309.7039     0.1986 
 7888.5000  1680.5011     0.1824 
 7889.0000   532.3450     0.1382 
 7889.5000   205.7181     0.1299 
 7890.0000    57.5561     0.0440 
 7890.5000   353.9135     0.1231 
 7891.0000  1890.4768     0.2003 
 7891.5000  3015.2275     0.2082 
 7892.0000  2857.3884     0.2035 
 7892.5000  2966.0679     0.2040 
 7893.0000  2492.5007     0.1960 
 7893.5000  2338.0640     0.1924 
 7894.0000  2576.9656     0.1986 
 7894.5000  3429.8496     0.2099 
 7895.0000  4641.3237     0.2178 
 7895.5000  4903.8760     0.2183 
 7896.0000  5953.4727     0.2225 
 7896.5000  5303.2705     0.2180 
 7897.0000  4860.8291     0.2136 
 7897.5000  4086.6987     0.2070 
 7898.0000  3616.9526     0.2040 
 7898.5000  3144.8628     0.1999 
 7899.0000  3534.5701     0.2049 
 7899.5000  2825.8237     0.1992 
 7900.0000  2151.4761     0.1930 
 7900.5000  1299.0299     0.1752 
 7901.0000  1017.3116     0.1732 
 7901.5000   772.5627     0.1707 
 7902.0000   221.2013     0.1225 
 7902.5000   203.5927     0.1164 
 7903.0000  1164.6899     0.1866 
 7903.5000  2266.3320     0.2037 
 7904.0000  2303.2468     0.1968 
 7904.5000  2757.6982     0.1993 
 7905.0000  6751.9058     0.2289 
 7905.5000 10700.5352     0.2419 
 7906.0000 16518.8496     0.2619 
 7906.5000 12167.7188     0.2447 
 7907.0000 10702.4854     0.2449 
 7907.5000  1266.7025     0.1593 
 7908.0000  1509.1343     0.1696 
 7908.5000  4604.9839     0.2256 
 7909.0000  6532.1895     0.2451 
 7909.5000  3017.7039     0.2070 
 7910.0000   681.2827     0.1345 
 7910.5000   522.9627     0.1650 
 7911.0000    92.9587     0.0375 
 7911.5000    40.2890     0.0556 
 7912.0000   167.7788     0.1215 
 7912.5000   455.1256     0.1295 
 7913.0000  1661.6890     0.1924 
 7913.5000  1889.4365     0.1960 
 7914.0000  2093.8816     0.1944 
 7914.5000  2138.4351     0.1946 
 7915.0000  2043.5392     0.1910 
 7915.5000  2801.7229     0.2006 
 7916.0000  3560.6978     0.2062 
 7916.5000  4743.6689     0.2154 
 7917.0000  6123.3184     0.2238 
 7917.5000  5946.6846     0.2213 
 7918.0000  5937.4653     0.2227 
 7918.5000  4319.6821     0.2112 
 7919.0000  2888.8911     0.2003 
 7919.5000  2502.9326     0.1968 
 7920.0000  2403.5432     0.1972 
 7920.5000  4326.1826     0.2213 
 7921.0000  5159.5962     0.2205 
 7921.5000  5420.1475     0.2208 
 7922.0000  4758.7935     0.2166 
 7922.5000  3549.8091     0.2067 
 7923.0000  3904.0471     0.2115 
 7923.5000  5111.5278     0.2183 
 7924.0000  6181.0063     0.2275 
 7924.5000  5540.1387     0.2227 
 7925.0000  5141.6094     0.2232 
 7925.5000  4632.6338     0.2170 
 7926.0000  4417.0396     0.2138 
 7926.5000  4860.6582     0.2154 
 7927.0000  4105.1074     0.2094 
 7927.5000  4398.1118     0.2137 
 7928.0000  4773.9233     0.2191 
 7928.5000  3440.8132     0.2036 
 7929.0000  3046.9680     0.2034 
 7929.5000  2215.3745     0.1886 
 7930.0000  2464.7183     0.1913 
 7930.5000  3023.7427     0.2007 
 7931.0000  2845.8396     0.2084 
 7931.5000  1245.0315     0.1883 
 7932.0000   352.2646     0.1513 
 7932.5000    55.2885     0.0374 
 7933.0000   137.6740     0.1326 
 7933.5000   480.9009     0.1509 
 7934.0000  1478.8444     0.1857 
 7934.5000  2365.0938     0.2035 
 7935.0000  2484.2410     0.2071 
 7935.5000  1477.6250     0.1868 
 7936.0000  1423.2760     0.1876 
 7936.5000  1725.2814     0.1928 
 7937.0000  1715.8206     0.1880 
 7937.5000  2881.0793     0.2020 
 7938.0000  3760.9854     0.2076 
 7938.5000  4160.5664     0.2115 
 7939.0000  3846.5986     0.2062 
 7939.5000  3672.7678     0.2085 
 7940.0000  3149.1545     0.2021 
 7940.5000  3075.9863     0.2018 
 7941.0000  3377.9915     0.2079 
 7941.5000  2237.6604     0.1886 
 7942.0000  2558.8416     0.1981 
 7942.5000  2663.1335     0.1976 
 7943.0000  2663.5259     0.1961 
 7943.5000  2277.2808     0.1937 
 7944.0000  2197.2375     0.1931 
 7944.5000  2895.3147     0.2053 
 7945.0000  3051.4192     0.2114 
 7945.5000  2292.5112     0.2128 
 7946.0000  1425.9476     0.2029 
 7946.5000  1341.9961     0.2040 
 7947.0000  2005.3351     0.2048 
 7947.5000  2747.5315     0.2069 
 7948.0000  2525.7104     0.1958 
 7948.5000  2472.7820     0.1929 
 7949.0000  2729.7700     0.1958 
 7949.5000  3314.2034     0.2015 
 7950.0000  3201.2058     0.2012 
 7950.5000  2895.0957     0.2011 
