~Version Information
 VERS.                  2.0:   CWLS log ASCII Standard -VERSION 2.0
 WRAP.                   NO:   One line per depth step
~Well Information Block
#MNEM.UNIT       Data Type    Information
#---------     -----------    ---------------------------
 STRT.F              7060.0000:
 STOP.F              8042.5000:
 STEP.F                 0.5000:
 NULL.               -999.2500:
 UWI .                CASN0046:  UWI
 API .                CASN0046:  UWI
 WELL.                 CASN-46:  COMMON WELL NAME
 COMP.               ECOPETROL:  WELL OPERATOR
 FLD .                CASTILLA:  FIELD
 LIC .                 UNKNOWN:  AUTHORIZATION NO
 LOC .                     LLA:  BASIN
 CTRY.                COLOMBIA:  COUNTRY
 STAT.                    META:  STATE
 CNTY.       CASTILLA_LA_NUEVA:  COUNTY
 PROV.                    META:  STATE
 SRVC.                 UNKNOWN:  COMPANY
 DATE.                 UNKNOWN:  LOG RUN DATE
 LONG.           -73.632420309:  LONGITUDE
 LATI.             3.896773166:  LATITUDE
 XCOORD.          1049433.6250:  X COORDINATE
 YCOORD.           922670.1250:  Y COORDINATE
 ELEV.FT             1389.3000:  ELEVATION
 TD  .FT             8065.0000:  TOTAL DEPTH
~Parameter Information Block
#MNEM.UNIT       Value        Description
#---------     -----------    ---------------------------
~Curve Information Block
#MNEM.UNIT                 API CODE     Curve Description
#---------               -----------    ---------------------------
 DEPTH.F                00 000 000 000:  Index Curve
 2019_pPerm_ANS.MD          00 000 000 000:  
 2019_pPhieE_D_ANS.V/V         00 000 000 000:  
~A DEPTH     2019_pPerm_ANS 2019_pPhieE_D_ANS
# ...
 7768.0000  2010.8158     0.1925 
 7768.5000  1760.4167     0.1881 
 7769.0000  1548.0104     0.1854 
 7769.5000  1444.3101     0.1856 
 7770.0000  1336.6686     0.1843 
 7770.5000  1258.1307     0.1827 
 7771.0000  1137.2013     0.1788 
 7771.5000  1330.8190     0.1814 
 7772.0000  1800.0757     0.1897 
 7772.5000  2602.0342     0.1999 
 7773.0000  3339.5330     0.2095 
 7773.5000  3255.0791     0.2104 
 7774.0000  3574.4270     0.2141 
 7774.5000  3793.9458     0.2129 
 7775.0000  3491.6780     0.2072 
 7775.5000  2430.3442     0.1932 
 7776.0000  1781.0039     0.1833 
 7776.5000  1703.4000     0.1832 
 7777.0000  2119.4702     0.1940 
 7777.5000  2407.5044     0.2000 
 7778.0000  2840.8113     0.2071 
 7778.5000  3033.6069     0.2065 
 7779.0000  3348.2664     0.2115 
 7779.5000  3885.4185     0.2161 
 7780.0000  4661.8867     0.2217 
 7780.5000  5450.9878     0.2208 
 7781.0000  5156.9121     0.2163 
 7781.5000  4309.6221     0.2078 
 7782.0000  4015.3601     0.2051 
 7782.5000  3967.8274     0.2058 
 7783.0000  4200.3604     0.2090 
 7783.5000  4345.6494     0.2099 
 7784.0000  4150.3120     0.2075 
 7784.5000  4125.1274     0.2067 
 7785.0000  3765.3857     0.2031 
 7785.5000  3118.9807     0.1977 
 7786.0000  2365.8452     0.1889 
 7786.5000  1994.8945     0.1843 
 7787.0000  2214.6245     0.1878 
 7787.5000  2707.9377     0.1951 
 7788.0000  2878.5916     0.1968 
 7788.5000  2747.4934     0.1973 
 7789.0000  2458.3875     0.1960 
 7789.5000  2791.3518     0.2038 
 7790.0000  2786.3970     0.2029 
 7790.5000  2799.9487     0.2015 
 7791.0000  2534.4678     0.1951 
 7791.5000  2497.0261     0.1932 
 7792.0000  2653.5320     0.1955 
 7792.5000  2766.0256     0.1972 
 7793.0000  2838.7046     0.1975 
 7793.5000  2531.6838     0.1935 
 7794.0000  1988.9270     0.1861 
 7794.5000  1628.8865     0.1810 
 7795.0000  1445.0364     0.1779 
 7795.5000  1118.9342     0.1693 
 7796.0000   562.9542     0.1418 
 7796.5000   251.7060     0.1149 
 7797.0000   187.5318     0.1080 
 7797.5000   260.2923     0.1193 
 7798.0000   456.1965     0.1376 
 7798.5000   725.4986     0.1511 
 7799.0000  1333.1151     0.1714 
 7799.5000  2192.8762     0.1900 
 7800.0000  3237.1841     0.2072 
 7800.5000  3523.7053     0.2133 
 7801.0000  2964.8936     0.2106 
 7801.5000  2216.1479     0.1994 
 7802.0000  1733.1991     0.1871 
 7802.5000  1222.8990     0.1715 
 7803.0000   754.6095     0.1535 
 7803.5000   490.9280     0.1423 
 7804.0000   493.5847     0.1442 
 7804.5000   579.3574     0.1527 
 7805.0000   586.9412     0.1544 
 7805.5000   530.0110     0.1494 
 7806.0000   459.2178     0.1418 
 7806.5000   439.9639     0.1392 
 7807.0000   420.3264     0.1378 
 7807.5000   379.6188     0.1335 
 7808.0000   348.8984     0.1293 
 7808.5000   365.1708     0.1268 
 7809.0000   527.3067     0.1395 
 7809.5000   967.1057     0.1596 
 7810.0000  1755.5645     0.1829 
 7810.5000  2258.2188     0.1915 
 7811.0000  2277.8965     0.1889 
 7811.5000  2058.4465     0.1857 
 7812.0000  2191.4517     0.1954 
 7812.5000  2641.6318     0.2103 
 7813.0000  3112.4883     0.2163 
 7813.5000  2646.6157     0.2059 
 7814.0000  2303.8462     0.1942 
 7814.5000  2298.8503     0.1926 
 7815.0000  2485.4763     0.1981 
 7815.5000  2253.0459     0.1964 
 7816.0000  1947.0388     0.1927 
 7816.5000  1836.6851     0.1912 
 7817.0000  1591.3695     0.1881 
 7817.5000  1159.8499     0.1758 
 7818.0000   893.5534     0.1652 
 7818.5000   998.5023     0.1663 
 7819.0000  1243.1786     0.1731 
 7819.5000  1402.0061     0.1759 
 7820.0000  1361.6089     0.1768 
 7820.5000  1237.4631     0.1734 
 7821.0000  1261.3839     0.1755 
 7821.5000  1206.5032     0.1740 
 7822.0000  1101.9076     0.1717 
 7822.5000   922.1210     0.1649 
 7823.0000   939.0831     0.1643 
 7823.5000   939.1395     0.1644 
 7824.0000  1051.4514     0.1686 
 7824.5000  1223.6635     0.1742 
 7825.0000  1974.3245     0.1896 
 7825.5000  2757.8623     0.1999 
 7826.0000  3270.2727     0.2045 
 7826.5000  3177.7539     0.2037 
 7827.0000  2103.1987     0.1915 
 7827.5000  1030.6853     0.1712 
 7828.0000   651.0377     0.1576 
 7828.5000   853.3773     0.1632 
 7829.0000  1606.1942     0.1807 
 7829.5000  2261.2668     0.1900 
 7830.0000  2286.6028     0.1896 
 7830.5000  1752.2185     0.1812 
 7831.0000  1133.7491     0.1662 
 7831.5000   912.7969     0.1592 
 7832.0000   972.3682     0.1640 
 7832.5000  1544.7869     0.1788 
 7833.0000  2332.5984     0.1918 
 7833.5000  2848.4897     0.1966 
 7834.0000  3164.5972     0.1987 
 7834.5000  3126.5710     0.1968 
 7835.0000  3232.0244     0.1996 
 7835.5000  2371.6523     0.1894 
 7836.0000  1261.3408     0.1683 
 7836.5000   499.4919     0.1343 
 7837.0000   207.9799     0.1126 
 7837.5000   146.6171     0.1033 
 7838.0000   137.8369     0.1034 
 7838.5000   128.8803     0.1001 
 7839.0000   132.0697     0.1019 
 7839.5000   183.2657     0.1149 
 7840.0000   322.9667     0.1369 
 7840.5000   496.9019     0.1529 
 7841.0000   661.6936     0.1596 
 7841.5000   809.9916     0.1630 
 7842.0000  1131.9841     0.1704 
 7842.5000  1578.1493     0.1819 
 7843.0000  1762.1006     0.1842 
 7843.5000  1741.6364     0.1818 
 7844.0000  1379.8237     0.1705 
 7844.5000  1399.7882     0.1736 
 7845.0000  1751.4923     0.1790 
 7845.5000  2438.1001     0.1906 
 7846.0000  3081.4646     0.1979 
 7846.5000  3558.4773     0.2029 
 7847.0000  3056.7751     0.2003 
 7847.5000  1578.8521     0.1787 
 7848.0000   624.8665     0.1513 
 7848.5000   264.5770     0.1285 
 7849.0000   250.5716     0.1284 
 7849.5000   475.5085     0.1470 
 7850.0000   980.0460     0.1692 
 7850.5000  1663.5698     0.1849 
 7851.0000  2102.5601     0.1901 
 7851.5000  1982.5701     0.1869 
 7852.0000  1833.4534     0.1843 
 7852.5000  1737.4407     0.1818 
 7853.0000  1796.1526     0.1834 
 7853.5000  1687.4298     0.1833 
 7854.0000  1309.3270     0.1782 
 7854.5000  1070.1823     0.1744 
 7855.0000  1181.7017     0.1781 
 7855.5000  1922.5564     0.1868 
 7856.0000  3090.2485     0.1974 
 7856.5000  3706.7576     0.2027 
 7857.0000  3867.0298     0.2037 
 7857.5000  3443.5618     0.2001 
 7858.0000  3182.8264     0.1974 
 7858.5000  3238.2102     0.1985 
 7859.0000  3393.6257     0.2006 
 7859.5000  3264.3118     0.2002 
 7860.0000  2729.0129     0.1931 
 7860.5000  2442.5115     0.1898 
 7861.0000  2321.8843     0.1874 
 7861.5000  2461.3767     0.1891 
 7862.0000  2384.5889     0.1885 
 7862.5000  1995.4393     0.1825 
 7863.0000  1539.5178     0.1741 
 7863.5000  1372.0193     0.1731 
 7864.0000  1784.3051     0.1814 
 7864.5000  2376.8174     0.1919 
 7865.0000  2254.9165     0.1920 
 7865.5000  1450.3531     0.1757 
 7866.0000   787.7723     0.1530 
 7866.5000   557.5361     0.1509 
 7867.0000   849.6669     0.1660 
 7867.5000  1779.1556     0.1965 
 7868.0000  3115.6284     0.2113 
 7868.5000  4267.4399     0.2150 
 7869.0000  4806.8130     0.2146 
 7869.5000  4779.1719     0.2102 
 7870.0000  4884.2563     0.2110 
 7870.5000  4489.2056     0.2086 
 7871.0000  3591.5474     0.2014 
 7871.5000  2874.3472     0.1956 
 7872.0000  2436.7124     0.1925 
 7872.5000  2744.1555     0.1975 
 7873.0000  3352.5647     0.2040 
 7873.5000  3409.2725     0.2046 
 7874.0000  2731.8401     0.1978 
 7874.5000  1678.7991     0.1835 
 7875.0000  1057.0890     0.1727 
 7875.5000   720.3292     0.1628 
 7876.0000   400.6352     0.1491 
 7876.5000   190.2561     0.1312 
 7877.0000   126.9852     0.1268 
 7877.5000   328.9655     0.1446 
 7878.0000  1036.2017     0.1749 
 7878.5000  2775.4106     0.1998 
 7879.0000  4290.5332     0.2108 
 7879.5000  4573.8296     0.2105 
 7880.0000  4609.3789     0.2102 
 7880.5000  4538.7578     0.2082 
 7881.0000  4633.9263     0.2098 
 7881.5000  4050.3635     0.2051 
 7882.0000  3590.2292     0.2021 
 7882.5000  3909.3127     0.2059 
 7883.0000  5587.4404     0.2160 
 7883.5000  8142.3711     0.2270 
 7884.0000  9685.4561     0.2323 
 7884.5000 10340.7871     0.2338 
 7885.0000  9523.8887     0.2319 
 7885.5000  8111.2549     0.2264 
