~Version Information
 VERS.                  2.0:   CWLS log ASCII Standard -VERSION 2.0
 WRAP.                   NO:   One line per depth step
~Well Information Block
#MNEM.UNIT       Data Type    Information
#---------     -----------    ---------------------------
 STRT.F              7060.0000:
 STOP.F              8042.5000:
 STEP.F                 0.5000:
 NULL.               -999.2500:
 UWI .                CASN0046:  UWI
 API .                CASN0046:  UWI
 WELL.                 CASN-46:  COMMON WELL NAME
 COMP.               ECOPETROL:  WELL OPERATOR
 FLD .                CASTILLA:  FIELD
 LIC .                 UNKNOWN:  AUTHORIZATION NO
 LOC .                     LLA:  BASIN
 CTRY.                COLOMBIA:  COUNTRY
 STAT.                    META:  STATE
 CNTY.       CASTILLA_LA_NUEVA:  COUNTY
 PROV.                    META:  STATE
 SRVC.                 UNKNOWN:  COMPANY
 DATE.                 UNKNOWN:  LOG RUN DATE
 LONG.           -73.632420309:  LONGITUDE
 LATI.             3.896773166:  LATITUDE
 XCOORD.          1049433.6250:  X COORDINATE
 YCOORD.           922670.1250:  Y COORDINATE
 ELEV.FT             1389.3000:  ELEVATION
 TD  .FT             8065.0000:  TOTAL DEPTH
~Parameter Information Block
#MNEM.UNIT       Value        Description
#---------     -----------    ---------------------------
~Curve Information Block
#MNEM.UNIT                 API CODE     Curve Description
#---------               -----------    ---------------------------
 DEPTH.F                00 000 000 000:  Index Curve
 2019_pPerm_ANS.MD          00 000 000 000:  
 2019_pPhieE_D_ANS.V/V         00 000 000 000:  
~A DEPTH     2019_pPerm_ANS 2019_pPhieE_D_ANS
 7060.0000  2659.4324     0.1848 
 7060.5000   668.3437     0.1627 
 7061.0000   163.6307     0.1331 
 7061.5000    90.9146     0.1199 
 7062.0000    94.7918     0.1218 
 7062.5000  1274.6599     0.1647 
 7063.0000  5251.8809     0.2119 
 7063.5000 20000.0000     0.2468 
 7064.0000 20000.0000     0.2667 
 7064.5000 20000.0000     0.2828 
 7065.0000 20000.0000     0.2723 
 7065.5000 20000.0000     0.2443 
 7066.0000  5142.6025     0.2064 
 7066.5000  1496.0569     0.1802 
 7067.0000   300.7848     0.1399 
 7067.5000    34.5341     0.0833 
 7068.0000     2.8614     0.0531 
 7068.5000     0.2016     0.0092 
 7069.0000     0.0007     0.0161 
 7069.5000     0.0007     0.0167 
 7070.0000     0.0002     0.0058 
 7070.5000     0.0000     0.0004 
 7071.0000     0.0000     0.0004 
 7071.5000     0.0000     0.0010 
 7072.0000     0.0000     0.0015 
 7072.5000     0.0000     0.0010 
 7073.0000     0.0000     0.0005 
 7073.5000     0.0000     0.0003 
 7074.0000     0.0000     0.0001 
 7074.5000     0.0000     0.0001 
 7075.0000     0.0000     0.0001 
 7075.5000     0.0001     0.0009 
 7076.0000     0.5857     0.0167 
 7076.5000     3.3812     0.0647 
 7077.0000     2.1051     0.0550 
 7077.5000     0.6215     0.0348 
 7078.0000     0.3570     0.0316 
 7078.5000     0.3879     0.0325 
 7079.0000     0.4925     0.0369 
 7079.5000     0.2605     0.0284 
 7080.0000     0.0675     0.0111 
 7080.5000     0.2014     0.0395 
 7081.0000     0.0188     0.0073 
 7081.5000     0.0001     0.0007 
 7082.0000     0.0000     0.0000 
 7082.5000     0.0000     0.0000 
 7083.0000     0.0000     0.0000 
 7083.5000     0.0000     0.0000 
 7084.0000     0.0000     0.0000 
 7084.5000     0.0000     0.0000 
 7085.0000     0.0000     0.0001 
 7085.5000     0.2166     0.0070 
 7086.0000     1.2756     0.0490 
 7086.5000     1.3508     0.0483 
 7087.0000     1.4945     0.0505 
 7087.5000     1.4248     0.0489 
 7088.0000     1.5997     0.0512 
 7088.5000     1.6104     0.0525 
 7089.0000     0.7968     0.0403 
 7089.5000     0.3166     0.0299 
 7090.0000     0.1231     0.0210 
 7090.5000     0.0189     0.0077 
 7091.0000     0.0017     0.0001 
 7091.5000     0.0000     0.0001 
 7092.0000     0.0178     0.0001 
 7092.5000     0.2884     0.0211 
 7093.0000     8.5700     0.0689 
 7093.5000    31.9774     0.1026 
 7094.0000    35.5124     0.1065 
 7094.5000    23.6723     0.0966 
 7095.0000    17.4224     0.0904 
 7095.5000    13.9014     0.0869 
 7096.0000    11.6675     0.0828 
 7096.5000    13.8839     0.0844 
 7097.0000    60.4584     0.1054 
 7097.5000   261.2213     0.1418 
 7098.0000   825.9733     0.1708 
 7098.5000  1343.7792     0.1828 
 7099.0000  1418.1797     0.1825 
 7099.5000  1596.9670     0.1853 
 7100.0000  1949.5488     0.1899 
 7100.5000  2507.2109     0.1960 
 7101.0000  3050.9617     0.2007 
 7101.5000  3293.8374     0.2027 
 7102.0000  3222.3525     0.2020 
 7102.5000  2670.9768     0.1973 
 7103.0000  2169.0000     0.1925 
 7103.5000  2077.3757     0.1914 
 7104.0000  2105.6211     0.1919 
 7104.5000  3857.1953     0.2054 
 7105.0000  6021.5483     0.2164 
 7105.5000  7462.8276     0.2245 
 7106.0000  4708.1348     0.2104 
 7106.5000  1907.4373     0.1854 
 7107.0000   651.1859     0.1625 
 7107.5000   599.5046     0.1615 
 7108.0000   851.5965     0.1714 
 7108.5000  1072.6311     0.1768 
 7109.0000  1277.3107     0.1789 
 7109.5000  2142.0823     0.1907 
 7110.0000  3525.5886     0.2064 
 7110.5000  2640.3726     0.1977 
 7111.0000   997.7762     0.1695 
 7111.5000   340.1901     0.1492 
 7112.0000   155.7379     0.1336 
 7112.5000    22.9526     0.0888 
 7113.0000     2.9946     0.0396 
 7113.5000     0.0224     0.0124 
 7114.0000     0.0002     0.0048 
 7114.5000     0.0000     0.0032 
 7115.0000     0.0003     0.0087 
 7115.5000     0.0083     0.0204 
 7116.0000     1.8351     0.0386 
 7116.5000    14.1854     0.0810 
 7117.0000   113.4587     0.1231 
 7117.5000   320.7937     0.1492 
 7118.0000   651.8394     0.1646 
 7118.5000  1153.1377     0.1769 
 7119.0000  2255.2173     0.1926 
 7119.5000  3846.4490     0.2061 
 7120.0000  4966.5522     0.2132 
 7120.5000  4134.5107     0.2078 
 7121.0000  2857.7000     0.1983 
 7121.5000  2312.4861     0.1927 
 7122.0000  2494.8860     0.1959 
 7122.5000  2650.4961     0.1980 
 7123.0000  2420.6157     0.1950 
 7123.5000  2409.3162     0.1945 
 7124.0000  2668.2817     0.1973 
 7124.5000  3178.8647     0.2027 
 7125.0000  2985.8450     0.2000 
 7125.5000  2461.0305     0.1955 
 7126.0000  1962.2623     0.1902 
 7126.5000  1864.1044     0.1886 
 7127.0000  1979.3481     0.1904 
 7127.5000  2476.8367     0.1942 
 7128.0000  3598.1809     0.2049 
 7128.5000  3765.8940     0.2068 
 7129.0000  2679.6423     0.1980 
 7129.5000  1076.6471     0.1727 
 7130.0000   436.6892     0.1539 
 7130.5000   317.9357     0.1482 
 7131.0000   413.9450     0.1542 
 7131.5000   703.1386     0.1656 
 7132.0000  1630.0623     0.1824 
 7132.5000  3975.3564     0.2054 
 7133.0000  8845.1299     0.2251 
 7133.5000 14064.1133     0.2371 
 7134.0000 13873.1045     0.2353 
 7134.5000 15481.6689     0.2387 
 7135.0000 20000.0000     0.2453 
 7135.5000 20000.0000     0.2546 
 7136.0000 20000.0000     0.2575 
 7136.5000 20000.0000     0.2460 
 7137.0000  4986.2803     0.1943 
 7137.5000   189.9669     0.1134 
 7138.0000     8.9683     0.0409 
 7138.5000     0.0264     0.0069 
 7139.0000     0.0003     0.0092 
 7139.5000     0.0005     0.0115 
 7140.0000     0.0364     0.0181 
 7140.5000     0.2544     0.0388 
 7141.0000     0.4374     0.0338 
 7141.5000     0.7902     0.0407 
 7142.0000     1.6130     0.0495 
 7142.5000     4.1543     0.0649 
 7143.0000     7.5759     0.0762 
 7143.5000     7.8781     0.0788 
 7144.0000     3.4000     0.0603 
 7144.5000     4.1222     0.0697 
 7145.0000     0.2838     0.0322 
 7145.5000     0.1176     0.0270 
 7146.0000     0.1898     0.0332 
 7146.5000     4.5387     0.0695 
 7147.0000     6.5641     0.0714 
 7147.5000    35.0486     0.0990 
 7148.0000    98.0635     0.1247 
 7148.5000   170.0697     0.1354 
 7149.0000   278.0237     0.1456 
 7149.5000   548.7516     0.1597 
 7150.0000  1047.2312     0.1757 
 7150.5000  1662.9113     0.1865 
 7151.0000  2322.0574     0.1935 
 7151.5000  3483.3970     0.2026 
 7152.0000  5729.0142     0.2146 
 7152.5000  8692.3115     0.2253 
 7153.0000 10564.5752     0.2303 
 7153.5000 10816.6221     0.2305 
 7154.0000  8921.1836     0.2269 
 7154.5000  4839.8853     0.2107 
 7155.0000  2164.9419     0.1900 
 7155.5000   491.7960     0.1577 
 7156.0000   169.9041     0.1309 
 7156.5000    22.8066     0.0949 
 7157.0000    12.1360     0.0824 
 7157.5000     8.7981     0.0724 
 7158.0000   231.9444     0.1174 
 7158.5000  1456.9764     0.1780 
 7159.0000  6859.5854     0.2200 
 7159.5000 11027.3486     0.2319 
 7160.0000  9307.4043     0.2264 
 7160.5000  7372.1079     0.2212 
 7161.0000  5172.0713     0.2130 
 7161.5000  2698.2410     0.1964 
 7162.0000  1077.1775     0.1736 
 7162.5000   579.5871     0.1586 
 7163.0000   794.1012     0.1678 
 7163.5000  1483.2021     0.1864 
 7164.0000  1320.7051     0.1823 
 7164.5000   346.0645     0.1378 
 7165.0000    14.6631     0.0718 
 7165.5000     3.0324     0.0607 
 7166.0000     0.0594     0.0057 
 7166.5000     0.0000     0.0011 
 7167.0000     0.0000     0.0006 
 7167.5000     0.0000     0.0001 
 7168.0000     0.0000     0.0000 
 7168.5000     0.0000     0.0000 
 7169.0000     0.0000     0.0000 
 7169.5000     0.0000     0.0001 
 7170.0000     0.0000     0.0003 
 7170.5000     0.0000     0.0008 
 7171.0000     0.0000     0.0019 
 7171.5000     0.1897     0.0095 
 7172.0000     1.8549     0.0498 
 7172.5000     4.8421     0.0717 
 7173.0000     0.8929     0.0256 
 7173.5000     0.0077     0.0019 
 7174.0000     0.0000     0.0002 
 7174.5000     0.0000     0.0002 
 7175.0000     0.0000     0.0006 
 7175.5000     0.0000     0.0009 
 7176.0000     0.0000     0.0009 
 7176.5000     0.0000     0.0005 
 7177.0000     0.0000     0.0008 
 7177.5000     0.0000     0.0007 
