~Version Information
 VERS.                  2.0:   CWLS log ASCII Standard -VERSION 2.0
 WRAP.                   NO:   One line per depth step
~Well Information Block
#MNEM.UNIT       Data Type    Information
#---------     -----------    ---------------------------
 STRT.F              7375.0000:
 STOP.F              8337.5000:
 STEP.F                 0.5000:
 NULL.               -999.2500:
 UWI .                CASN0038:  UWI
 API .                CASN0038:  UWI
 WELL.                 CASN-38:  COMMON WELL NAME
 COMP.               ECOPETROL:  WELL OPERATOR
 FLD .                CASTILLA:  FIELD
 LIC .                 UNKNOWN:  AUTHORIZATION NO
 LOC .                     LLA:  BASIN
 CTRY.                COLOMBIA:  COUNTRY
 STAT.                    META:  STATE
 CNTY.       CASTILLA_LA_NUEVA:  COUNTY
 PROV.                    META:  STATE
 SRVC.                 UNKNOWN:  COMPANY
 DATE.                 UNKNOWN:  LOG RUN DATE
 LONG.           -73.615687866:  LONGITUDE
 LATI.             3.887258472:  LATITUDE
 XCOORD.          1051292.6250:  X COORDINATE
 YCOORD.           921618.9375:  Y COORDINATE
 ELEV.FT             1369.0000:  ELEVATION
 TD  .FT             8358.0000:  TOTAL DEPTH
~Parameter Information Block
#MNEM.UNIT       Value        Description
#---------     -----------    ---------------------------
~Curve Information Block
#MNEM.UNIT                 API CODE     Curve Description
#---------               -----------    ---------------------------
 DEPTH.F                00 000 000 000:  Index Curve
 2019_pPerm_ANS.MD          00 000 000 000:  
 2019_pPhieE_D_ANS.V/V         00 000 000 000:  
~A DEPTH     2019_pPerm_ANS 2019_pPhieE_D_ANS
# ...
 7493.0000 16797.1465     0.2441 
 7493.5000  5752.0234     0.2103 
 7494.0000   954.3396     0.1561 
 7494.5000    56.5522     0.0704 
 7495.0000     0.7471     0.0276 
 7495.5000     0.1386     0.0154 
 7496.0000     0.7646     0.0436 
 7496.5000     1.3045     0.0349 
 7497.0000     5.9923     0.0745 
 7497.5000     1.1752     0.0278 
 7498.0000     0.0063     0.0099 
 7498.5000     0.0007     0.0162 
 7499.0000     0.0004     0.0114 
 7499.5000     0.0011     0.0213 
 7500.0000     0.0013     0.0207 
 7500.5000    48.7598     0.0129 
 7501.0000   313.1003     0.1475 
 7501.5000  1217.2379     0.1764 
 7502.0000  2625.4998     0.1969 
 7502.5000  3958.0935     0.2036 
 7503.0000  8420.3379     0.2199 
 7503.5000 20000.0000     0.2522 
 7504.0000 11217.4238     0.2276 
 7504.5000  8725.7061     0.2193 
 7505.0000 18865.5098     0.2417 
 7505.5000 20000.0000     0.2611 
 7506.0000 20000.0000     0.2684 
 7506.5000 20000.0000     0.2729 
 7507.0000 20000.0000     0.2644 
 7507.5000 20000.0000     0.2485 
 7508.0000 18142.7949     0.2356 
 7508.5000 20000.0000     0.2574 
 7509.0000 20000.0000     0.2476 
 7509.5000 20000.0000     0.2494 
 7510.0000 12352.9902     0.2272 
 7510.5000 12248.8809     0.2332 
 7511.0000 20000.0000     0.2468 
 7511.5000 20000.0000     0.2516 
 7512.0000  8158.1016     0.2142 
 7512.5000  1510.5327     0.1809 
 7513.0000  1994.5171     0.1659 
 7513.5000 10494.1006     0.2249 
 7514.0000 20000.0000     0.2611 
 7514.5000 20000.0000     0.2947 
 7515.0000 20000.0000     0.3093 
 7515.5000 20000.0000     0.2846 
 7516.0000 20000.0000     0.2781 
 7516.5000 20000.0000     0.2793 
 7517.0000 20000.0000     0.2852 
 7517.5000 20000.0000     0.2934 
 7518.0000 20000.0000     0.3078 
 7518.5000 20000.0000     0.3082 
 7519.0000 20000.0000     0.2986 
 7519.5000 20000.0000     0.2670 
 7520.0000 15486.5195     0.2365 
 7520.5000 20000.0000     0.2568 
 7521.0000 20000.0000     0.2728 
 7521.5000 20000.0000     0.2920 
 7522.0000 20000.0000     0.2614 
 7522.5000 20000.0000     0.2564 
 7523.0000  9277.1201     0.2223 
 7523.5000 12333.8721     0.2168 
 7524.0000 20000.0000     0.2642 
 7524.5000  9000.6621     0.2042 
 7525.0000   384.5343     0.0153 
 7525.5000     0.2787     0.0178 
 7526.0000   132.4526     0.0551 
 7526.5000  3320.4705     0.1759 
 7527.0000 20000.0000     0.2464 
 7527.5000 20000.0000     0.2667 
 7528.0000 20000.0000     0.2703 
 7528.5000 20000.0000     0.2629 
 7529.0000  9899.6230     0.2104 
 7529.5000   683.8268     0.1593 
 7530.0000   102.1890     0.1020 
 7530.5000     0.9816     0.0288 
 7531.0000     0.0427     0.0060 
 7531.5000     0.0000     0.0009 
 7532.0000     0.0000     0.0002 
 7532.5000     0.0000     0.0001 
 7533.0000     0.0000     0.0001 
 7533.5000     0.0000     0.0002 
 7534.0000     2.0069     0.0014 
 7534.5000    18.1621     0.0853 
 7535.0000    84.7325     0.1213 
 7535.5000   148.2323     0.1339 
 7536.0000   151.2586     0.1343 
 7536.5000   100.2162     0.1249 
 7537.0000    57.0013     0.1045 
 7537.5000   157.4754     0.1335 
 7538.0000   262.3672     0.1482 
 7538.5000    67.9116     0.0582 
 7539.0000   167.8194     0.1311 
 7539.5000  1054.5757     0.1659 
 7540.0000  3724.8496     0.2035 
 7540.5000  7598.6553     0.2272 
 7541.0000  2706.6836     0.1964 
 7541.5000   659.4268     0.1495 
 7542.0000    76.3535     0.1186 
 7542.5000    12.4125     0.0417 
 7543.0000     0.2269     0.0312 
 7543.5000    69.0188     0.0549 
 7544.0000   405.9016     0.1552 
 7544.5000   555.5692     0.1615 
 7545.0000   690.7986     0.1649 
 7545.5000  1092.7386     0.1789 
 7546.0000   928.8199     0.1739 
 7546.5000   468.8438     0.1533 
 7547.0000   433.9856     0.1580 
 7547.5000   246.3810     0.1430 
 7548.0000    95.0447     0.1194 
 7548.5000    52.2064     0.1104 
 7549.0000    51.7296     0.1130 
 7549.5000    36.3082     0.1043 
 7550.0000    20.4477     0.0927 
 7550.5000     8.6735     0.0771 
 7551.0000     5.4531     0.0718 
 7551.5000     0.2390     0.0308 
 7552.0000     0.5300     0.0198 
 7552.5000     3.0888     0.0608 
 7553.0000     7.6314     0.0727 
 7553.5000    18.7950     0.0906 
 7554.0000    90.5402     0.1156 
 7554.5000   263.5150     0.1469 
 7555.0000   207.7453     0.1413 
 7555.5000    94.9952     0.1222 
 7556.0000    41.8612     0.1069 
 7556.5000     4.6707     0.0357 
 7557.0000     0.0276     0.0172 
 7557.5000     0.0002     0.0080 
 7558.0000     0.0001     0.0030 
 7558.5000     0.0005     0.0142 
 7559.0000     0.0002     0.0075 
 7559.5000     0.0001     0.0042 
 7560.0000     0.0000     0.0000 
 7560.5000     0.0000     0.0000 
 7561.0000     0.0001     0.0052 
 7561.5000     0.0000     0.0022 
 7562.0000     0.0000     0.0019 
 7562.5000     0.0002     0.0064 
 7563.0000     0.0006     0.0142 
 7563.5000     0.0001     0.0018 
 7564.0000     0.0001     0.0062 
 7564.5000     0.0000     0.0036 
 7565.0000     0.0000     0.0039 
 7565.5000     0.0113     0.0117 
 7566.0000     0.0600     0.0244 
 7566.5000     0.0108     0.0162 
 7567.0000     0.0001     0.0008 
 7567.5000     0.0000     0.0010 
 7568.0000     0.0000     0.0007 
 7568.5000     0.0000     0.0005 
 7569.0000     0.0000     0.0005 
 7569.5000     0.0000     0.0013 
 7570.0000     0.0000     0.0010 
 7570.5000     0.0000     0.0011 
 7571.0000     0.0000     0.0008 
 7571.5000     0.0000     0.0010 
 7572.0000     0.0000     0.0003 
 7572.5000     0.0000     0.0001 
 7573.0000     0.0000     0.0007 
 7573.5000     0.0857     0.0059 
 7574.0000  1145.0192     0.0682 
 7574.5000  7240.1299     0.2193 
 7575.0000 18582.8809     0.2431 
 7575.5000 20000.0000     0.2538 
 7576.0000 20000.0000     0.2531 
 7576.5000 18358.2754     0.2434 
 7577.0000  4235.0112     0.1922 
 7577.5000   246.9035     0.0003 
 7578.0000     0.0000     0.0001 
 7578.5000     0.0000     0.0011 
 7579.0000     0.0000     0.0012 
 7579.5000     0.1277     0.0016 
 7580.0000     6.1469     0.0431 
 7580.5000    42.5686     0.1146 
 7581.0000     4.0747     0.0258 
 7581.5000     0.0135     0.0032 
 7582.0000     0.0000     0.0007 
 7582.5000     0.0000     0.0001 
 7583.0000     0.0000     0.0002 
 7583.5000     0.0000     0.0006 
 7584.0000     0.0000     0.0003 
 7584.5000     0.0000     0.0006 
 7585.0000     0.0000     0.0039 
 7585.5000     0.0000     0.0015 
 7586.0000     0.0000     0.0010 
 7586.5000     0.0003     0.0091 
 7587.0000     0.0002     0.0074 
 7587.5000     0.0000     0.0013 
 7588.0000     0.0000     0.0010 
 7588.5000     0.0000     0.0006 
 7589.0000     0.0000     0.0004 
 7589.5000     0.0000     0.0004 
 7590.0000     0.0000     0.0001 
 7590.5000     0.0000     0.0011 
 7591.0000     0.0000     0.0012 
 7591.5000     0.0000     0.0003 
 7592.0000     0.0000     0.0002 
 7592.5000     0.0000     0.0001 
 7593.0000     0.0000     0.0003 
 7593.5000     0.0000     0.0001 
 7594.0000     0.0204     0.0004 
 7594.5000     0.1266     0.0297 
 7595.0000     0.2507     0.0419 
 7595.5000     0.0176     0.0001 
 7596.0000     0.1322     0.0072 
 7596.5000     0.8531     0.0417 
 7597.0000     1.7357     0.0563 
 7597.5000     0.3864     0.0206 
 7598.0000     1.8234     0.0516 
 7598.5000     3.6211     0.0667 
 7599.0000     0.5438     0.0005 
 7599.5000     0.0000     0.0030 
 7600.0000     0.0000     0.0027 
 7600.5000     0.0000     0.0012 
 7601.0000     0.0000     0.0001 
 7601.5000     0.0000     0.0001 
 7602.0000     0.0000     0.0006 
 7602.5000     0.0000     0.0001 
 7603.0000     0.0000     0.0002 
 7603.5000     0.0000     0.0011 
 7604.0000     0.0000     0.0003 
 7604.5000     0.0000     0.0001 
 7605.0000     0.0000     0.0000 
 7605.5000     0.0000     0.0003 
 7606.0000     0.0000     0.0003 
 7606.5000     0.0003     0.0118 
 7607.0000     0.0000     0.0001 
 7607.5000     0.0000     0.0001 
 7608.0000     0.0000     0.0013 
 7608.5000     0.0002     0.0026 
 7609.0000     0.1188     0.0208 
 7609.5000     0.7638     0.0446 
 7610.0000     0.1347     0.0213 
 7610.5000     0.0001     0.0028 
