~Version Information
 VERS.                  2.0:   CWLS log ASCII Standard -VERSION 2.0
 WRAP.                   NO:   One line per depth step
~Well Information Block
#MNEM.UNIT       Data Type    Information
#---------     -----------    ---------------------------
 STRT.F              7958.5000:
 STOP.F              9186.0000:
 STEP.F                 0.5000:
 NULL.               -999.2500:
 UWI .                CASN0032:  UWI
 API .                CASN0032:  UWI
 WELL.                 CASN-32:  COMMON WELL NAME
 COMP.               ECOPETROL:  WELL OPERATOR
 FLD .                CASTILLA:  FIELD
 LIC .                 UNKNOWN:  AUTHORIZATION NO
 LOC .                     LLA:  BASIN
 CTRY.                COLOMBIA:  COUNTRY
 STAT.                    META:  STATE
 CNTY.       CASTILLA_LA_NUEVA:  COUNTY
 PROV.                    META:  STATE
 SRVC.                 UNKNOWN:  COMPANY
 DATE.                 UNKNOWN:  LOG RUN DATE
 LONG.           -73.616332248:  LONGITUDE
 LATI.             3.893579824:  LATITUDE
 XCOORD.          1051220.7500:  X COORDINATE
 YCOORD.           922317.9375:  Y COORDINATE
 ELEV.FT             1376.0000:  ELEVATION
 TD  .FT             9217.0000:  TOTAL DEPTH
~Parameter Information Block
#MNEM.UNIT       Value        Description
#---------     -----------    ---------------------------
~Curve Information Block
#MNEM.UNIT                 API CODE     Curve Description
#---------               -----------    ---------------------------
 DEPTH.F                00 000 000 000:  Index Curve
 2019_pPerm_ANS.MD          00 000 000 000:  
 2019_pPhieE_D_ANS.V/V         00 000 000 000:  
~A DEPTH     2019_pPerm_ANS 2019_pPhieE_D_ANS
# ...
 8666.5000  1849.0436     0.2084 
 8667.0000  1718.2960     0.2330 
 8667.5000  3485.9182     0.2265 
 8668.0000  1835.8760     0.2020 
 8668.5000   858.9158     0.1771 
 8669.0000   706.0437     0.1768 
 8669.5000  1001.7011     0.1893 
 8670.0000   862.2726     0.1829 
 8670.5000   588.4678     0.1758 
 8671.0000    70.5795     0.0167 
 8671.5000     0.0171     0.0010 
 8672.0000     0.2345     0.0040 
 8672.5000    14.6600     0.0531 
 8673.0000   164.2477     0.1348 
 8673.5000   813.8253     0.1727 
 8674.0000  3016.0581     0.2214 
 8674.5000  2799.0107     0.2520 
 8675.0000  3720.6294     0.2702 
 8675.5000  3916.9900     0.2701 
 8676.0000  3782.5266     0.2703 
 8676.5000  3042.0503     0.2582 
 8677.0000  3175.0779     0.2582 
 8677.5000  3949.8433     0.2704 
 8678.0000  5344.3940     0.2888 
 8678.5000  5052.3770     0.2826 
 8679.0000  4091.9480     0.2700 
 8679.5000  3771.0310     0.2699 
 8680.0000  2089.2017     0.2392 
 8680.5000   920.0949     0.1843 
 8681.0000   139.1194     0.0928 
 8681.5000     6.0288     0.0740 
 8682.0000     4.2283     0.0731 
 8682.5000     0.6977     0.0171 
 8683.0000     0.0166     0.0022 
 8683.5000     0.0014     0.0012 
 8684.0000     0.0005     0.0008 
 8684.5000     0.0002     0.0002 
 8685.0000     0.0013     0.0008 
 8685.5000     0.8695     0.0047 
 8686.0000    11.7776     0.0759 
 8686.5000   225.2368     0.1416 
 8687.0000   761.2238     0.1786 
 8687.5000  2412.8062     0.2197 
 8688.0000    53.3715     0.0178 
 8688.5000     0.0225     0.0004 
 8689.0000     0.0077     0.0008 
 8689.5000    10.9170     0.0196 
 8690.0000    78.8546     0.1232 
 8690.5000   748.3467     0.1555 
 8691.0000  4152.0146     0.2659 
 8691.5000 11727.0303     0.3330 
 8692.0000 13291.1035     0.3345 
 8692.5000 13317.3008     0.3345 
 8693.0000 13201.4170     0.3339 
 8693.5000 13101.3730     0.3334 
 8694.0000 13050.4863     0.3336 
 8694.5000 12156.8408     0.3317 
 8695.0000  6945.4282     0.2934 
 8695.5000  4089.4756     0.2253 
 8696.0000  1387.9324     0.1828 
 8696.5000   883.7213     0.1840 
 8697.0000   750.5095     0.1735 
 8697.5000  1281.7369     0.1926 
 8698.0000  4700.5547     0.2782 
 8698.5000  8332.6309     0.3085 
 8699.0000  8933.3252     0.3148 
 8699.5000  7571.4136     0.3024 
 8700.0000  7486.0210     0.3025 
 8700.5000  7551.4897     0.3024 
 8701.0000  8147.0942     0.3087 
 8701.5000  7622.3926     0.3028 
 8702.0000  7980.9985     0.3030 
 8702.5000 10226.5508     0.3212 
 8703.0000 10416.7236     0.3211 
 8703.5000  9608.2520     0.3152 
 8704.0000  9447.0537     0.3150 
 8704.5000  9621.1260     0.3151 
 8705.0000 10467.5225     0.3212 
 8705.5000 10387.3711     0.3212 
 8706.0000  9430.6377     0.3148 
 8706.5000  8744.3643     0.3088 
 8707.0000  9274.6289     0.3147 
 8707.5000  7607.2974     0.3021 
 8708.0000  6494.4912     0.2951 
 8708.5000  4343.6216     0.2807 
 8709.0000    98.4164     0.0205 
 8709.5000     0.0467     0.0046 
 8710.0000     0.0592     0.0119 
 8710.5000     0.1886     0.0127 
 8711.0000     0.8169     0.0398 
 8711.5000    28.2072     0.0473 
 8712.0000   713.6226     0.1449 
 8712.5000  6127.5815     0.2905 
 8713.0000 12249.8691     0.3334 
 8713.5000 12801.9053     0.3329 
 8714.0000 11159.2617     0.3261 
 8714.5000  7161.7910     0.3010 
 8715.0000  2531.3057     0.2391 
 8715.5000   740.0496     0.1766 
 8716.0000   248.5573     0.1455 
 8716.5000   123.5854     0.1334 
 8717.0000   384.9854     0.1531 
 8717.5000  1197.6858     0.1916 
 8718.0000  2535.0735     0.2411 
 8718.5000  5885.1089     0.2902 
 8719.0000  7532.0239     0.3024 
 8719.5000  9365.9629     0.3146 
 8720.0000 10699.2871     0.3207 
 8720.5000 12860.4668     0.3330 
 8721.0000 12993.1064     0.3330 
 8721.5000 12999.5791     0.3331 
 8722.0000 13014.1885     0.3331 
 8722.5000 13029.0771     0.3332 
 8723.0000 13056.8662     0.3333 
 8723.5000 13122.6807     0.3337 
 8724.0000 12854.9961     0.3330 
 8724.5000 11688.6221     0.3269 
 8725.0000 10563.4209     0.3205 
 8725.5000 10274.0889     0.3205 
 8726.0000  9497.3594     0.3143 
 8726.5000  9690.7891     0.3198 
 8727.0000  7246.9370     0.3011 
 8727.5000  3738.6382     0.2634 
 8728.0000  1815.9736     0.2325 
 8728.5000  3451.8491     0.2263 
 8729.0000  1721.7509     0.2333 
 8729.5000  4453.0532     0.2704 
 8730.0000  9157.7812     0.3141 
 8730.5000  9099.6182     0.3139 
 8731.0000  8317.2920     0.3077 
 8731.5000  7970.5029     0.3075 
 8732.0000  6642.3247     0.2952 
 8732.5000  6457.3179     0.2946 
 8733.0000  6413.3477     0.2949 
 8733.5000  6121.6021     0.2894 
 8734.0000  7430.2495     0.3018 
 8734.5000  9063.9473     0.3141 
 8735.0000  9405.0840     0.3140 
 8735.5000  9899.2959     0.3194 
 8736.0000  7808.5161     0.3062 
 8736.5000  4211.6123     0.2258 
 8737.0000   656.6787     0.0541 
 8737.5000     0.3476     0.0242 
 8738.0000     0.0992     0.0139 
 8738.5000     0.0048     0.0019 
 8739.0000     0.0022     0.0010 
 8739.5000     0.0080     0.0038 
 8740.0000     0.1487     0.0124 
 8740.5000     0.5953     0.0354 
 8741.0000     0.1013     0.0001 
 8741.5000     0.0000     0.0001 
 8742.0000     0.0000     0.0001 
 8742.5000     0.1472     0.0001 
 8743.0000     1.3168     0.0536 
 8743.5000     0.1959     0.0048 
 8744.0000     0.0025     0.0012 
 8744.5000     0.0038     0.0013 
 8745.0000     0.0202     0.0070 
 8745.5000     0.0233     0.0064 
 8746.0000     0.0520     0.0097 
 8746.5000     0.2111     0.0194 
 8747.0000     1.0293     0.0352 
 8747.5000    21.3046     0.0787 
 8748.0000    97.1857     0.1334 
 8748.5000    18.4242     0.0463 
 8749.0000     0.3166     0.0254 
 8749.5000     0.1482     0.0185 
 8750.0000     0.0061     0.0033 
 8750.5000     0.0010     0.0000 
 8751.0000     0.0000     0.0000 
 8751.5000     0.0000     0.0000 
 8752.0000     0.0000     0.0000 
 8752.5000     0.0000     0.0000 
 8753.0000     0.0000     0.0000 
 8753.5000     0.0000     0.0000 
 8754.0000     0.0000     0.0000 
 8754.5000     0.0000     0.0000 
 8755.0000     0.0000     0.0000 
 8755.5000     0.0000     0.0000 
 8756.0000     0.0000     0.0000 
 8756.5000     0.0000     0.0000 
 8757.0000     0.0000     0.0001 
 8757.5000     0.0000     0.0000 
 8758.0000     0.0000     0.0000 
 8758.5000     0.0000     0.0000 
 8759.0000     0.0000     0.0000 
 8759.5000     0.0000     0.0000 
 8760.0000     0.0000     0.0000 
 8760.5000     0.0000     0.0000 
 8761.0000     0.0077     0.0003 
 8761.5000     0.0450     0.0102 
 8762.0000     0.0414     0.0106 
 8762.5000     0.0039     0.0012 
 8763.0000     0.0004     0.0005 
 8763.5000     0.0000     0.0001 
 8764.0000     0.0002     0.0002 
 8764.5000     0.0004     0.0006 
 8765.0000     0.0006     0.0006 
 8765.5000     0.0020     0.0020 
 8766.0000     0.0003     0.0002 
 8766.5000     0.0000     0.0000 
 8767.0000     0.0000     0.0000 
 8767.5000     0.0000     0.0000 
 8768.0000     0.0000     0.0000 
 8768.5000     0.0000     0.0000 
 8769.0000     0.0000     0.0000 
 8769.5000     0.0000     0.0000 
 8770.0000     0.0000     0.0000 
 8770.5000     0.0000     0.0001 
 8771.0000     0.0000     0.0001 
 8771.5000     0.0000     0.0000 
 8772.0000     0.0000     0.0000 
 8772.5000     0.0000     0.0000 
 8773.0000     0.0000     0.0000 
 8773.5000     0.0000     0.0000 
 8774.0000     0.0000     0.0000 
 8774.5000     0.0000     0.0000 
 8775.0000     0.0000     0.0000 
 8775.5000     0.0001     0.0000 
 8776.0000     0.2035     0.0005 
 8776.5000    31.1461     0.0515 
 8777.0000   267.1361     0.1530 
 8777.5000   567.3981     0.1730 
 8778.0000   727.8816     0.1794 
 8778.5000   733.9932     0.1796 
 8779.0000   476.1424     0.1664 
 8779.5000   311.7103     0.1584 
 8780.0000    52.8520     0.0490 
 8780.5000     0.0853     0.0111 
 8781.0000     0.0126     0.0028 
 8781.5000     0.0047     0.0028 
 8782.0000     0.0040     0.0028 
 8782.5000     0.0010     0.0008 
 8783.0000    50.0170     0.0032 
 8783.5000   301.3686     0.1578 
 8784.0000   527.7838     0.1656 
