~Version Information
 VERS.                  2.0:   CWLS log ASCII Standard -VERSION 2.0
 WRAP.                   NO:   One line per depth step
~Well Information Block
#MNEM.UNIT       Data Type    Information
#---------     -----------    ---------------------------
 STRT.F              8011.0000:
 STOP.F              9260.0000:
 STEP.F                 0.5000:
 NULL.               -999.2500:
 UWI .                CASN0030:  UWI
 API .                CASN0030:  UWI
 WELL.                 CASN-30:  COMMON WELL NAME
 COMP.               ECOPETROL:  WELL OPERATOR
 FLD .                CASTILLA:  FIELD
 LIC .                 UNKNOWN:  AUTHORIZATION NO
 LOC .                     LLA:  BASIN
 CTRY.                COLOMBIA:  COUNTRY
 STAT.                    META:  STATE
 CNTY.       CASTILLA_LA_NUEVA:  COUNTY
 PROV.                    META:  STATE
 SRVC.                 UNKNOWN:  COMPANY
 DATE.                 UNKNOWN:  LOG RUN DATE
 LONG.           -73.616480936:  LONGITUDE
 LATI.             3.893355943:  LATITUDE
 XCOORD.          1051204.2500:  X COORDINATE
 YCOORD.           922293.1875:  Y COORDINATE
 ELEV.FT             1376.0000:  ELEVATION
 TD  .FT             9235.0000:  TOTAL DEPTH
~Parameter Information Block
#MNEM.UNIT       Value        Description
#---------     -----------    ---------------------------
~Curve Information Block
#MNEM.UNIT                 API CODE     Curve Description
#---------               -----------    ---------------------------
 DEPTH.F                00 000 000 000:  Index Curve
 2019_pPerm_ANS.MD          00 000 000 000:  
 2019_pPhieE_D_ANS.V/V         00 000 000 000:  
~A DEPTH     2019_pPerm_ANS 2019_pPhieE_D_ANS
# ...
 9073.0000 20000.0000     0.2827 
 9073.5000 20000.0000     0.2852 
 9074.0000 20000.0000     0.2928 
 9074.5000 20000.0000     0.2957 
 9075.0000 20000.0000     0.2981 
 9075.5000 20000.0000     0.2867 
 9076.0000 20000.0000     0.2799 
 9076.5000 20000.0000     0.2742 
 9077.0000 20000.0000     0.2782 
 9077.5000 20000.0000     0.2771 
 9078.0000 20000.0000     0.2812 
 9078.5000 20000.0000     0.2844 
 9079.0000 20000.0000     0.2839 
 9079.5000 15304.7588     0.2718 
 9080.0000  7440.8223     0.2488 
 9080.5000  3360.1479     0.2181 
 9081.0000  2057.2898     0.2025 
 9081.5000  3262.6262     0.2105 
 9082.0000  6690.4941     0.2341 
 9082.5000 10675.8301     0.2472 
 9083.0000 12664.7305     0.2479 
 9083.5000 14644.2803     0.2525 
 9084.0000 14064.6904     0.2510 
 9084.5000 10844.9404     0.2445 
 9085.0000  6630.0024     0.2287 
 9085.5000  5868.5396     0.2255 
 9086.0000  6841.2983     0.2302 
 9086.5000 10024.8330     0.2419 
 9087.0000 12507.2842     0.2487 
 9087.5000 11385.8086     0.2466 
 9088.0000  9223.9473     0.2376 
 9088.5000 11170.6807     0.2449 
 9089.0000 14170.5801     0.2528 
 9089.5000 15427.4570     0.2544 
 9090.0000 14059.8047     0.2498 
 9090.5000 11591.6865     0.2430 
 9091.0000 10219.2881     0.2387 
 9091.5000 10973.2041     0.2424 
 9092.0000 16798.3145     0.2568 
 9092.5000 20000.0000     0.2680 
 9093.0000 20000.0000     0.2670 
 9093.5000 16320.5645     0.2556 
 9094.0000 12755.9805     0.2452 
 9094.5000 12094.5039     0.2461 
 9095.0000 13470.5352     0.2499 
 9095.5000 15409.9824     0.2546 
 9096.0000 16957.0488     0.2568 
 9096.5000 20000.0000     0.2653 
 9097.0000 20000.0000     0.2710 
 9097.5000 20000.0000     0.2693 
 9098.0000 16132.7607     0.2606 
 9098.5000 15055.8320     0.2585 
 9099.0000 18051.0215     0.2620 
 9099.5000 20000.0000     0.2653 
 9100.0000 19977.5098     0.2610 
 9100.5000 16104.4512     0.2528 
 9101.0000 14934.8594     0.2522 
 9101.5000 18158.9844     0.2584 
 9102.0000 20000.0000     0.2673 
 9102.5000 20000.0000     0.2704 
 9103.0000 20000.0000     0.2679 
 9103.5000 17888.4199     0.2670 
 9104.0000 15150.1445     0.2610 
 9104.5000 15134.7109     0.2584 
 9105.0000 14974.8594     0.2552 
 9105.5000 17269.9414     0.2597 
 9106.0000 18396.5703     0.2604 
 9106.5000 18690.2559     0.2610 
 9107.0000 14847.1182     0.2524 
 9107.5000  9829.3193     0.2402 
 9108.0000  6888.5879     0.2296 
 9108.5000  7206.9131     0.2299 
 9109.0000 10867.1943     0.2421 
 9109.5000 16809.5996     0.2565 
 9110.0000 20000.0000     0.2675 
 9110.5000 20000.0000     0.2724 
 9111.0000 20000.0000     0.2660 
 9111.5000 20000.0000     0.2612 
 9112.0000 20000.0000     0.2598 
 9112.5000 20000.0000     0.2662 
 9113.0000 20000.0000     0.2649 
 9113.5000 20000.0000     0.2622 
 9114.0000 20000.0000     0.2595 
 9114.5000 19519.2148     0.2602 
 9115.0000 20000.0000     0.2622 
 9115.5000 20000.0000     0.2655 
 9116.0000 20000.0000     0.2665 
 9116.5000 20000.0000     0.2685 
 9117.0000 20000.0000     0.2684 
 9117.5000 20000.0000     0.2712 
 9118.0000 20000.0000     0.2688 
 9118.5000 20000.0000     0.2661 
 9119.0000 20000.0000     0.2669 
 9119.5000 20000.0000     0.2699 
 9120.0000 20000.0000     0.2699 
 9120.5000 20000.0000     0.2667 
 9121.0000 20000.0000     0.2660 
 9121.5000 20000.0000     0.2644 
 9122.0000 20000.0000     0.2684 
 9122.5000 20000.0000     0.2673 
 9123.0000 20000.0000     0.2680 
 9123.5000 20000.0000     0.2686 
 9124.0000 20000.0000     0.2715 
 9124.5000 20000.0000     0.2675 
 9125.0000 20000.0000     0.2632 
 9125.5000 20000.0000     0.2612 
 9126.0000 20000.0000     0.2681 
 9126.5000 20000.0000     0.2750 
 9127.0000 20000.0000     0.2731 
 9127.5000 20000.0000     0.2757 
 9128.0000 20000.0000     0.2775 
 9128.5000 20000.0000     0.2828 
 9129.0000 20000.0000     0.2783 
 9129.5000 20000.0000     0.2702 
 9130.0000 20000.0000     0.2636 
 9130.5000 20000.0000     0.2615 
 9131.0000 20000.0000     0.2617 
 9131.5000 17705.4863     0.2562 
 9132.0000 17302.9805     0.2540 
 9132.5000 20000.0000     0.2619 
 9133.0000 20000.0000     0.2690 
 9133.5000 20000.0000     0.2774 
 9134.0000 20000.0000     0.2785 
 9134.5000 20000.0000     0.2822 
 9135.0000 20000.0000     0.2832 
 9135.5000 20000.0000     0.2852 
 9136.0000 20000.0000     0.2886 
 9136.5000 20000.0000     0.2970 
 9137.0000 20000.0000     0.2997 
 9137.5000 20000.0000     0.2982 
 9138.0000 20000.0000     0.2913 
 9138.5000 20000.0000     0.2904 
 9139.0000 20000.0000     0.2944 
 9139.5000 20000.0000     0.2943 
 9140.0000 20000.0000     0.2897 
 9140.5000 20000.0000     0.2771 
 9141.0000 11935.7686     0.2662 
 9141.5000  8876.1240     0.2628 
 9142.0000  9946.8438     0.2675 
 9142.5000 13207.5566     0.2715 
 9143.0000 16326.5674     0.2722 
 9143.5000 20000.0000     0.2741 
 9144.0000 20000.0000     0.2736 
 9144.5000 20000.0000     0.2744 
 9145.0000 20000.0000     0.2709 
 9145.5000 19522.9688     0.2653 
 9146.0000 14515.8105     0.2559 
 9146.5000 12890.0244     0.2492 
 9147.0000 13791.1592     0.2522 
 9147.5000 16737.9316     0.2589 
 9148.0000 20000.0000     0.2657 
 9148.5000 20000.0000     0.2681 
 9149.0000 18945.5996     0.2631 
 9149.5000 14235.7637     0.2524 
 9150.0000 12083.8740     0.2464 
 9150.5000 11040.4512     0.2416 
 9151.0000 12131.6006     0.2455 
 9151.5000 12599.9453     0.2470 
 9152.0000 13588.0664     0.2504 
 9152.5000 14446.7842     0.2532 
 9153.0000 12637.6406     0.2485 
 9153.5000 11450.1543     0.2444 
 9154.0000 11653.7148     0.2442 
 9154.5000 13045.9805     0.2466 
 9155.0000 14427.9395     0.2504 
 9155.5000 15085.9424     0.2516 
 9156.0000 15684.5557     0.2528 
 9156.5000 15840.5137     0.2517 
 9157.0000 12012.0547     0.2419 
 9157.5000  9644.8838     0.2365 
 9158.0000  9179.0615     0.2354 
 9158.5000  9181.5400     0.2368 
 9159.0000  7775.1328     0.2308 
 9159.5000  7273.4922     0.2303 
 9160.0000  8004.2437     0.2333 
 9160.5000 10280.5908     0.2427 
 9161.0000 12340.2559     0.2485 
 9161.5000 12564.2158     0.2487 
 9162.0000 10511.0615     0.2424 
 9162.5000  8658.2227     0.2365 
 9163.0000  6860.2949     0.2304 
 9163.5000  6053.2915     0.2266 
 9164.0000  5878.5708     0.2276 
 9164.5000  6597.3096     0.2303 
 9165.0000  7434.5415     0.2352 
 9165.5000  7835.0723     0.2344 
 9166.0000  8974.8672     0.2382 
 9166.5000 11259.0166     0.2428 
 9167.0000 14653.6113     0.2518 
 9167.5000 16022.7461     0.2563 
 9168.0000 14343.6045     0.2505 
 9168.5000 10526.0303     0.2402 
 9169.0000  7366.8091     0.2281 
 9169.5000  5775.6055     0.2221 
 9170.0000  5011.0137     0.2167 
 9170.5000  5565.2148     0.2204 
 9171.0000  6626.8252     0.2262 
 9171.5000  6831.4375     0.2286 
 9172.0000  6131.8779     0.2245 
 9172.5000  5286.2222     0.2196 
 9173.0000  4846.5786     0.2170 
 9173.5000  4623.9219     0.2146 
 9174.0000  5692.3501     0.2205 
 9174.5000  7637.8716     0.2303 
 9175.0000  9271.6318     0.2369 
 9175.5000  9758.5898     0.2374 
 9176.0000  9575.7754     0.2365 
 9176.5000  8682.7520     0.2334 
 9177.0000  8096.3491     0.2304 
 9177.5000  7891.7900     0.2302 
 9178.0000  8908.1035     0.2350 
 9178.5000  8884.7949     0.2340 
 9179.0000  7449.1543     0.2278 
 9179.5000  6638.2354     0.2250 
 9180.0000  7962.5122     0.2319 
 9180.5000 10600.7246     0.2428 
 9181.0000 12562.9053     0.2476 
 9181.5000 13195.1328     0.2490 
 9182.0000 12517.0381     0.2470 
 9182.5000 11828.7471     0.2450 
 9183.0000 11783.4512     0.2444 
 9183.5000 11522.7510     0.2438 
 9184.0000 11160.6875     0.2424 
 9184.5000  9894.5615     0.2372 
 9185.0000 10834.5820     0.2416 
 9185.5000 11674.1104     0.2438 
 9186.0000 12701.9199     0.2464 
 9186.5000 10193.7559     0.2374 
 9187.0000  8383.7285     0.2325 
 9187.5000  8164.6187     0.2315 
 9188.0000  8193.1465     0.2322 
 9188.5000  8394.0244     0.2331 
 9189.0000  8043.7251     0.2313 
 9189.5000  7359.1909     0.2279 
 9190.0000  7315.3916     0.2290 
 9190.5000  7319.9341     0.2293 
