~Version Information
 VERS.                  2.0:   CWLS log ASCII Standard -VERSION 2.0
 WRAP.                   NO:   One line per depth step
~Well Information Block
#MNEM.UNIT       Data Type    Information
#---------     -----------    ---------------------------
 STRT.F              7353.0000:
 STOP.F              8528.5000:
 STEP.F                 0.5000:
 NULL.               -999.2500:
 UWI .                CASN0108:  UWI
 API .                CASN0108:  UWI
 WELL.                CASN-108:  COMMON WELL NAME
 COMP.               ECOPETROL:  WELL OPERATOR
 FLD .                CASTILLA:  FIELD
 LIC .                 UNKNOWN:  AUTHORIZATION NO
 LOC .                     LLA:  BASIN
 CTRY.                COLOMBIA:  COUNTRY
 STAT.                    META:  STATE
 CNTY.                 UNKNOWN:  COUNTY
 PROV.                    META:  STATE
 SRVC.                 UNKNOWN:  COMPANY
 DATE.                 UNKNOWN:  LOG RUN DATE
 LONG.           -73.606511044:  LONGITUDE
 LATI.             3.902261590:  LATITUDE
 XCOORD.          1052311.0000:  X COORDINATE
 YCOORD.           923278.6250:  Y COORDINATE
 ELEV.FT             1333.7070:  ELEVATION
 TD  .FT             8565.0000:  TOTAL DEPTH
~Parameter Information Block
#MNEM.UNIT       Value        Description
#---------     -----------    ---------------------------
~Curve Information Block
#MNEM.UNIT                 API CODE     Curve Description
#---------               -----------    ---------------------------
 DEPTH.F                00 000 000 000:  Index Curve
 2019_pPerm_ANS.MD          00 000 000 000:  
 2019_pPhieE_D_ANS.V/V         00 000 000 000:  
~A DEPTH     2019_pPerm_ANS 2019_pPhieE_D_ANS
# ...
 7825.0000   759.8669     0.1866 
 7825.5000  1046.1077     0.1946 
 7826.0000  1120.6942     0.1964 
 7826.5000  1080.9437     0.1957 
 7827.0000   884.2208     0.1913 
 7827.5000   602.3995     0.1814 
 7828.0000   400.6665     0.1703 
 7828.5000   393.9755     0.1704 
 7829.0000   525.3508     0.1784 
 7829.5000   636.8983     0.1834 
 7830.0000   639.3270     0.1828 
 7830.5000   599.2360     0.1798 
 7831.0000   662.0163     0.1829 
 7831.5000   821.8173     0.1884 
 7832.0000  1014.9589     0.1939 
 7832.5000  1253.1069     0.1988 
 7833.0000  1520.3601     0.2033 
 7833.5000  1497.6836     0.2028 
 7834.0000  1369.8802     0.1998 
 7834.5000  1507.6458     0.2028 
 7835.0000  1608.4651     0.2051 
 7835.5000  1379.7682     0.2013 
 7836.0000  1140.1743     0.1964 
 7836.5000  1007.2274     0.1933 
 7837.0000   902.7827     0.1903 
 7837.5000   847.9553     0.1885 
 7838.0000   898.4430     0.1907 
 7838.5000  1110.1145     0.1966 
 7839.0000  1532.9828     0.2063 
 7839.5000  1905.1721     0.2130 
 7840.0000  1785.3889     0.2111 
 7840.5000  1356.6310     0.2032 
 7841.0000   947.4593     0.1928 
 7841.5000   728.5244     0.1862 
 7842.0000   763.8711     0.1875 
 7842.5000   820.5288     0.1889 
 7843.0000   872.1604     0.1901 
 7843.5000   961.0018     0.1931 
 7844.0000  1045.2710     0.1967 
 7844.5000   982.0920     0.1947 
 7845.0000   725.2594     0.1862 
 7845.5000   561.3751     0.1801 
 7846.0000   622.7811     0.1826 
 7846.5000   723.1038     0.1864 
 7847.0000   702.9951     0.1848 
 7847.5000   622.9964     0.1807 
 7848.0000   500.1141     0.1770 
 7848.5000   227.8072     0.1564 
 7849.0000    44.9975     0.1133 
 7849.5000     4.2196     0.0629 
 7850.0000     0.3240     0.0381 
 7850.5000     0.0379     0.0058 
 7851.0000     0.0016     0.0027 
 7851.5000     0.0087     0.0054 
 7852.0000     0.0514     0.0176 
 7852.5000     0.2345     0.0404 
 7853.0000     0.2280     0.0377 
 7853.5000     0.0578     0.0152 
 7854.0000     0.0027     0.0044 
 7854.5000     0.0008     0.0017 
 7855.0000     0.0002     0.0010 
 7855.5000     0.0001     0.0009 
 7856.0000     0.0001     0.0008 
 7856.5000     0.0001     0.0008 
 7857.0000     0.0000     0.0004 
 7857.5000     0.0000     0.0002 
 7858.0000     0.0000     0.0001 
 7858.5000     0.0000     0.0001 
 7859.0000     0.0000     0.0001 
 7859.5000     0.0000     0.0000 
 7860.0000     0.0000     0.0000 
 7860.5000     0.0000     0.0000 
 7861.0000     0.0000     0.0001 
 7861.5000     0.0000     0.0002 
 7862.0000     0.0000     0.0003 
 7862.5000     0.0000     0.0003 
 7863.0000     0.0000     0.0004 
 7863.5000     0.0001     0.0007 
 7864.0000     0.0002     0.0012 
 7864.5000     0.0002     0.0010 
 7865.0000     0.0000     0.0004 
 7865.5000     0.0001     0.0006 
 7866.0000     0.0119     0.0037 
 7866.5000     0.1095     0.0224 
 7867.0000     1.1248     0.0609 
 7867.5000     2.9424     0.0826 
 7868.0000     3.8342     0.0858 
 7868.5000     4.7346     0.0885 
 7869.0000     6.8538     0.0948 
 7869.5000     9.4389     0.1010 
 7870.0000    10.6576     0.1034 
 7870.5000     9.7415     0.1015 
 7871.0000     8.0609     0.0978 
 7871.5000     6.9884     0.0959 
 7872.0000     5.3474     0.0914 
 7872.5000     3.4994     0.0839 
 7873.0000     2.2216     0.0772 
 7873.5000     2.3055     0.0765 
 7874.0000     3.3427     0.0839 
 7874.5000     4.4261     0.0893 
 7875.0000     4.9198     0.0906 
 7875.5000     4.2993     0.0887 
 7876.0000     3.1072     0.0827 
 7876.5000     1.7425     0.0674 
 7877.0000     1.7941     0.0754 
 7877.5000     0.7216     0.0524 
 7878.0000     0.1848     0.0322 
 7878.5000     0.0943     0.0244 
 7879.0000     0.1033     0.0269 
 7879.5000     0.1621     0.0312 
 7880.0000     0.3160     0.0422 
 7880.5000     0.4331     0.0490 
 7881.0000     0.2499     0.0380 
 7881.5000     0.0905     0.0242 
 7882.0000     0.0521     0.0171 
 7882.5000     0.1662     0.0270 
 7883.0000     1.0424     0.0618 
 7883.5000     2.1416     0.0789 
 7884.0000     1.0418     0.0619 
 7884.5000     0.0848     0.0218 
 7885.0000     0.0143     0.0068 
 7885.5000     0.0015     0.0032 
 7886.0000     0.0013     0.0029 
 7886.5000     0.0016     0.0033 
 7887.0000     0.0044     0.0054 
 7887.5000     0.0096     0.0091 
 7888.0000     0.0091     0.0091 
 7888.5000     0.0047     0.0060 
 7889.0000     0.0030     0.0041 
 7889.5000     0.0095     0.0065 
 7890.0000     0.1296     0.0197 
 7890.5000     2.1610     0.0555 
 7891.0000    11.5115     0.1099 
 7891.5000     9.0428     0.1037 
 7892.0000     1.8735     0.0625 
 7892.5000    29.1926     0.0637 
 7893.0000   219.2750     0.1679 
 7893.5000   726.5352     0.1951 
 7894.0000  1216.8802     0.2033 
 7894.5000  1110.4915     0.1985 
 7895.0000   737.7762     0.1859 
 7895.5000   395.1936     0.1693 
 7896.0000   166.9907     0.1518 
 7896.5000   108.4503     0.1426 
 7897.0000    85.1953     0.1418 
 7897.5000    76.4531     0.1418 
 7898.0000    68.1684     0.1398 
 7898.5000    59.1114     0.1347 
 7899.0000    57.7884     0.1327 
 7899.5000    70.2616     0.1372 
 7900.0000    77.9131     0.1397 
 7900.5000    62.9722     0.1352 
 7901.0000    39.9580     0.1251 
 7901.5000    30.7176     0.1205 
 7902.0000    45.4947     0.1270 
 7902.5000   109.5422     0.1475 
 7903.0000   227.7235     0.1653 
 7903.5000   276.9423     0.1666 
 7904.0000   228.4368     0.1591 
 7904.5000   203.6095     0.1561 
 7905.0000   305.4513     0.1651 
 7905.5000   493.3159     0.1785 
 7906.0000   580.2283     0.1830 
 7906.5000   531.7986     0.1784 
 7907.0000   411.0208     0.1707 
 7907.5000   321.2873     0.1652 
 7908.0000   223.4778     0.1576 
 7908.5000   136.3919     0.1479 
 7909.0000    89.3437     0.1395 
 7909.5000    62.2685     0.1321 
 7910.0000    57.8467     0.1309 
 7910.5000    57.8136     0.1309 
 7911.0000    60.8346     0.1321 
 7911.5000    64.3690     0.1340 
 7912.0000    57.9585     0.1311 
 7912.5000    43.6956     0.1244 
 7913.0000    31.8038     0.1180 
 7913.5000    31.9668     0.1190 
 7914.0000    39.3789     0.1239 
 7914.5000    52.2535     0.1296 
 7915.0000    61.6871     0.1323 
 7915.5000    58.7021     0.1316 
 7916.0000    52.3987     0.1295 
 7916.5000    43.1494     0.1264 
 7917.0000    28.7711     0.1182 
 7917.5000     9.5647     0.0921 
 7918.0000     1.4654     0.0629 
 7918.5000     0.6566     0.0492 
 7919.0000     0.4881     0.0500 
 7919.5000     0.1906     0.0309 
 7920.0000     0.1060     0.0262 
 7920.5000     0.2290     0.0337 
 7921.0000     2.6276     0.0539 
 7921.5000    17.1777     0.1177 
 7922.0000    18.3222     0.1160 
 7922.5000     7.2117     0.0917 
 7923.0000     1.1798     0.0409 
 7923.5000     0.0702     0.0001 
 7924.0000     0.2286     0.0427 
 7924.5000     0.0247     0.0032 
 7925.0000     0.0002     0.0002 
 7925.5000     0.0000     0.0001 
 7926.0000     0.0000     0.0001 
 7926.5000     0.0001     0.0007 
 7927.0000     0.0007     0.0021 
 7927.5000     0.0017     0.0035 
 7928.0000     0.0014     0.0032 
 7928.5000     0.0014     0.0032 
 7929.0000     0.0015     0.0031 
 7929.5000     0.0025     0.0037 
 7930.0000     0.0523     0.0096 
 7930.5000     0.8798     0.0410 
 7931.0000     6.1250     0.0963 
 7931.5000     6.5776     0.0945 
 7932.0000     2.7122     0.0770 
 7932.5000     0.8582     0.0568 
 7933.0000     0.1543     0.0242 
 7933.5000     0.1424     0.0257 
 7934.0000     0.5825     0.0487 
 7934.5000     1.8482     0.0769 
 7935.0000     2.1699     0.0800 
 7935.5000     0.4943     0.0341 
 7936.0000     0.0102     0.0043 
 7936.5000     0.0004     0.0002 
 7937.0000     0.0000     0.0000 
 7937.5000     0.0000     0.0000 
 7938.0000     0.0000     0.0000 
 7938.5000     0.0000     0.0000 
 7939.0000     0.0000     0.0000 
 7939.5000     0.0000     0.0000 
 7940.0000     0.0000     0.0000 
 7940.5000     0.0033     0.0004 
 7941.0000   107.3676     0.0135 
 7941.5000  1103.3698     0.2147 
 7942.0000  1909.6459     0.2506 
 7942.5000  2906.3152     0.2590 
